% program   : RTKLIB ver.2.4.2
% inp file  : C:\IPNA\data\OBS\CVBB2800.o
% inp file  : C:\IPNA\data\NAV\CVBB2800.n
% inp file  : C:\IPNA\data\SP3\CVBB2800.sp3
% inp file  : C:\IPNA\data\CLOCK\CVBB2800.clk
% obs start : 2021/10/06 23:59:42.0 UTC (week2178 345600.0s)
% obs end   : 2021/10/07 23:59:12.0 UTC (week2178 431970.0s)
% pos mode  : ppp-static
% solution  : forward
% elev mask : 15.0 deg
% dynamics  : off
% tidecorr  : on
% tropo opt : est ztd
% ephemeris : precise
% antenna1  :                       ( 0.0000  0.0000  0.0000)
%
% (lat/lon/height=WGS84/ellipsoidal,Q=1:fix,2:float,3:sbas,4:dgps,5:single,6:ppp,ns=# of satellites)
%  UTC                     latitude(d'")   longitude(d'")  height(m)   Q  ns   sdn(m)   sde(m)   sdu(m)  sdne(m)  sdeu(m)  sdue(m) age(s)  ratio
2021/10/06 23:59:42.000   28 35 34.05618  -17 55 01.60252    75.9336   6   6   1.5840   1.4472   4.5321  -0.5427   0.0970  -1.5470   0.00    0.0
2021/10/07 00:00:12.000   28 35 34.07040  -17 55 01.61285    74.9984   6   6   1.1019   1.0218   3.0642  -0.3736  -0.1073  -1.0459   0.00    0.0
2021/10/07 00:00:42.000   28 35 34.07019  -17 55 01.61483    75.2251   6   6   0.8926   0.8336   2.4539  -0.3007  -0.1019  -0.8385   0.00    0.0
2021/10/07 00:01:12.000   28 35 34.07195  -17 55 01.62035    75.5429   6   6   0.7694   0.7216   2.1015  -0.2580  -0.0878  -0.7196   0.00    0.0
2021/10/07 00:01:42.000   28 35 34.07064  -17 55 01.62074    75.7602   6   6   0.6860   0.6452   1.8665  -0.2292  -0.0731  -0.6405   0.00    0.0
2021/10/07 00:02:12.000   28 35 34.07453  -17 55 01.61978    75.7123   6   6   0.6249   0.5889   1.6963  -0.2081  -0.0586  -0.5834   0.00    0.0
2021/10/07 00:02:42.000   28 35 34.07752  -17 55 01.62278    75.6479   6   6   0.5726   0.5447   1.5284  -0.1891  -0.0696  -0.5264   0.00    0.0
2021/10/07 00:03:12.000   28 35 34.08180  -17 55 01.62478    75.3203   6   6   0.5229   0.5083   1.3420  -0.1696  -0.0983  -0.4614   0.00    0.0
2021/10/07 00:03:42.000   28 35 34.08291  -17 55 01.62302    75.0528   6   6   0.4676   0.4770   1.1152  -0.1453  -0.1351  -0.3778   0.00    0.0
2021/10/07 00:04:12.000   28 35 34.08660  -17 55 01.62274    74.6029   6   6   0.3932   0.4476   0.8368  -0.1086  -0.1729  -0.2638   0.00    0.0
2021/10/07 00:04:42.000   28 35 34.09874  -17 55 01.62248    73.7685   6   6   0.3108   0.4191   0.6072  -0.0678  -0.1954  -0.1555   0.00    0.0
2021/10/07 00:05:12.000   28 35 34.09997  -17 55 01.62222    73.7513   6   6   0.2928   0.4004   0.5761  -0.0612  -0.1889  -0.1413   0.00    0.0
2021/10/07 00:05:42.000   28 35 34.10117  -17 55 01.62346    73.7195   6   6   0.2833   0.3849   0.5631  -0.0598  -0.1818  -0.1366   0.00    0.0
2021/10/07 00:06:12.000   28 35 34.10139  -17 55 01.62255    73.7107   6   6   0.2761   0.3713   0.5547  -0.0594  -0.1752  -0.1342   0.00    0.0
2021/10/07 00:06:42.000   28 35 34.10175  -17 55 01.62298    73.7202   6   6   0.2700   0.3592   0.5481  -0.0593  -0.1690  -0.1326   0.00    0.0
2021/10/07 00:07:12.000   28 35 34.10222  -17 55 01.62418    73.7439   6   6   0.2646   0.3482   0.5427  -0.0591  -0.1633  -0.1314   0.00    0.0
2021/10/07 00:07:42.000   28 35 34.10265  -17 55 01.62451    73.7637   6   6   0.2584   0.3380   0.5348  -0.0582  -0.1584  -0.1289   0.00    0.0
2021/10/07 00:08:12.000   28 35 34.10308  -17 55 01.62438    73.7965   6   6   0.2506   0.3284   0.5222  -0.0561  -0.1547  -0.1232   0.00    0.0
2021/10/07 00:08:42.000   28 35 34.10437  -17 55 01.62394    73.8443   6   6   0.2385   0.3189   0.4987  -0.0512  -0.1531  -0.1100   0.00    0.0
2021/10/07 00:09:12.000   28 35 34.10765  -17 55 01.62453    73.7256   6   6   0.2145   0.3083   0.4491  -0.0391  -0.1556  -0.0727   0.00    0.0
2021/10/07 00:09:42.000   28 35 34.11007  -17 55 01.62268    73.4473   6   6   0.1764   0.2947   0.3779  -0.0232  -0.1615   0.0540   0.00    0.0
2021/10/07 00:10:12.000   28 35 34.10945  -17 55 01.62154    73.4158   6   6   0.1685   0.2869   0.3670  -0.0204  -0.1595   0.0619   0.00    0.0
2021/10/07 00:10:42.000   28 35 34.10904  -17 55 01.62192    73.4138   6   6   0.1651   0.2807   0.3630  -0.0206  -0.1568   0.0635   0.00    0.0
2021/10/07 00:11:12.000   28 35 34.10888  -17 55 01.62241    73.4113   6   6   0.1629   0.2751   0.3605  -0.0213  -0.1541   0.0638   0.00    0.0
2021/10/07 00:11:42.000   28 35 34.10863  -17 55 01.62261    73.4081   6   6   0.1612   0.2699   0.3587  -0.0221  -0.1515   0.0636   0.00    0.0
2021/10/07 00:12:12.000   28 35 34.10847  -17 55 01.62215    73.3996   6   6   0.1597   0.2651   0.3572  -0.0228  -0.1489   0.0633   0.00    0.0
2021/10/07 00:12:42.000   28 35 34.10853  -17 55 01.62143    73.3906   6   6   0.1579   0.2604   0.3552  -0.0232  -0.1466   0.0635   0.00    0.0
2021/10/07 00:13:12.000   28 35 34.10855  -17 55 01.62170    73.3793   6   6   0.1553   0.2557   0.3520  -0.0233  -0.1446   0.0647   0.00    0.0
2021/10/07 00:13:42.000   28 35 34.10881  -17 55 01.62080    73.3326   6   6   0.1509   0.2509   0.3459  -0.0228  -0.1433   0.0685   0.00    0.0
2021/10/07 00:14:12.000   28 35 34.10967  -17 55 01.61969    73.2405   6   6   0.1409   0.2450   0.3315  -0.0216  -0.1439   0.0785   0.00    0.0
2021/10/07 00:14:42.000   28 35 34.11079  -17 55 01.61759    73.2017   6   6   0.1219   0.2364   0.3044  -0.0258  -0.1473   0.0927   0.00    0.0
2021/10/07 00:15:12.000   28 35 34.11056  -17 55 01.61663    73.2180   6   6   0.1178   0.2318   0.2995  -0.0265  -0.1466   0.0942   0.00    0.0
2021/10/07 00:15:42.000   28 35 34.11062  -17 55 01.61670    73.2259   6   6   0.1162   0.2283   0.2975  -0.0268  -0.1452   0.0944   0.00    0.0
2021/10/07 00:16:12.000   28 35 34.11068  -17 55 01.61611    73.2245   6   6   0.1152   0.2252   0.2963  -0.0269  -0.1436   0.0943   0.00    0.0
2021/10/07 00:16:42.000   28 35 34.11058  -17 55 01.61568    73.2217   6   6   0.1144   0.2223   0.2953  -0.0270  -0.1421   0.0940   0.00    0.0
2021/10/07 00:17:12.000   28 35 34.11054  -17 55 01.61529    73.2205   6   6   0.1138   0.2195   0.2945  -0.0270  -0.1405   0.0937   0.00    0.0
2021/10/07 00:17:42.000   28 35 34.11038  -17 55 01.61473    73.2143   6   6   0.1130   0.2168   0.2935  -0.0270  -0.1391   0.0936   0.00    0.0
2021/10/07 00:18:12.000   28 35 34.11010  -17 55 01.61420    73.2141   6   6   0.1118   0.2141   0.2920  -0.0272  -0.1379   0.0936   0.00    0.0
2021/10/07 00:18:42.000   28 35 34.10976  -17 55 01.61357    73.2183   6   6   0.1098   0.2111   0.2893  -0.0278  -0.1372   0.0943   0.00    0.0
2021/10/07 00:19:12.000   28 35 34.11045  -17 55 01.61333    73.1878   6   6   0.1049   0.2072   0.2830  -0.0298  -0.1378   0.0967   0.00    0.0
2021/10/07 00:19:42.000   28 35 34.11141  -17 55 01.61389    73.1902   6   6   0.0944   0.2011   0.2690  -0.0360  -0.1407   0.1012   0.00    0.0
2021/10/07 00:20:12.000   28 35 34.11238  -17 55 01.61472    73.1758   6   6   0.0921   0.1981   0.2658  -0.0370  -0.1405   0.1014   0.00    0.0
2021/10/07 00:20:42.000   28 35 34.11244  -17 55 01.61518    73.1820   6   6   0.0912   0.1958   0.2644  -0.0371  -0.1396   0.1012   0.00    0.0
2021/10/07 00:21:12.000   28 35 34.11251  -17 55 01.61518    73.1764   6   6   0.0906   0.1938   0.2635  -0.0370  -0.1385   0.1010   0.00    0.0
2021/10/07 00:21:42.000   28 35 34.11245  -17 55 01.61514    73.1680   6   6   0.0902   0.1919   0.2627  -0.0369  -0.1374   0.1007   0.00    0.0
2021/10/07 00:22:12.000   28 35 34.11237  -17 55 01.61477    73.1603   6   6   0.0899   0.1901   0.2620  -0.0367  -0.1363   0.1005   0.00    0.0
2021/10/07 00:22:42.000   28 35 34.11228  -17 55 01.61455    73.1541   6   6   0.0895   0.1884   0.2612  -0.0365  -0.1353   0.1002   0.00    0.0
2021/10/07 00:23:12.000   28 35 34.11208  -17 55 01.61442    73.1530   6   6   0.0889   0.1865   0.2602  -0.0365  -0.1344   0.1001   0.00    0.0
2021/10/07 00:23:42.000   28 35 34.11173  -17 55 01.61453    73.1614   6   6   0.0878   0.1845   0.2585  -0.0370  -0.1339   0.1001   0.00    0.0
2021/10/07 00:24:12.000   28 35 34.11174  -17 55 01.61492    73.1555   6   6   0.0852   0.1817   0.2546  -0.0387  -0.1343   0.1007   0.00    0.0
2021/10/07 00:24:42.000   28 35 34.11156  -17 55 01.61475    73.1863   6   6   0.0792   0.1773   0.2457  -0.0436  -0.1366   0.1021   0.00    0.0
2021/10/07 00:25:12.000   28 35 34.11101  -17 55 01.61413    73.2009   6   6   0.0778   0.1751   0.2433  -0.0444  -0.1366   0.1020   0.00    0.0
2021/10/07 00:25:42.000   28 35 34.11094  -17 55 01.61382    73.1995   6   6   0.0772   0.1735   0.2422  -0.0445  -0.1359   0.1017   0.00    0.0
2021/10/07 00:26:12.000   28 35 34.11087  -17 55 01.61363    73.2019   6   6   0.0769   0.1721   0.2413  -0.0443  -0.1350   0.1015   0.00    0.0
2021/10/07 00:26:42.000   28 35 34.11082  -17 55 01.61373    73.2066   6   6   0.0766   0.1708   0.2406  -0.0440  -0.1341   0.1012   0.00    0.0
2021/10/07 00:27:12.000   28 35 34.11074  -17 55 01.61403    73.2065   6   6   0.0764   0.1695   0.2400  -0.0438  -0.1332   0.1010   0.00    0.0
2021/10/07 00:27:42.000   28 35 34.11069  -17 55 01.61416    73.1999   6   6   0.0761   0.1683   0.2393  -0.0436  -0.1324   0.1007   0.00    0.0
2021/10/07 00:28:12.000   28 35 34.11064  -17 55 01.61379    73.1907   6   6   0.0757   0.1669   0.2384  -0.0435  -0.1316   0.1005   0.00    0.0
2021/10/07 00:28:42.000   28 35 34.11077  -17 55 01.61379    73.1861   6   6   0.0751   0.1654   0.2371  -0.0437  -0.1312   0.1003   0.00    0.0
2021/10/07 00:29:12.000   28 35 34.11105  -17 55 01.61380    73.1817   6   6   0.0736   0.1633   0.2344  -0.0449  -0.1314   0.1003   0.00    0.0
2021/10/07 00:29:42.000   28 35 34.11096  -17 55 01.61346    73.1972   6   6   0.0699   0.1598   0.2285  -0.0484  -0.1329   0.1008   0.00    0.0
2021/10/07 00:30:12.000   28 35 34.11083  -17 55 01.61330    73.2020   6   6   0.0689   0.1581   0.2265  -0.0490  -0.1328   0.1005   0.00    0.0
2021/10/07 00:30:42.000   28 35 34.11076  -17 55 01.61332    73.2062   6   6   0.0685   0.1568   0.2255  -0.0490  -0.1322   0.1002   0.00    0.0
2021/10/07 00:31:12.000   28 35 34.11076  -17 55 01.61336    73.2058   6   6   0.0683   0.1558   0.2248  -0.0488  -0.1315   0.1000   0.00    0.0
2021/10/07 00:31:42.000   28 35 34.11070  -17 55 01.61320    73.2034   6   6   0.0681   0.1548   0.2241  -0.0485  -0.1307   0.0997   0.00    0.0
2021/10/07 00:32:12.000   28 35 34.11063  -17 55 01.61299    73.1983   6   6   0.0679   0.1538   0.2235  -0.0482  -0.1299   0.0995   0.00    0.0
2021/10/07 00:32:42.000   28 35 34.11060  -17 55 01.61296    73.1979   6   6   0.0677   0.1529   0.2229  -0.0480  -0.1292   0.0992   0.00    0.0
2021/10/07 00:33:12.000   28 35 34.11055  -17 55 01.61262    73.1873   6   6   0.0675   0.1518   0.2221  -0.0478  -0.1285   0.0990   0.00    0.0
2021/10/07 00:33:42.000   28 35 34.11052  -17 55 01.61218    73.1790   6   6   0.0671   0.1506   0.2210  -0.0479  -0.1280   0.0987   0.00    0.0
2021/10/07 00:34:12.000   28 35 34.11070  -17 55 01.61163    73.1822   6   6   0.0661   0.1488   0.2188  -0.0485  -0.1278   0.0985   0.00    0.0
2021/10/07 00:34:42.000   28 35 34.11109  -17 55 01.61066    73.2054   6   6   0.0636   0.1453   0.2142  -0.0507  -0.1281   0.0984   0.00    0.0
2021/10/07 00:35:12.000   28 35 34.11121  -17 55 01.61051    73.2133   6   6   0.0629   0.1438   0.2125  -0.0510  -0.1276   0.0981   0.00    0.0
2021/10/07 00:35:42.000   28 35 34.11121  -17 55 01.61013    73.2098   6   6   0.0626   0.1428   0.2115  -0.0509  -0.1270   0.0978   0.00    0.0
2021/10/07 00:36:12.000   28 35 34.11120  -17 55 01.61006    73.2091   6   6   0.0624   0.1420   0.2108  -0.0506  -0.1263   0.0975   0.00    0.0
2021/10/07 00:36:42.000   28 35 34.11117  -17 55 01.60993    73.2066   6   6   0.0623   0.1412   0.2102  -0.0504  -0.1257   0.0972   0.00    0.0
2021/10/07 00:37:12.000   28 35 34.11110  -17 55 01.60959    73.1986   6   6   0.0621   0.1405   0.2097  -0.0501  -0.1250   0.0970   0.00    0.0
2021/10/07 00:37:42.000   28 35 34.11108  -17 55 01.60936    73.1943   6   6   0.0620   0.1397   0.2091  -0.0498  -0.1243   0.0967   0.00    0.0
2021/10/07 00:38:12.000   28 35 34.11112  -17 55 01.60924    73.1917   6   6   0.0618   0.1388   0.2083  -0.0496  -0.1237   0.0965   0.00    0.0
2021/10/07 00:38:42.000   28 35 34.11115  -17 55 01.60909    73.1918   6   6   0.0614   0.1378   0.2072  -0.0495  -0.1230   0.0961   0.00    0.0
2021/10/07 00:39:12.000   28 35 34.11126  -17 55 01.60871    73.2149   6   6   0.0606   0.1360   0.2048  -0.0496  -0.1221   0.0955   0.00    0.0
2021/10/07 00:39:42.000   28 35 34.11179  -17 55 01.60785    73.2436   6   6   0.0586   0.1320   0.1998  -0.0502  -0.1204   0.0944   0.00    0.0
2021/10/07 00:40:12.000   28 35 34.11183  -17 55 01.60733    73.2487   6   6   0.0580   0.1304   0.1978  -0.0501  -0.1194   0.0938   0.00    0.0
2021/10/07 00:40:42.000   28 35 34.11186  -17 55 01.60697    73.2443   6   6   0.0577   0.1295   0.1968  -0.0498  -0.1187   0.0934   0.00    0.0
2021/10/07 00:41:12.000   28 35 34.11188  -17 55 01.60691    73.2417   6   6   0.0575   0.1288   0.1961  -0.0496  -0.1181   0.0931   0.00    0.0
2021/10/07 00:41:42.000   28 35 34.11185  -17 55 01.60696    73.2404   6   6   0.0574   0.1282   0.1955  -0.0493  -0.1175   0.0929   0.00    0.0
2021/10/07 00:42:12.000   28 35 34.11182  -17 55 01.60691    73.2390   6   6   0.0573   0.1276   0.1949  -0.0490  -0.1169   0.0926   0.00    0.0
2021/10/07 00:42:42.000   28 35 34.11181  -17 55 01.60688    73.2394   6   6   0.0571   0.1270   0.1943  -0.0488  -0.1163   0.0924   0.00    0.0
2021/10/07 00:43:12.000   28 35 34.11178  -17 55 01.60689    73.2401   6   6   0.0570   0.1262   0.1935  -0.0485  -0.1155   0.0920   0.00    0.0
2021/10/07 00:43:42.000   28 35 34.11176  -17 55 01.60669    73.2321   6   6   0.0566   0.1252   0.1921  -0.0482  -0.1146   0.0915   0.00    0.0
2021/10/07 00:44:12.000   28 35 34.11200  -17 55 01.60657    73.2281   6   6   0.0558   0.1232   0.1890  -0.0476  -0.1128   0.0904   0.00    0.0
2021/10/07 00:44:42.000   28 35 34.11244  -17 55 01.60626    73.2478   6   6   0.0534   0.1183   0.1820  -0.0464  -0.1085   0.0876   0.00    0.0
2021/10/07 00:45:12.000   28 35 34.11249  -17 55 01.60605    73.2572   6   6   0.0528   0.1167   0.1794  -0.0458  -0.1069   0.0866   0.00    0.0
2021/10/07 00:45:42.000   28 35 34.11244  -17 55 01.60597    73.2539   6   6   0.0525   0.1158   0.1783  -0.0455  -0.1061   0.0862   0.00    0.0
2021/10/07 00:46:12.000   28 35 34.11242  -17 55 01.60597    73.2525   6   6   0.0524   0.1152   0.1775  -0.0452  -0.1055   0.0858   0.00    0.0
2021/10/07 00:46:42.000   28 35 34.11236  -17 55 01.60596    73.2480   6   6   0.0522   0.1147   0.1770  -0.0450  -0.1049   0.0856   0.00    0.0
2021/10/07 00:47:12.000   28 35 34.11231  -17 55 01.60582    73.2427   6   6   0.0521   0.1142   0.1765  -0.0447  -0.1044   0.0854   0.00    0.0
2021/10/07 00:47:42.000   28 35 34.11228  -17 55 01.60585    73.2413   6   6   0.0520   0.1137   0.1759  -0.0445  -0.1038   0.0851   0.00    0.0
2021/10/07 00:48:12.000   28 35 34.11222  -17 55 01.60568    73.2360   6   6   0.0518   0.1131   0.1750  -0.0441  -0.1031   0.0847   0.00    0.0
2021/10/07 00:48:42.000   28 35 34.11220  -17 55 01.60553    73.2376   6   6   0.0514   0.1121   0.1733  -0.0436  -0.1019   0.0840   0.00    0.0
2021/10/07 00:49:12.000   28 35 34.11238  -17 55 01.60558    73.2656   6   6   0.0504   0.1098   0.1692  -0.0424  -0.0992   0.0822   0.00    0.0
2021/10/07 00:49:42.000   28 35 34.11299  -17 55 01.60524    73.3053   6   6   0.0476   0.1042   0.1598  -0.0396  -0.0927   0.0779   0.00    0.0
2021/10/07 00:50:12.000   28 35 34.11293  -17 55 01.60500    73.2960   6   7   0.0469   0.1024   0.1567  -0.0387  -0.0905   0.0765   0.00    0.0
2021/10/07 00:50:42.000   28 35 34.11293  -17 55 01.60502    73.2972   6   7   0.0466   0.1016   0.1553  -0.0382  -0.0895   0.0759   0.00    0.0
2021/10/07 00:51:12.000   28 35 34.11292  -17 55 01.60504    73.2952   6   7   0.0464   0.1011   0.1545  -0.0379  -0.0888   0.0756   0.00    0.0
2021/10/07 00:51:42.000   28 35 34.11289  -17 55 01.60495    73.2908   6   7   0.0463   0.1006   0.1539  -0.0376  -0.0882   0.0753   0.00    0.0
2021/10/07 00:52:12.000   28 35 34.11284  -17 55 01.60483    73.2837   6   7   0.0462   0.1002   0.1534  -0.0373  -0.0877   0.0750   0.00    0.0
2021/10/07 00:52:42.000   28 35 34.11284  -17 55 01.60491    73.2832   6   7   0.0460   0.0997   0.1526  -0.0370  -0.0871   0.0746   0.00    0.0
2021/10/07 00:53:12.000   28 35 34.11291  -17 55 01.60499    73.2860   6   7   0.0457   0.0991   0.1514  -0.0366  -0.0862   0.0741   0.00    0.0
2021/10/07 00:53:42.000   28 35 34.11312  -17 55 01.60519    73.3017   6   7   0.0452   0.0981   0.1491  -0.0358  -0.0846   0.0730   0.00    0.0
2021/10/07 00:54:12.000   28 35 34.11341  -17 55 01.60521    73.3033   6   7   0.0440   0.0958   0.1439  -0.0341  -0.0812   0.0705   0.00    0.0
2021/10/07 00:54:42.000   28 35 34.11381  -17 55 01.60503    73.3302   6   7   0.0409   0.0903   0.1334  -0.0305  -0.0739   0.0653   0.00    0.0
2021/10/07 00:55:12.000   28 35 34.11384  -17 55 01.60472    73.3169   6   7   0.0401   0.0887   0.1299  -0.0293  -0.0716   0.0637   0.00    0.0
2021/10/07 00:55:42.000   28 35 34.11382  -17 55 01.60462    73.3099   6   7   0.0398   0.0880   0.1285  -0.0288  -0.0706   0.0630   0.00    0.0
2021/10/07 00:56:12.000   28 35 34.11379  -17 55 01.60447    73.3056   6   7   0.0396   0.0876   0.1277  -0.0285  -0.0700   0.0626   0.00    0.0
2021/10/07 00:56:42.000   28 35 34.11378  -17 55 01.60448    73.3049   6   7   0.0395   0.0873   0.1271  -0.0283  -0.0695   0.0623   0.00    0.0
2021/10/07 00:57:12.000   28 35 34.11374  -17 55 01.60436    73.3006   6   7   0.0394   0.0870   0.1267  -0.0281  -0.0691   0.0621   0.00    0.0
2021/10/07 00:57:42.000   28 35 34.11374  -17 55 01.60440    73.3004   6   7   0.0392   0.0866   0.1260  -0.0278  -0.0686   0.0618   0.00    0.0
2021/10/07 00:58:12.000   28 35 34.11372  -17 55 01.60440    73.3007   6   7   0.0390   0.0861   0.1248  -0.0274  -0.0678   0.0612   0.00    0.0
2021/10/07 00:58:42.000   28 35 34.11372  -17 55 01.60436    73.2988   6   7   0.0384   0.0853   0.1225  -0.0266  -0.0664   0.0601   0.00    0.0
2021/10/07 00:59:12.000   28 35 34.11381  -17 55 01.60449    73.3049   6   7   0.0372   0.0834   0.1173  -0.0248  -0.0631   0.0574   0.00    0.0
2021/10/07 00:59:42.000   28 35 34.11399  -17 55 01.60515    73.3393   6   7   0.0342   0.0787   0.1073  -0.0213  -0.0565   0.0522   0.00    0.0
2021/10/07 01:00:12.000   28 35 34.11412  -17 55 01.60538    73.3640   6   7   0.0335   0.0774   0.1041  -0.0202  -0.0545   0.0506   0.00    0.0
2021/10/07 01:00:42.000   28 35 34.11419  -17 55 01.60547    73.3782   6   7   0.0332   0.0768   0.1028  -0.0197  -0.0537   0.0500   0.00    0.0
2021/10/07 01:01:12.000   28 35 34.11422  -17 55 01.60555    73.3871   6   7   0.0330   0.0765   0.1021  -0.0195  -0.0532   0.0497   0.00    0.0
2021/10/07 01:01:42.000   28 35 34.11423  -17 55 01.60550    73.3897   6   7   0.0329   0.0763   0.1016  -0.0193  -0.0529   0.0494   0.00    0.0
2021/10/07 01:02:12.000   28 35 34.11424  -17 55 01.60548    73.3909   6   7   0.0328   0.0761   0.1013  -0.0191  -0.0526   0.0493   0.00    0.0
2021/10/07 01:02:42.000   28 35 34.11426  -17 55 01.60548    73.3915   6   7   0.0327   0.0758   0.1007  -0.0189  -0.0522   0.0490   0.00    0.0
2021/10/07 01:03:12.000   28 35 34.11430  -17 55 01.60544    73.3902   6   7   0.0325   0.0754   0.0998  -0.0185  -0.0516   0.0485   0.00    0.0
2021/10/07 01:03:42.000   28 35 34.11435  -17 55 01.60536    73.3866   6   7   0.0321   0.0748   0.0979  -0.0179  -0.0505   0.0476   0.00    0.0
2021/10/07 01:04:12.000   28 35 34.11449  -17 55 01.60529    73.3876   6   7   0.0310   0.0733   0.0935  -0.0163  -0.0480   0.0453   0.00    0.0
2021/10/07 01:04:42.000   28 35 34.11455  -17 55 01.60510    73.3831   6   7   0.0286   0.0693   0.0857  -0.0134  -0.0429   0.0411   0.00    0.0
2021/10/07 01:05:12.000   28 35 34.11466  -17 55 01.60513    73.3896   6   7   0.0280   0.0683   0.0830  -0.0124  -0.0413   0.0398   0.00    0.0
2021/10/07 01:05:42.000   28 35 34.11465  -17 55 01.60515    73.3885   6   7   0.0278   0.0678   0.0820  -0.0120  -0.0407   0.0393   0.00    0.0
2021/10/07 01:06:12.000   28 35 34.11464  -17 55 01.60515    73.3880   6   7   0.0276   0.0676   0.0815  -0.0118  -0.0403   0.0390   0.00    0.0
2021/10/07 01:06:42.000   28 35 34.11465  -17 55 01.60515    73.3884   6   7   0.0276   0.0674   0.0811  -0.0116  -0.0401   0.0388   0.00    0.0
2021/10/07 01:07:12.000   28 35 34.11464  -17 55 01.60513    73.3882   6   8   0.0275   0.0673   0.0809  -0.0115  -0.0399   0.0387   0.00    0.0
2021/10/07 01:07:42.000   28 35 34.11464  -17 55 01.60509    73.3870   6   8   0.0274   0.0671   0.0805  -0.0113  -0.0396   0.0385   0.00    0.0
2021/10/07 01:08:12.000   28 35 34.11465  -17 55 01.60502    73.3854   6   8   0.0273   0.0668   0.0798  -0.0110  -0.0392   0.0381   0.00    0.0
2021/10/07 01:08:42.000   28 35 34.11471  -17 55 01.60503    73.3895   6   8   0.0270   0.0663   0.0784  -0.0105  -0.0385   0.0374   0.00    0.0
2021/10/07 01:09:12.000   28 35 34.11491  -17 55 01.60525    73.4068   6   8   0.0262   0.0651   0.0752  -0.0091  -0.0367   0.0358   0.00    0.0
2021/10/07 01:09:42.000   28 35 34.11499  -17 55 01.60514    73.4010   6   8   0.0243   0.0618   0.0695  -0.0068  -0.0330   0.0326   0.00    0.0
2021/10/07 01:10:12.000   28 35 34.11510  -17 55 01.60500    73.3996   6   8   0.0238   0.0609   0.0675  -0.0057  -0.0319   0.0315   0.00    0.0
2021/10/07 01:10:42.000   28 35 34.11518  -17 55 01.60490    73.4002   6   8   0.0237   0.0605   0.0667  -0.0053  -0.0314   0.0312   0.00    0.0
2021/10/07 01:11:12.000   28 35 34.11521  -17 55 01.60485    73.4009   6   8   0.0236   0.0604   0.0663  -0.0050  -0.0312   0.0309   0.00    0.0
2021/10/07 01:11:42.000   28 35 34.11522  -17 55 01.60477    73.4010   6   8   0.0235   0.0602   0.0660  -0.0049  -0.0310   0.0308   0.00    0.0
2021/10/07 01:12:12.000   28 35 34.11523  -17 55 01.60472    73.4009   6   8   0.0235   0.0601   0.0658  -0.0047  -0.0309   0.0307   0.00    0.0
2021/10/07 01:12:42.000   28 35 34.11523  -17 55 01.60472    73.4011   6   8   0.0234   0.0599   0.0655  -0.0046  -0.0307   0.0306   0.00    0.0
2021/10/07 01:13:12.000   28 35 34.11521  -17 55 01.60471    73.4003   6   8   0.0233   0.0597   0.0650  -0.0042  -0.0305   0.0303   0.00    0.0
2021/10/07 01:13:42.000   28 35 34.11521  -17 55 01.60467    73.3988   6   8   0.0230   0.0594   0.0639  -0.0036  -0.0300   0.0297   0.00    0.0
2021/10/07 01:14:12.000   28 35 34.11528  -17 55 01.60451    73.4026   6   8   0.0224   0.0584   0.0616  -0.0014  -0.0288   0.0285   0.00    0.0
2021/10/07 01:14:42.000   28 35 34.11521  -17 55 01.60414    73.3911   6   8   0.0210   0.0555   0.0574   0.0034  -0.0263   0.0260   0.00    0.0
2021/10/07 01:15:12.000   28 35 34.11517  -17 55 01.60407    73.3919   6   8   0.0206   0.0547   0.0559   0.0042  -0.0255   0.0252   0.00    0.0
2021/10/07 01:15:42.000   28 35 34.11514  -17 55 01.60398    73.3899   6   8   0.0205   0.0545   0.0553   0.0044  -0.0252   0.0249   0.00    0.0
2021/10/07 01:16:12.000   28 35 34.11512  -17 55 01.60389    73.3880   6   8   0.0204   0.0543   0.0550   0.0045  -0.0250   0.0247   0.00    0.0
2021/10/07 01:16:42.000   28 35 34.11511  -17 55 01.60383    73.3876   6   7   0.0204   0.0542   0.0548   0.0046  -0.0249   0.0247   0.00    0.0
2021/10/07 01:17:12.000   28 35 34.11510  -17 55 01.60378    73.3869   6   7   0.0203   0.0541   0.0547   0.0046  -0.0249   0.0246   0.00    0.0
2021/10/07 01:17:42.000   28 35 34.11509  -17 55 01.60373    73.3863   6   6   0.0203   0.0540   0.0547   0.0046  -0.0248   0.0246   0.00    0.0
2021/10/07 01:18:12.000   28 35 34.11508  -17 55 01.60370    73.3861   6   6   0.0203   0.0538   0.0545   0.0047  -0.0246   0.0245   0.00    0.0
2021/10/07 01:18:42.000   28 35 34.11507  -17 55 01.60368    73.3867   6   6   0.0202   0.0535   0.0543   0.0048  -0.0244   0.0244   0.00    0.0
2021/10/07 01:19:12.000   28 35 34.11502  -17 55 01.60371    73.3896   6   6   0.0198   0.0527   0.0536   0.0051  -0.0238   0.0239   0.00    0.0
2021/10/07 01:19:42.000   28 35 34.11506  -17 55 01.60350    73.3911   6   6   0.0188   0.0501   0.0518   0.0054  -0.0223   0.0226   0.00    0.0
2021/10/07 01:20:12.000   28 35 34.11504  -17 55 01.60344    73.3890   6   6   0.0186   0.0494   0.0513   0.0056  -0.0218   0.0222   0.00    0.0
2021/10/07 01:20:42.000   28 35 34.11503  -17 55 01.60340    73.3875   6   6   0.0185   0.0492   0.0511   0.0056  -0.0217   0.0221   0.00    0.0
2021/10/07 01:21:12.000   28 35 34.11502  -17 55 01.60336    73.3863   6   6   0.0185   0.0491   0.0510   0.0056  -0.0216   0.0221   0.00    0.0
2021/10/07 01:21:42.000   28 35 34.11502  -17 55 01.60332    73.3856   6   6   0.0185   0.0490   0.0509   0.0056  -0.0215   0.0220   0.00    0.0
2021/10/07 01:22:12.000   28 35 34.11502  -17 55 01.60327    73.3851   6   6   0.0184   0.0489   0.0509   0.0057  -0.0215   0.0220   0.00    0.0
2021/10/07 01:22:42.000   28 35 34.11502  -17 55 01.60322    73.3844   6   6   0.0184   0.0488   0.0508   0.0057  -0.0214   0.0220   0.00    0.0
2021/10/07 01:23:12.000   28 35 34.11503  -17 55 01.60318    73.3840   6   6   0.0184   0.0487   0.0507   0.0057  -0.0213   0.0219   0.00    0.0
2021/10/07 01:23:42.000   28 35 34.11501  -17 55 01.60312    73.3827   6   6   0.0183   0.0484   0.0505   0.0057  -0.0212   0.0217   0.00    0.0
2021/10/07 01:24:12.000   28 35 34.11502  -17 55 01.60302    73.3805   6   6   0.0180   0.0477   0.0500   0.0058  -0.0207   0.0213   0.00    0.0
2021/10/07 01:24:42.000   28 35 34.11513  -17 55 01.60281    73.3861   6   6   0.0171   0.0454   0.0484   0.0058  -0.0196   0.0201   0.00    0.0
2021/10/07 01:25:12.000   28 35 34.11517  -17 55 01.60276    73.3881   6   6   0.0169   0.0448   0.0480   0.0059  -0.0193   0.0198   0.00    0.0
2021/10/07 01:25:42.000   28 35 34.11518  -17 55 01.60272    73.3886   6   6   0.0168   0.0446   0.0479   0.0059  -0.0192   0.0197   0.00    0.0
2021/10/07 01:26:12.000   28 35 34.11518  -17 55 01.60270    73.3886   6   6   0.0168   0.0445   0.0478   0.0059  -0.0191   0.0196   0.00    0.0
2021/10/07 01:26:42.000   28 35 34.11518  -17 55 01.60267    73.3883   6   6   0.0168   0.0444   0.0477   0.0059  -0.0191   0.0196   0.00    0.0
2021/10/07 01:27:12.000   28 35 34.11517  -17 55 01.60265    73.3882   6   6   0.0168   0.0444   0.0477   0.0059  -0.0190   0.0196   0.00    0.0
2021/10/07 01:27:42.000   28 35 34.11516  -17 55 01.60264    73.3880   6   6   0.0167   0.0443   0.0477   0.0060  -0.0190   0.0195   0.00    0.0
2021/10/07 01:28:12.000   28 35 34.11515  -17 55 01.60267    73.3884   6   6   0.0167   0.0442   0.0476   0.0060  -0.0189   0.0195   0.00    0.0
2021/10/07 01:28:42.000   28 35 34.11516  -17 55 01.60265    73.3891   6   6   0.0166   0.0439   0.0474   0.0060  -0.0188   0.0193   0.00    0.0
2021/10/07 01:29:12.000   28 35 34.11516  -17 55 01.60255    73.3897   6   6   0.0164   0.0433   0.0470   0.0060  -0.0185   0.0190   0.00    0.0
2021/10/07 01:29:42.000   28 35 34.11514  -17 55 01.60228    73.3880   6   6   0.0156   0.0413   0.0457   0.0059  -0.0178   0.0178   0.00    0.0
2021/10/07 01:30:12.000   28 35 34.11514  -17 55 01.60226    73.3897   6   6   0.0154   0.0408   0.0454   0.0059  -0.0175   0.0176   0.00    0.0
2021/10/07 01:30:42.000   28 35 34.11515  -17 55 01.60223    73.3904   6   6   0.0154   0.0406   0.0452   0.0060  -0.0175   0.0175   0.00    0.0
2021/10/07 01:31:12.000   28 35 34.11515  -17 55 01.60222    73.3906   6   6   0.0154   0.0405   0.0452   0.0060  -0.0174   0.0174   0.00    0.0
2021/10/07 01:31:42.000   28 35 34.11514  -17 55 01.60220    73.3904   6   6   0.0153   0.0405   0.0451   0.0060  -0.0174   0.0174   0.00    0.0
2021/10/07 01:32:12.000   28 35 34.11514  -17 55 01.60220    73.3904   6   6   0.0153   0.0404   0.0451   0.0059  -0.0174   0.0174   0.00    0.0
2021/10/07 01:32:42.000   28 35 34.11513  -17 55 01.60220    73.3902   6   6   0.0153   0.0404   0.0451   0.0059  -0.0174   0.0173   0.00    0.0
2021/10/07 01:33:12.000   28 35 34.11512  -17 55 01.60220    73.3904   6   6   0.0153   0.0403   0.0450   0.0060  -0.0173   0.0173   0.00    0.0
2021/10/07 01:33:42.000   28 35 34.11511  -17 55 01.60221    73.3903   6   6   0.0152   0.0401   0.0449   0.0060  -0.0172   0.0172   0.00    0.0
2021/10/07 01:34:12.000   28 35 34.11508  -17 55 01.60230    73.3894   6   6   0.0150   0.0395   0.0445   0.0060  -0.0170   0.0168   0.00    0.0
2021/10/07 01:34:42.000   28 35 34.11505  -17 55 01.60255    73.3868   6   6   0.0143   0.0377   0.0434   0.0060  -0.0164   0.0158   0.00    0.0
2021/10/07 01:35:12.000   28 35 34.11506  -17 55 01.60253    73.3875   6   6   0.0142   0.0373   0.0432   0.0060  -0.0163   0.0155   0.00    0.0
2021/10/07 01:35:42.000   28 35 34.11506  -17 55 01.60249    73.3870   6   6   0.0141   0.0372   0.0431   0.0060  -0.0162   0.0154   0.00    0.0
2021/10/07 01:36:12.000   28 35 34.11505  -17 55 01.60247    73.3867   6   6   0.0141   0.0371   0.0430   0.0060  -0.0162   0.0154   0.00    0.0
2021/10/07 01:36:42.000   28 35 34.11505  -17 55 01.60247    73.3867   6   6   0.0141   0.0370   0.0430   0.0060  -0.0162   0.0154   0.00    0.0
2021/10/07 01:37:12.000   28 35 34.11505  -17 55 01.60244    73.3867   6   6   0.0141   0.0370   0.0430   0.0060  -0.0162   0.0154   0.00    0.0
2021/10/07 01:37:42.000   28 35 34.11505  -17 55 01.60240    73.3866   6   6   0.0141   0.0369   0.0429   0.0060  -0.0161   0.0153   0.00    0.0
2021/10/07 01:38:12.000   28 35 34.11505  -17 55 01.60237    73.3864   6   6   0.0140   0.0369   0.0429   0.0060  -0.0161   0.0153   0.00    0.0
2021/10/07 01:38:42.000   28 35 34.11505  -17 55 01.60234    73.3858   6   6   0.0140   0.0367   0.0428   0.0060  -0.0161   0.0152   0.00    0.0
2021/10/07 01:39:12.000   28 35 34.11505  -17 55 01.60232    73.3858   6   6   0.0138   0.0362   0.0425   0.0060  -0.0159   0.0149   0.00    0.0
2021/10/07 01:39:42.000   28 35 34.11502  -17 55 01.60226    73.3839   6   6   0.0133   0.0347   0.0416   0.0060  -0.0156   0.0139   0.00    0.0
2021/10/07 01:40:12.000   28 35 34.11499  -17 55 01.60221    73.3789   6   6   0.0131   0.0343   0.0413   0.0060  -0.0155   0.0137   0.00    0.0
2021/10/07 01:40:42.000   28 35 34.11499  -17 55 01.60218    73.3776   6   6   0.0131   0.0342   0.0413   0.0060  -0.0154   0.0136   0.00    0.0
2021/10/07 01:41:12.000   28 35 34.11499  -17 55 01.60216    73.3776   6   6   0.0131   0.0341   0.0412   0.0060  -0.0154   0.0136   0.00    0.0
2021/10/07 01:41:42.000   28 35 34.11500  -17 55 01.60212    73.3778   6   6   0.0131   0.0341   0.0412   0.0060  -0.0154   0.0135   0.00    0.0
2021/10/07 01:42:12.000   28 35 34.11500  -17 55 01.60210    73.3778   6   6   0.0131   0.0340   0.0412   0.0060  -0.0154   0.0135   0.00    0.0
2021/10/07 01:42:42.000   28 35 34.11500  -17 55 01.60208    73.3778   6   6   0.0130   0.0340   0.0412   0.0060  -0.0154   0.0135   0.00    0.0
2021/10/07 01:43:12.000   28 35 34.11501  -17 55 01.60206    73.3777   6   6   0.0130   0.0339   0.0411   0.0060  -0.0154   0.0134   0.00    0.0
2021/10/07 01:43:42.000   28 35 34.11502  -17 55 01.60200    73.3775   6   6   0.0130   0.0338   0.0410   0.0060  -0.0153   0.0133   0.00    0.0
2021/10/07 01:44:12.000   28 35 34.11502  -17 55 01.60194    73.3760   6   6   0.0128   0.0333   0.0408   0.0060  -0.0153   0.0131   0.00    0.0
2021/10/07 01:44:42.000   28 35 34.11501  -17 55 01.60197    73.3750   6   6   0.0124   0.0320   0.0400   0.0060  -0.0150   0.0122   0.00    0.0
2021/10/07 01:45:12.000   28 35 34.11500  -17 55 01.60198    73.3746   6   6   0.0122   0.0317   0.0398   0.0060  -0.0150   0.0119   0.00    0.0
2021/10/07 01:45:42.000   28 35 34.11501  -17 55 01.60197    73.3757   6   6   0.0122   0.0316   0.0397   0.0060  -0.0149   0.0119   0.00    0.0
2021/10/07 01:46:12.000   28 35 34.11501  -17 55 01.60194    73.3762   6   6   0.0122   0.0315   0.0397   0.0060  -0.0149   0.0118   0.00    0.0
2021/10/07 01:46:42.000   28 35 34.11502  -17 55 01.60190    73.3763   6   6   0.0122   0.0315   0.0396   0.0060  -0.0149   0.0118   0.00    0.0
2021/10/07 01:47:12.000   28 35 34.11502  -17 55 01.60188    73.3762   6   6   0.0122   0.0315   0.0396   0.0060  -0.0149   0.0118   0.00    0.0
2021/10/07 01:47:42.000   28 35 34.11501  -17 55 01.60187    73.3758   6   6   0.0122   0.0314   0.0396   0.0060  -0.0149   0.0118   0.00    0.0
2021/10/07 01:48:12.000   28 35 34.11501  -17 55 01.60186    73.3750   6   6   0.0121   0.0314   0.0396   0.0060  -0.0149   0.0117   0.00    0.0
2021/10/07 01:48:42.000   28 35 34.11499  -17 55 01.60185    73.3724   6   6   0.0121   0.0312   0.0395   0.0060  -0.0149   0.0116   0.00    0.0
2021/10/07 01:49:12.000   28 35 34.11495  -17 55 01.60188    73.3674   6   6   0.0120   0.0309   0.0392   0.0060  -0.0148   0.0114   0.00    0.0
2021/10/07 01:49:42.000   28 35 34.11498  -17 55 01.60196    73.3698   6   6   0.0116   0.0297   0.0385   0.0061  -0.0147   0.0105   0.00    0.0
2021/10/07 01:50:12.000   28 35 34.11498  -17 55 01.60198    73.3714   6   6   0.0115   0.0295   0.0383   0.0061  -0.0146   0.0103   0.00    0.0
2021/10/07 01:50:42.000   28 35 34.11498  -17 55 01.60197    73.3720   6   6   0.0115   0.0294   0.0383   0.0061  -0.0146   0.0102   0.00    0.0
2021/10/07 01:51:12.000   28 35 34.11498  -17 55 01.60196    73.3719   6   6   0.0115   0.0293   0.0382   0.0061  -0.0146   0.0102   0.00    0.0
2021/10/07 01:51:42.000   28 35 34.11497  -17 55 01.60195    73.3715   6   6   0.0115   0.0293   0.0382   0.0061  -0.0146   0.0102   0.00    0.0
2021/10/07 01:52:12.000   28 35 34.11497  -17 55 01.60194    73.3712   6   6   0.0115   0.0293   0.0382   0.0061  -0.0146   0.0101   0.00    0.0
2021/10/07 01:52:42.000   28 35 34.11497  -17 55 01.60192    73.3703   6   6   0.0114   0.0292   0.0381   0.0061  -0.0146   0.0101   0.00    0.0
2021/10/07 01:53:12.000   28 35 34.11496  -17 55 01.60191    73.3689   6   6   0.0114   0.0292   0.0381   0.0061  -0.0146   0.0101   0.00    0.0
2021/10/07 01:53:42.000   28 35 34.11494  -17 55 01.60190    73.3682   6   6   0.0114   0.0291   0.0380   0.0061  -0.0145   0.0100   0.00    0.0
2021/10/07 01:54:12.000   28 35 34.11493  -17 55 01.60193    73.3684   6   6   0.0113   0.0288   0.0377   0.0061  -0.0145   0.0097   0.00    0.0
2021/10/07 01:54:42.000   28 35 34.11493  -17 55 01.60197    73.3709   6   6   0.0110   0.0278   0.0371   0.0062  -0.0144   0.0089   0.00    0.0
2021/10/07 01:55:12.000   28 35 34.11496  -17 55 01.60195    73.3733   6   6   0.0109   0.0275   0.0369   0.0062  -0.0143   0.0087   0.00    0.0
2021/10/07 01:55:42.000   28 35 34.11496  -17 55 01.60191    73.3736   6   6   0.0109   0.0274   0.0368   0.0062  -0.0143   0.0086   0.00    0.0
2021/10/07 01:56:12.000   28 35 34.11496  -17 55 01.60189    73.3735   6   6   0.0108   0.0274   0.0368   0.0062  -0.0143   0.0086   0.00    0.0
2021/10/07 01:56:42.000   28 35 34.11496  -17 55 01.60187    73.3736   6   5   0.0108   0.0274   0.0367   0.0062  -0.0143   0.0086   0.00    0.0
2021/10/07 01:57:12.000   28 35 34.11496  -17 55 01.60186    73.3736   6   5   0.0108   0.0273   0.0367   0.0062  -0.0143   0.0086   0.00    0.0
2021/10/07 01:57:42.000   28 35 34.11496  -17 55 01.60186    73.3734   6   5   0.0108   0.0273   0.0367   0.0062  -0.0143   0.0085   0.00    0.0
2021/10/07 01:58:12.000   28 35 34.11495  -17 55 01.60186    73.3730   6   5   0.0108   0.0273   0.0367   0.0062  -0.0143   0.0085   0.00    0.0
2021/10/07 01:58:42.000   28 35 34.11494  -17 55 01.60189    73.3728   6   5   0.0108   0.0272   0.0367   0.0062  -0.0143   0.0085   0.00    0.0
2021/10/07 01:59:12.000   28 35 34.11493  -17 55 01.60191    73.3721   6   5   0.0107   0.0269   0.0366   0.0062  -0.0143   0.0083   0.00    0.0
2021/10/07 01:59:42.000   28 35 34.11494  -17 55 01.60206    73.3727   6   5   0.0104   0.0261   0.0362   0.0062  -0.0142   0.0076   0.00    0.0
2021/10/07 02:00:12.000   28 35 34.11493  -17 55 01.60212    73.3729   6   5   0.0104   0.0259   0.0361   0.0062  -0.0142   0.0075   0.00    0.0
2021/10/07 02:00:42.000   28 35 34.11493  -17 55 01.60212    73.3732   6   5   0.0103   0.0258   0.0361   0.0062  -0.0142   0.0074   0.00    0.0
2021/10/07 02:01:12.000   28 35 34.11493  -17 55 01.60212    73.3732   6   5   0.0103   0.0257   0.0361   0.0062  -0.0142   0.0074   0.00    0.0
2021/10/07 02:01:42.000   28 35 34.11493  -17 55 01.60210    73.3731   6   5   0.0103   0.0257   0.0361   0.0062  -0.0142   0.0074   0.00    0.0
2021/10/07 02:02:12.000   28 35 34.11493  -17 55 01.60209    73.3730   6   5   0.0103   0.0257   0.0361   0.0062  -0.0142   0.0074   0.00    0.0
2021/10/07 02:02:42.000   28 35 34.11493  -17 55 01.60208    73.3728   6   5   0.0103   0.0257   0.0361   0.0062  -0.0142   0.0073   0.00    0.0
2021/10/07 02:03:12.000   28 35 34.11492  -17 55 01.60207    73.3726   6   5   0.0103   0.0256   0.0361   0.0062  -0.0142   0.0073   0.00    0.0
2021/10/07 02:03:42.000   28 35 34.11492  -17 55 01.60206    73.3725   6   5   0.0103   0.0256   0.0360   0.0062  -0.0142   0.0073   0.00    0.0
2021/10/07 02:04:12.000   28 35 34.11493  -17 55 01.60205    73.3723   6   5   0.0102   0.0253   0.0360   0.0063  -0.0142   0.0071   0.00    0.0
2021/10/07 02:04:42.000   28 35 34.11492  -17 55 01.60210    73.3719   6   5   0.0100   0.0246   0.0357   0.0063  -0.0142   0.0064   0.00    0.0
2021/10/07 02:05:12.000   28 35 34.11490  -17 55 01.60213    73.3715   6   5   0.0099   0.0244   0.0356   0.0063  -0.0142   0.0062   0.00    0.0
2021/10/07 02:05:42.000   28 35 34.11488  -17 55 01.60216    73.3710   6   5   0.0099   0.0243   0.0356   0.0063  -0.0142   0.0062   0.00    0.0
2021/10/07 02:06:12.000   28 35 34.11488  -17 55 01.60217    73.3708   6   5   0.0099   0.0243   0.0356   0.0063  -0.0142   0.0061   0.00    0.0
2021/10/07 02:06:42.000   28 35 34.11487  -17 55 01.60217    73.3706   6   5   0.0099   0.0243   0.0355   0.0063  -0.0142   0.0061   0.00    0.0
2021/10/07 02:07:12.000   28 35 34.11487  -17 55 01.60216    73.3705   6   5   0.0099   0.0243   0.0355   0.0063  -0.0142   0.0061   0.00    0.0
2021/10/07 02:07:42.000   28 35 34.11487  -17 55 01.60216    73.3704   6   5   0.0099   0.0243   0.0355   0.0063  -0.0142   0.0061   0.00    0.0
2021/10/07 02:08:12.000   28 35 34.11487  -17 55 01.60214    73.3705   6   5   0.0098   0.0242   0.0355   0.0063  -0.0142   0.0061   0.00    0.0
2021/10/07 02:08:42.000   28 35 34.11488  -17 55 01.60210    73.3705   6   5   0.0098   0.0242   0.0355   0.0063  -0.0142   0.0060   0.00    0.0
2021/10/07 02:09:12.000   28 35 34.11492  -17 55 01.60201    73.3720   6   5   0.0098   0.0240   0.0354   0.0063  -0.0142   0.0058   0.00    0.0
2021/10/07 02:09:42.000   28 35 34.11492  -17 55 01.60199    73.3724   6   5   0.0095   0.0233   0.0352   0.0063  -0.0143   0.0051   0.00    0.0
2021/10/07 02:10:12.000   28 35 34.11492  -17 55 01.60196    73.3714   6   5   0.0095   0.0232   0.0351   0.0063  -0.0143   0.0049   0.00    0.0
2021/10/07 02:10:42.000   28 35 34.11491  -17 55 01.60194    73.3710   6   5   0.0095   0.0231   0.0351   0.0063  -0.0143   0.0048   0.00    0.0
2021/10/07 02:11:12.000   28 35 34.11491  -17 55 01.60193    73.3709   6   5   0.0095   0.0231   0.0351   0.0063  -0.0143   0.0048   0.00    0.0
2021/10/07 02:11:42.000   28 35 34.11491  -17 55 01.60191    73.3707   6   5   0.0095   0.0231   0.0351   0.0063  -0.0143   0.0048   0.00    0.0
2021/10/07 02:12:12.000   28 35 34.11491  -17 55 01.60190    73.3704   6   5   0.0094   0.0231   0.0351   0.0063  -0.0143   0.0048   0.00    0.0
2021/10/07 02:12:42.000   28 35 34.11491  -17 55 01.60190    73.3702   6   5   0.0094   0.0230   0.0351   0.0063  -0.0143   0.0047   0.00    0.0
2021/10/07 02:13:12.000   28 35 34.11490  -17 55 01.60190    73.3700   6   5   0.0094   0.0230   0.0350   0.0063  -0.0143   0.0047   0.00    0.0
2021/10/07 02:13:42.000   28 35 34.11490  -17 55 01.60189    73.3695   6   5   0.0094   0.0230   0.0350   0.0063  -0.0143   0.0046   0.00    0.0
2021/10/07 02:14:12.000   28 35 34.11489  -17 55 01.60186    73.3690   6   5   0.0094   0.0228   0.0350   0.0063  -0.0143   0.0044   0.00    0.0
2021/10/07 02:14:42.000   28 35 34.11488  -17 55 01.60186    73.3684   6   5   0.0092   0.0222   0.0347   0.0063  -0.0144   0.0035   0.00    0.0
2021/10/07 02:15:12.000   28 35 34.11490  -17 55 01.60181    73.3691   6   5   0.0091   0.0221   0.0346   0.0064  -0.0144   0.0033   0.00    0.0
2021/10/07 02:15:42.000   28 35 34.11491  -17 55 01.60178    73.3697   6   5   0.0091   0.0221   0.0346   0.0064  -0.0144   0.0032   0.00    0.0
2021/10/07 02:16:12.000   28 35 34.11491  -17 55 01.60178    73.3693   6   5   0.0091   0.0220   0.0346   0.0064  -0.0144   0.0031   0.00    0.0
2021/10/07 02:16:42.000   28 35 34.11490  -17 55 01.60178    73.3691   6   5   0.0091   0.0220   0.0346   0.0064  -0.0144   0.0031   0.00    0.0
2021/10/07 02:17:12.000   28 35 34.11490  -17 55 01.60178    73.3690   6   5   0.0091   0.0220   0.0346   0.0064  -0.0144   0.0031   0.00    0.0
2021/10/07 02:17:42.000   28 35 34.11490  -17 55 01.60179    73.3689   6   5   0.0091   0.0220   0.0346   0.0064  -0.0144   0.0031   0.00    0.0
2021/10/07 02:18:12.000   28 35 34.11489  -17 55 01.60178    73.3686   6   5   0.0091   0.0220   0.0346   0.0064  -0.0144   0.0030   0.00    0.0
2021/10/07 02:18:42.000   28 35 34.11489  -17 55 01.60177    73.3680   6   5   0.0091   0.0219   0.0346   0.0064  -0.0145   0.0029   0.00    0.0
2021/10/07 02:19:12.000   28 35 34.11488  -17 55 01.60175    73.3668   6   5   0.0090   0.0218   0.0345   0.0064  -0.0145   0.0026   0.00    0.0
2021/10/07 02:19:42.000   28 35 34.11487  -17 55 01.60176    73.3668   6   5   0.0088   0.0213   0.0343   0.0064  -0.0146   0.0006   0.00    0.0
2021/10/07 02:20:12.000   28 35 34.11488  -17 55 01.60176    73.3679   6   5   0.0088   0.0212   0.0342   0.0064  -0.0147  -0.0010   0.00    0.0
2021/10/07 02:20:42.000   28 35 34.11488  -17 55 01.60176    73.3681   6   5   0.0088   0.0212   0.0342   0.0064  -0.0147  -0.0012   0.00    0.0
2021/10/07 02:21:12.000   28 35 34.11489  -17 55 01.60175    73.3682   6   5   0.0088   0.0211   0.0342   0.0064  -0.0147  -0.0013   0.00    0.0
2021/10/07 02:21:42.000   28 35 34.11489  -17 55 01.60174    73.3683   6   5   0.0088   0.0211   0.0342   0.0064  -0.0147  -0.0014   0.00    0.0
2021/10/07 02:22:12.000   28 35 34.11489  -17 55 01.60174    73.3683   6   5   0.0088   0.0211   0.0342   0.0064  -0.0147  -0.0014   0.00    0.0
2021/10/07 02:22:42.000   28 35 34.11489  -17 55 01.60173    73.3683   6   5   0.0088   0.0211   0.0342   0.0064  -0.0147  -0.0015   0.00    0.0
2021/10/07 02:23:12.000   28 35 34.11489  -17 55 01.60173    73.3684   6   5   0.0088   0.0211   0.0342   0.0064  -0.0147  -0.0015   0.00    0.0
2021/10/07 02:23:42.000   28 35 34.11489  -17 55 01.60172    73.3684   6   5   0.0087   0.0210   0.0341   0.0064  -0.0147  -0.0017   0.00    0.0
2021/10/07 02:24:12.000   28 35 34.11489  -17 55 01.60175    73.3682   6   5   0.0087   0.0209   0.0341   0.0064  -0.0147  -0.0021   0.00    0.0
2021/10/07 02:24:42.000   28 35 34.11489  -17 55 01.60180    73.3685   6   5   0.0085   0.0205   0.0338   0.0064  -0.0149  -0.0032   0.00    0.0
2021/10/07 02:25:12.000   28 35 34.11489  -17 55 01.60178    73.3680   6   5   0.0085   0.0204   0.0338   0.0065  -0.0149  -0.0034   0.00    0.0
2021/10/07 02:25:42.000   28 35 34.11489  -17 55 01.60177    73.3679   6   5   0.0085   0.0204   0.0338   0.0065  -0.0149  -0.0034   0.00    0.0
2021/10/07 02:26:12.000   28 35 34.11489  -17 55 01.60176    73.3677   6   5   0.0085   0.0204   0.0338   0.0065  -0.0149  -0.0035   0.00    0.0
2021/10/07 02:26:42.000   28 35 34.11489  -17 55 01.60175    73.3675   6   5   0.0085   0.0204   0.0338   0.0065  -0.0149  -0.0035   0.00    0.0
2021/10/07 02:27:12.000   28 35 34.11489  -17 55 01.60174    73.3675   6   5   0.0085   0.0204   0.0337   0.0065  -0.0149  -0.0035   0.00    0.0
2021/10/07 02:27:42.000   28 35 34.11490  -17 55 01.60173    73.3677   6   5   0.0085   0.0204   0.0337   0.0065  -0.0149  -0.0035   0.00    0.0
2021/10/07 02:28:12.000   28 35 34.11490  -17 55 01.60172    73.3677   6   5   0.0085   0.0204   0.0337   0.0065  -0.0149  -0.0035   0.00    0.0
2021/10/07 02:28:42.000   28 35 34.11490  -17 55 01.60171    73.3677   6   5   0.0085   0.0203   0.0337   0.0065  -0.0149  -0.0036   0.00    0.0
2021/10/07 02:29:12.000   28 35 34.11489  -17 55 01.60172    73.3667   6   5   0.0084   0.0202   0.0336   0.0065  -0.0150  -0.0038   0.00    0.0
2021/10/07 02:29:42.000   28 35 34.11488  -17 55 01.60179    73.3650   6   5   0.0083   0.0199   0.0334   0.0065  -0.0151  -0.0044   0.00    0.0
2021/10/07 02:30:12.000   28 35 34.11488  -17 55 01.60177    73.3649   6   5   0.0083   0.0198   0.0333   0.0065  -0.0152  -0.0045   0.00    0.0
2021/10/07 02:30:42.000   28 35 34.11488  -17 55 01.60176    73.3647   6   5   0.0082   0.0198   0.0333   0.0065  -0.0152  -0.0046   0.00    0.0
2021/10/07 02:31:12.000   28 35 34.11488  -17 55 01.60176    73.3646   6   5   0.0082   0.0198   0.0333   0.0065  -0.0152  -0.0046   0.00    0.0
2021/10/07 02:31:42.000   28 35 34.11488  -17 55 01.60176    73.3645   6   5   0.0082   0.0198   0.0333   0.0065  -0.0152  -0.0046   0.00    0.0
2021/10/07 02:32:12.000   28 35 34.11488  -17 55 01.60176    73.3644   6   5   0.0082   0.0198   0.0333   0.0065  -0.0152  -0.0046   0.00    0.0
2021/10/07 02:32:42.000   28 35 34.11488  -17 55 01.60177    73.3645   6   5   0.0082   0.0197   0.0333   0.0065  -0.0152  -0.0046   0.00    0.0
2021/10/07 02:33:12.000   28 35 34.11488  -17 55 01.60176    73.3646   6   5   0.0082   0.0197   0.0333   0.0065  -0.0152  -0.0046   0.00    0.0
2021/10/07 02:33:42.000   28 35 34.11489  -17 55 01.60173    73.3652   6   5   0.0082   0.0197   0.0333   0.0065  -0.0152  -0.0047   0.00    0.0
2021/10/07 02:34:12.000   28 35 34.11490  -17 55 01.60172    73.3663   6   5   0.0082   0.0196   0.0332   0.0065  -0.0152  -0.0048   0.00    0.0
2021/10/07 02:34:42.000   28 35 34.11490  -17 55 01.60179    73.3650   6   5   0.0081   0.0194   0.0330   0.0066  -0.0154  -0.0052   0.00    0.0
2021/10/07 02:35:12.000   28 35 34.11490  -17 55 01.60179    73.3648   6   6   0.0080   0.0193   0.0329   0.0066  -0.0154  -0.0053   0.00    0.0
2021/10/07 02:35:42.000   28 35 34.11491  -17 55 01.60178    73.3649   6   6   0.0080   0.0193   0.0329   0.0066  -0.0154  -0.0053   0.00    0.0
2021/10/07 02:36:12.000   28 35 34.11491  -17 55 01.60177    73.3648   6   6   0.0080   0.0193   0.0329   0.0066  -0.0154  -0.0054   0.00    0.0
2021/10/07 02:36:42.000   28 35 34.11491  -17 55 01.60177    73.3647   6   6   0.0080   0.0192   0.0329   0.0066  -0.0154  -0.0054   0.00    0.0
2021/10/07 02:37:12.000   28 35 34.11491  -17 55 01.60177    73.3646   6   6   0.0080   0.0192   0.0329   0.0066  -0.0154  -0.0054   0.00    0.0
2021/10/07 02:37:42.000   28 35 34.11491  -17 55 01.60177    73.3645   6   6   0.0080   0.0192   0.0329   0.0066  -0.0154  -0.0054   0.00    0.0
2021/10/07 02:38:12.000   28 35 34.11491  -17 55 01.60177    73.3647   6   6   0.0080   0.0192   0.0329   0.0066  -0.0154  -0.0054   0.00    0.0
2021/10/07 02:38:42.000   28 35 34.11492  -17 55 01.60177    73.3652   6   6   0.0080   0.0192   0.0328   0.0066  -0.0155  -0.0054   0.00    0.0
2021/10/07 02:39:12.000   28 35 34.11491  -17 55 01.60179    73.3643   6   6   0.0080   0.0191   0.0328   0.0066  -0.0155  -0.0055   0.00    0.0
2021/10/07 02:39:42.000   28 35 34.11491  -17 55 01.60185    73.3637   6   6   0.0079   0.0189   0.0325   0.0067  -0.0156  -0.0058   0.00    0.0
2021/10/07 02:40:12.000   28 35 34.11492  -17 55 01.60184    73.3645   6   6   0.0078   0.0189   0.0325   0.0067  -0.0157  -0.0059   0.00    0.0
2021/10/07 02:40:42.000   28 35 34.11492  -17 55 01.60184    73.3644   6   6   0.0078   0.0188   0.0324   0.0067  -0.0157  -0.0059   0.00    0.0
2021/10/07 02:41:12.000   28 35 34.11492  -17 55 01.60183    73.3644   6   6   0.0078   0.0188   0.0324   0.0067  -0.0157  -0.0059   0.00    0.0
2021/10/07 02:41:42.000   28 35 34.11492  -17 55 01.60182    73.3644   6   6   0.0078   0.0188   0.0324   0.0067  -0.0157  -0.0059   0.00    0.0
2021/10/07 02:42:12.000   28 35 34.11492  -17 55 01.60181    73.3642   6   6   0.0078   0.0188   0.0324   0.0067  -0.0157  -0.0059   0.00    0.0
2021/10/07 02:42:42.000   28 35 34.11492  -17 55 01.60181    73.3640   6   6   0.0078   0.0188   0.0324   0.0067  -0.0157  -0.0059   0.00    0.0
2021/10/07 02:43:12.000   28 35 34.11492  -17 55 01.60182    73.3634   6   6   0.0078   0.0188   0.0324   0.0067  -0.0157  -0.0060   0.00    0.0
2021/10/07 02:43:42.000   28 35 34.11491  -17 55 01.60184    73.3623   6   6   0.0078   0.0188   0.0324   0.0067  -0.0157  -0.0060   0.00    0.0
2021/10/07 02:44:12.000   28 35 34.11491  -17 55 01.60186    73.3613   6   6   0.0078   0.0187   0.0323   0.0067  -0.0157  -0.0061   0.00    0.0
2021/10/07 02:44:42.000   28 35 34.11491  -17 55 01.60190    73.3598   6   7   0.0077   0.0186   0.0320   0.0067  -0.0158  -0.0063   0.00    0.0
2021/10/07 02:45:12.000   28 35 34.11489  -17 55 01.60194    73.3586   6   7   0.0077   0.0185   0.0320   0.0068  -0.0159  -0.0063   0.00    0.0
2021/10/07 02:45:42.000   28 35 34.11489  -17 55 01.60194    73.3583   6   7   0.0077   0.0185   0.0320   0.0068  -0.0159  -0.0064   0.00    0.0
2021/10/07 02:46:12.000   28 35 34.11489  -17 55 01.60194    73.3583   6   7   0.0077   0.0185   0.0320   0.0068  -0.0159  -0.0064   0.00    0.0
2021/10/07 02:46:42.000   28 35 34.11489  -17 55 01.60194    73.3581   6   7   0.0077   0.0185   0.0319   0.0068  -0.0159  -0.0064   0.00    0.0
2021/10/07 02:47:12.000   28 35 34.11489  -17 55 01.60193    73.3580   6   7   0.0077   0.0185   0.0319   0.0068  -0.0159  -0.0064   0.00    0.0
2021/10/07 02:47:42.000   28 35 34.11489  -17 55 01.60192    73.3579   6   7   0.0077   0.0185   0.0319   0.0068  -0.0159  -0.0064   0.00    0.0
2021/10/07 02:48:12.000   28 35 34.11489  -17 55 01.60191    73.3577   6   7   0.0076   0.0185   0.0319   0.0068  -0.0159  -0.0064   0.00    0.0
2021/10/07 02:48:42.000   28 35 34.11489  -17 55 01.60192    73.3575   6   7   0.0076   0.0185   0.0319   0.0068  -0.0159  -0.0064   0.00    0.0
2021/10/07 02:49:12.000   28 35 34.11489  -17 55 01.60192    73.3569   6   7   0.0076   0.0184   0.0318   0.0068  -0.0159  -0.0065   0.00    0.0
2021/10/07 02:49:42.000   28 35 34.11489  -17 55 01.60195    73.3549   6   7   0.0075   0.0183   0.0315   0.0068  -0.0160  -0.0066   0.00    0.0
2021/10/07 02:50:12.000   28 35 34.11489  -17 55 01.60193    73.3556   6   7   0.0075   0.0183   0.0315   0.0068  -0.0161  -0.0067   0.00    0.0
2021/10/07 02:50:42.000   28 35 34.11490  -17 55 01.60193    73.3559   6   7   0.0075   0.0182   0.0315   0.0068  -0.0161  -0.0067   0.00    0.0
2021/10/07 02:51:12.000   28 35 34.11490  -17 55 01.60192    73.3557   6   7   0.0075   0.0182   0.0314   0.0068  -0.0161  -0.0067   0.00    0.0
2021/10/07 02:51:42.000   28 35 34.11490  -17 55 01.60192    73.3554   6   7   0.0075   0.0182   0.0314   0.0068  -0.0161  -0.0067   0.00    0.0
2021/10/07 02:52:12.000   28 35 34.11490  -17 55 01.60191    73.3552   6   7   0.0075   0.0182   0.0314   0.0068  -0.0161  -0.0067   0.00    0.0
2021/10/07 02:52:42.000   28 35 34.11490  -17 55 01.60191    73.3551   6   7   0.0075   0.0182   0.0314   0.0068  -0.0161  -0.0067   0.00    0.0
2021/10/07 02:53:12.000   28 35 34.11489  -17 55 01.60191    73.3550   6   7   0.0075   0.0182   0.0314   0.0068  -0.0161  -0.0067   0.00    0.0
2021/10/07 02:53:42.000   28 35 34.11489  -17 55 01.60191    73.3543   6   7   0.0075   0.0182   0.0314   0.0068  -0.0161  -0.0067   0.00    0.0
2021/10/07 02:54:12.000   28 35 34.11488  -17 55 01.60193    73.3531   6   7   0.0075   0.0182   0.0313   0.0068  -0.0161  -0.0068   0.00    0.0
2021/10/07 02:54:42.000   28 35 34.11488  -17 55 01.60195    73.3505   6   7   0.0074   0.0181   0.0310   0.0069  -0.0162  -0.0069   0.00    0.0
2021/10/07 02:55:12.000   28 35 34.11489  -17 55 01.60195    73.3502   6   7   0.0074   0.0180   0.0310   0.0069  -0.0162  -0.0069   0.00    0.0
2021/10/07 02:55:42.000   28 35 34.11489  -17 55 01.60194    73.3504   6   7   0.0074   0.0180   0.0309   0.0069  -0.0162  -0.0070   0.00    0.0
2021/10/07 02:56:12.000   28 35 34.11489  -17 55 01.60193    73.3507   6   7   0.0074   0.0180   0.0309   0.0069  -0.0162  -0.0070   0.00    0.0
2021/10/07 02:56:42.000   28 35 34.11489  -17 55 01.60192    73.3508   6   7   0.0074   0.0180   0.0309   0.0069  -0.0162  -0.0070   0.00    0.0
2021/10/07 02:57:12.000   28 35 34.11489  -17 55 01.60192    73.3509   6   7   0.0074   0.0180   0.0309   0.0069  -0.0162  -0.0070   0.00    0.0
2021/10/07 02:57:42.000   28 35 34.11489  -17 55 01.60192    73.3507   6   7   0.0074   0.0180   0.0309   0.0069  -0.0162  -0.0070   0.00    0.0
2021/10/07 02:58:12.000   28 35 34.11489  -17 55 01.60191    73.3506   6   7   0.0073   0.0180   0.0309   0.0069  -0.0162  -0.0070   0.00    0.0
2021/10/07 02:58:42.000   28 35 34.11489  -17 55 01.60190    73.3508   6   7   0.0073   0.0180   0.0309   0.0069  -0.0162  -0.0070   0.00    0.0
2021/10/07 02:59:12.000   28 35 34.11489  -17 55 01.60188    73.3517   6   7   0.0073   0.0180   0.0308   0.0069  -0.0163  -0.0070   0.00    0.0
2021/10/07 02:59:42.000   28 35 34.11490  -17 55 01.60189    73.3486   6   8   0.0073   0.0179   0.0305   0.0070  -0.0163  -0.0071   0.00    0.0
2021/10/07 03:00:12.000   28 35 34.11491  -17 55 01.60190    73.3470   6   8   0.0072   0.0179   0.0305   0.0070  -0.0163  -0.0071   0.00    0.0
2021/10/07 03:00:42.000   28 35 34.11490  -17 55 01.60188    73.3473   6   8   0.0072   0.0179   0.0305   0.0070  -0.0164  -0.0071   0.00    0.0
2021/10/07 03:01:12.000   28 35 34.11490  -17 55 01.60187    73.3474   6   8   0.0072   0.0179   0.0304   0.0070  -0.0164  -0.0071   0.00    0.0
2021/10/07 03:01:42.000   28 35 34.11490  -17 55 01.60187    73.3475   6   8   0.0072   0.0179   0.0304   0.0070  -0.0164  -0.0071   0.00    0.0
2021/10/07 03:02:12.000   28 35 34.11490  -17 55 01.60187    73.3476   6   8   0.0072   0.0179   0.0304   0.0070  -0.0164  -0.0071   0.00    0.0
2021/10/07 03:02:42.000   28 35 34.11490  -17 55 01.60186    73.3476   6   8   0.0072   0.0179   0.0304   0.0070  -0.0164  -0.0071   0.00    0.0
2021/10/07 03:03:12.000   28 35 34.11490  -17 55 01.60186    73.3476   6   8   0.0072   0.0179   0.0304   0.0070  -0.0164  -0.0071   0.00    0.0
2021/10/07 03:03:42.000   28 35 34.11490  -17 55 01.60185    73.3473   6   8   0.0072   0.0179   0.0304   0.0070  -0.0164  -0.0071   0.00    0.0
2021/10/07 03:04:12.000   28 35 34.11491  -17 55 01.60185    73.3470   6   8   0.0072   0.0178   0.0303   0.0070  -0.0164  -0.0072   0.00    0.0
2021/10/07 03:04:42.000   28 35 34.11491  -17 55 01.60186    73.3448   6   8   0.0071   0.0178   0.0301   0.0070  -0.0164  -0.0072   0.00    0.0
2021/10/07 03:05:12.000   28 35 34.11491  -17 55 01.60186    73.3435   6   8   0.0071   0.0178   0.0300   0.0070  -0.0165  -0.0072   0.00    0.0
2021/10/07 03:05:42.000   28 35 34.11490  -17 55 01.60186    73.3427   6   8   0.0071   0.0178   0.0300   0.0070  -0.0165  -0.0072   0.00    0.0
2021/10/07 03:06:12.000   28 35 34.11490  -17 55 01.60186    73.3423   6   8   0.0071   0.0178   0.0300   0.0070  -0.0165  -0.0072   0.00    0.0
2021/10/07 03:06:42.000   28 35 34.11490  -17 55 01.60186    73.3419   6   8   0.0071   0.0178   0.0300   0.0070  -0.0165  -0.0072   0.00    0.0
2021/10/07 03:07:12.000   28 35 34.11490  -17 55 01.60185    73.3415   6   8   0.0071   0.0177   0.0300   0.0070  -0.0165  -0.0072   0.00    0.0
2021/10/07 03:07:42.000   28 35 34.11490  -17 55 01.60184    73.3411   6   8   0.0071   0.0177   0.0299   0.0070  -0.0165  -0.0072   0.00    0.0
2021/10/07 03:08:12.000   28 35 34.11490  -17 55 01.60184    73.3410   6   8   0.0071   0.0177   0.0299   0.0070  -0.0165  -0.0072   0.00    0.0
2021/10/07 03:08:42.000   28 35 34.11490  -17 55 01.60183    73.3409   6   8   0.0071   0.0177   0.0299   0.0070  -0.0165  -0.0072   0.00    0.0
2021/10/07 03:09:12.000   28 35 34.11491  -17 55 01.60183    73.3395   6   8   0.0071   0.0177   0.0298   0.0070  -0.0165  -0.0073   0.00    0.0
2021/10/07 03:09:42.000   28 35 34.11492  -17 55 01.60183    73.3379   6   8   0.0070   0.0177   0.0296   0.0071  -0.0165  -0.0073   0.00    0.0
2021/10/07 03:10:12.000   28 35 34.11493  -17 55 01.60184    73.3364   6   8   0.0070   0.0177   0.0295   0.0071  -0.0165  -0.0073   0.00    0.0
2021/10/07 03:10:42.000   28 35 34.11493  -17 55 01.60184    73.3358   6   8   0.0070   0.0177   0.0295   0.0071  -0.0165  -0.0073   0.00    0.0
2021/10/07 03:11:12.000   28 35 34.11493  -17 55 01.60183    73.3354   6   8   0.0070   0.0177   0.0295   0.0071  -0.0165  -0.0073   0.00    0.0
2021/10/07 03:11:42.000   28 35 34.11494  -17 55 01.60183    73.3351   6   8   0.0070   0.0177   0.0295   0.0071  -0.0165  -0.0073   0.00    0.0
2021/10/07 03:12:12.000   28 35 34.11494  -17 55 01.60183    73.3349   6   8   0.0070   0.0177   0.0295   0.0071  -0.0165  -0.0073   0.00    0.0
2021/10/07 03:12:42.000   28 35 34.11494  -17 55 01.60183    73.3347   6   8   0.0070   0.0177   0.0295   0.0071  -0.0165  -0.0073   0.00    0.0
2021/10/07 03:13:12.000   28 35 34.11493  -17 55 01.60182    73.3347   6   8   0.0070   0.0177   0.0295   0.0071  -0.0165  -0.0073   0.00    0.0
2021/10/07 03:13:42.000   28 35 34.11493  -17 55 01.60182    73.3348   6   8   0.0070   0.0176   0.0295   0.0071  -0.0165  -0.0073   0.00    0.0
2021/10/07 03:14:12.000   28 35 34.11493  -17 55 01.60181    73.3342   6   8   0.0070   0.0176   0.0294   0.0071  -0.0165  -0.0073   0.00    0.0
2021/10/07 03:14:42.000   28 35 34.11495  -17 55 01.60181    73.3327   6   8   0.0069   0.0176   0.0292   0.0071  -0.0166  -0.0073   0.00    0.0
2021/10/07 03:15:12.000   28 35 34.11495  -17 55 01.60181    73.3316   6   8   0.0069   0.0176   0.0291   0.0071  -0.0166  -0.0073   0.00    0.0
2021/10/07 03:15:42.000   28 35 34.11495  -17 55 01.60182    73.3312   6   8   0.0069   0.0176   0.0291   0.0071  -0.0166  -0.0073   0.00    0.0
2021/10/07 03:16:12.000   28 35 34.11495  -17 55 01.60182    73.3307   6   8   0.0069   0.0176   0.0291   0.0071  -0.0166  -0.0073   0.00    0.0
2021/10/07 03:16:42.000   28 35 34.11495  -17 55 01.60182    73.3305   6   8   0.0069   0.0176   0.0291   0.0071  -0.0166  -0.0073   0.00    0.0
2021/10/07 03:17:12.000   28 35 34.11495  -17 55 01.60182    73.3302   6   8   0.0069   0.0176   0.0291   0.0071  -0.0166  -0.0073   0.00    0.0
2021/10/07 03:17:42.000   28 35 34.11495  -17 55 01.60182    73.3301   6   8   0.0069   0.0176   0.0291   0.0071  -0.0166  -0.0073   0.00    0.0
2021/10/07 03:18:12.000   28 35 34.11495  -17 55 01.60182    73.3301   6   8   0.0069   0.0176   0.0291   0.0071  -0.0166  -0.0073   0.00    0.0
2021/10/07 03:18:42.000   28 35 34.11495  -17 55 01.60182    73.3301   6   8   0.0069   0.0176   0.0290   0.0071  -0.0166  -0.0073   0.00    0.0
2021/10/07 03:19:12.000   28 35 34.11496  -17 55 01.60182    73.3299   6   8   0.0068   0.0176   0.0290   0.0071  -0.0166  -0.0073   0.00    0.0
2021/10/07 03:19:42.000   28 35 34.11497  -17 55 01.60182    73.3301   6   8   0.0068   0.0175   0.0288   0.0071  -0.0166  -0.0073   0.00    0.0
2021/10/07 03:20:12.000   28 35 34.11497  -17 55 01.60182    73.3299   6   8   0.0068   0.0175   0.0288   0.0071  -0.0166  -0.0073   0.00    0.0
2021/10/07 03:20:42.000   28 35 34.11497  -17 55 01.60182    73.3302   6   8   0.0068   0.0175   0.0287   0.0071  -0.0166  -0.0073   0.00    0.0
2021/10/07 03:21:12.000   28 35 34.11497  -17 55 01.60182    73.3302   6   8   0.0068   0.0175   0.0287   0.0071  -0.0166  -0.0073   0.00    0.0
2021/10/07 03:21:42.000   28 35 34.11498  -17 55 01.60181    73.3302   6   8   0.0068   0.0175   0.0287   0.0071  -0.0166  -0.0073   0.00    0.0
2021/10/07 03:22:12.000   28 35 34.11498  -17 55 01.60180    73.3302   6   8   0.0068   0.0175   0.0287   0.0071  -0.0166  -0.0073   0.00    0.0
2021/10/07 03:22:42.000   28 35 34.11498  -17 55 01.60180    73.3302   6   8   0.0068   0.0175   0.0287   0.0071  -0.0166  -0.0073   0.00    0.0
2021/10/07 03:23:12.000   28 35 34.11498  -17 55 01.60180    73.3299   6   8   0.0068   0.0175   0.0287   0.0071  -0.0166  -0.0073   0.00    0.0
