% program   : RTKLIB ver.2.4.2
% inp file  : C:\IPNA\data\OBS\CVBB2790.o
% inp file  : C:\IPNA\data\NAV\CVBB2790.n
% inp file  : C:\IPNA\data\SP3\CVBB2790.sp3
% inp file  : C:\IPNA\data\CLOCK\CVBB2790.clk
% obs start : 2021/10/06 08:33:12.0 UTC (week2178 290010.0s)
% obs end   : 2021/10/06 23:59:12.0 UTC (week2178 345570.0s)
% pos mode  : ppp-static
% solution  : forward
% elev mask : 15.0 deg
% dynamics  : off
% tidecorr  : on
% tropo opt : est ztd
% ephemeris : precise
% antenna1  :                       ( 0.0000  0.0000  0.0000)
%
% (lat/lon/height=WGS84/ellipsoidal,Q=1:fix,2:float,3:sbas,4:dgps,5:single,6:ppp,ns=# of satellites)
%  UTC                     latitude(d'")   longitude(d'")  height(m)   Q  ns   sdn(m)   sde(m)   sdu(m)  sdne(m)  sdeu(m)  sdue(m) age(s)  ratio
2021/10/06 08:33:12.000   28 35 34.06522  -17 55 01.65212    73.3486   6   8   1.4877   1.4336   3.1474   0.7529  -0.7618  -1.0415   0.00    0.0
2021/10/06 08:33:42.000   28 35 34.06374  -17 55 01.65087    73.7385   6   8   1.0484   1.0113   2.2244   0.5284  -0.5327  -0.7359   0.00    0.0
2021/10/06 08:34:12.000   28 35 34.06928  -17 55 01.64431    73.6139   6   8   0.8477   0.8217   1.7977   0.4232  -0.4239  -0.5939   0.00    0.0
2021/10/06 08:34:42.000   28 35 34.07292  -17 55 01.63830    73.8594   6   8   0.7154   0.7040   1.5109   0.3490  -0.3459  -0.4952   0.00    0.0
2021/10/06 08:35:12.000   28 35 34.06935  -17 55 01.63933    74.3263   6   8   0.6338   0.6267   1.3377   0.3058  -0.3008  -0.4373   0.00    0.0
2021/10/06 08:35:42.000   28 35 34.06980  -17 55 01.64285    74.3110   6   8   0.5757   0.5705   1.2185   0.2760  -0.2701  -0.3974   0.00    0.0
2021/10/06 08:36:12.000   28 35 34.07322  -17 55 01.64608    74.1137   6   8   0.5313   0.5271   1.1292   0.2536  -0.2471  -0.3674   0.00    0.0
2021/10/06 08:36:42.000   28 35 34.07650  -17 55 01.64749    74.0091   6   8   0.4959   0.4923   1.0588   0.2358  -0.2289  -0.3437   0.00    0.0
2021/10/06 08:37:12.000   28 35 34.07671  -17 55 01.64611    73.9385   6   8   0.4668   0.4636   1.0016   0.2213  -0.2141  -0.3244   0.00    0.0
2021/10/06 08:37:42.000   28 35 34.07947  -17 55 01.64396    73.8694   6   8   0.4386   0.4379   0.9440   0.2057  -0.1976  -0.3038   0.00    0.0
2021/10/06 08:38:12.000   28 35 34.08242  -17 55 01.64472    73.7607   6   8   0.4082   0.4134   0.8791   0.1863  -0.1767  -0.2787   0.00    0.0
2021/10/06 08:38:42.000   28 35 34.08864  -17 55 01.64198    73.5632   6   8   0.3689   0.3872   0.7967   0.1568  -0.1456  -0.2425   0.00    0.0
2021/10/06 08:39:12.000   28 35 34.09774  -17 55 01.63599    73.2656   6   8   0.3062   0.3521   0.6848   0.1006  -0.0916  -0.1833   0.00    0.0
2021/10/06 08:39:42.000   28 35 34.10685  -17 55 01.62829    73.1129   6   8   0.2270   0.3059   0.5779  -0.0355   0.0220  -0.1169   0.00    0.0
2021/10/06 08:40:12.000   28 35 34.10840  -17 55 01.62708    73.2573   6   8   0.2146   0.2920   0.5582  -0.0434   0.0324  -0.1076   0.00    0.0
2021/10/06 08:40:42.000   28 35 34.10877  -17 55 01.62738    73.2954   6   8   0.2088   0.2831   0.5487  -0.0416   0.0327  -0.1043   0.00    0.0
2021/10/06 08:41:12.000   28 35 34.10864  -17 55 01.62749    73.3189   6   8   0.2047   0.2758   0.5419  -0.0381   0.0316  -0.1024   0.00    0.0
2021/10/06 08:41:42.000   28 35 34.10846  -17 55 01.62619    73.3308   6   8   0.2013   0.2693   0.5361  -0.0340   0.0300  -0.1011   0.00    0.0
2021/10/06 08:42:12.000   28 35 34.10917  -17 55 01.62638    73.3074   6   8   0.1983   0.2634   0.5311  -0.0295   0.0283  -0.1002   0.00    0.0
2021/10/06 08:42:42.000   28 35 34.10949  -17 55 01.62634    73.2980   6   8   0.1947   0.2574   0.5250  -0.0268   0.0279  -0.0984   0.00    0.0
2021/10/06 08:43:12.000   28 35 34.10926  -17 55 01.62681    73.2911   6   8   0.1897   0.2508   0.5168  -0.0279   0.0299  -0.0949   0.00    0.0
2021/10/06 08:43:42.000   28 35 34.10958  -17 55 01.62765    73.2662   6   8   0.1811   0.2422   0.5035  -0.0351   0.0357  -0.0868   0.00    0.0
2021/10/06 08:44:12.000   28 35 34.11072  -17 55 01.62797    73.1402   6   8   0.1622   0.2269   0.4772  -0.0493   0.0474  -0.0647   0.00    0.0
2021/10/06 08:44:42.000   28 35 34.11269  -17 55 01.62263    73.0794   6   8   0.1277   0.1983   0.4331  -0.0575   0.0580   0.0087   0.00    0.0
2021/10/06 08:45:12.000   28 35 34.11289  -17 55 01.62186    73.0687   6   8   0.1221   0.1911   0.4242  -0.0572   0.0578   0.0246   0.00    0.0
2021/10/06 08:45:42.000   28 35 34.11274  -17 55 01.62220    73.0591   6   8   0.1200   0.1874   0.4203  -0.0562   0.0573   0.0271   0.00    0.0
2021/10/06 08:46:12.000   28 35 34.11262  -17 55 01.62235    73.0751   6   8   0.1186   0.1846   0.4177  -0.0551   0.0567   0.0277   0.00    0.0
2021/10/06 08:46:42.000   28 35 34.11236  -17 55 01.62269    73.0845   6   8   0.1176   0.1822   0.4156  -0.0541   0.0562   0.0278   0.00    0.0
2021/10/06 08:47:12.000   28 35 34.11214  -17 55 01.62283    73.0934   6   8   0.1167   0.1800   0.4138  -0.0530   0.0557   0.0275   0.00    0.0
2021/10/06 08:47:42.000   28 35 34.11190  -17 55 01.62281    73.0919   6   8   0.1156   0.1777   0.4115  -0.0520   0.0553   0.0280   0.00    0.0
2021/10/06 08:48:12.000   28 35 34.11170  -17 55 01.62232    73.1076   6   8   0.1139   0.1748   0.4083  -0.0513   0.0550   0.0299   0.00    0.0
2021/10/06 08:48:42.000   28 35 34.11194  -17 55 01.62190    73.0687   6   8   0.1108   0.1706   0.4028  -0.0508   0.0550   0.0347   0.00    0.0
2021/10/06 08:49:12.000   28 35 34.11242  -17 55 01.61974    73.0376   6   8   0.1032   0.1620   0.3898  -0.0506   0.0559   0.0457   0.00    0.0
2021/10/06 08:49:42.000   28 35 34.11333  -17 55 01.61669    73.0142   6   8   0.0858   0.1431   0.3605  -0.0472   0.0582   0.0578   0.00    0.0
2021/10/06 08:50:12.000   28 35 34.11344  -17 55 01.61676    73.0149   6   8   0.0828   0.1385   0.3543  -0.0463   0.0577   0.0592   0.00    0.0
2021/10/06 08:50:42.000   28 35 34.11361  -17 55 01.61699    73.0256   6   8   0.0817   0.1365   0.3519  -0.0457   0.0574   0.0595   0.00    0.0
2021/10/06 08:51:12.000   28 35 34.11361  -17 55 01.61710    73.0357   6   8   0.0811   0.1351   0.3503  -0.0452   0.0571   0.0594   0.00    0.0
2021/10/06 08:51:42.000   28 35 34.11362  -17 55 01.61749    73.0364   6   8   0.0807   0.1340   0.3491  -0.0447   0.0569   0.0593   0.00    0.0
2021/10/06 08:52:12.000   28 35 34.11362  -17 55 01.61765    73.0415   6   8   0.0803   0.1330   0.3481  -0.0442   0.0566   0.0591   0.00    0.0
2021/10/06 08:52:42.000   28 35 34.11366  -17 55 01.61800    73.0420   6   8   0.0798   0.1319   0.3468  -0.0438   0.0564   0.0590   0.00    0.0
2021/10/06 08:53:12.000   28 35 34.11356  -17 55 01.61807    73.0377   6   8   0.0790   0.1304   0.3449  -0.0433   0.0563   0.0592   0.00    0.0
2021/10/06 08:53:42.000   28 35 34.11340  -17 55 01.61792    73.0500   6   8   0.0775   0.1280   0.3415  -0.0426   0.0564   0.0599   0.00    0.0
2021/10/06 08:54:12.000   28 35 34.11350  -17 55 01.61640    73.0647   6   8   0.0737   0.1226   0.3328  -0.0413   0.0570   0.0621   0.00    0.0
2021/10/06 08:54:42.000   28 35 34.11387  -17 55 01.61405    73.0968   6   8   0.0639   0.1099   0.3100  -0.0369   0.0588   0.0647   0.00    0.0
2021/10/06 08:55:12.000   28 35 34.11381  -17 55 01.61398    73.1150   6   8   0.0621   0.1068   0.3052  -0.0360   0.0587   0.0650   0.00    0.0
2021/10/06 08:55:42.000   28 35 34.11374  -17 55 01.61404    73.1323   6   8   0.0615   0.1055   0.3034  -0.0356   0.0586   0.0650   0.00    0.0
2021/10/06 08:56:12.000   28 35 34.11367  -17 55 01.61421    73.1477   6   8   0.0611   0.1047   0.3023  -0.0353   0.0585   0.0649   0.00    0.0
2021/10/06 08:56:42.000   28 35 34.11359  -17 55 01.61433    73.1442   6   8   0.0609   0.1041   0.3014  -0.0350   0.0583   0.0648   0.00    0.0
2021/10/06 08:57:12.000   28 35 34.11357  -17 55 01.61446    73.1455   6   8   0.0607   0.1036   0.3007  -0.0348   0.0582   0.0646   0.00    0.0
2021/10/06 08:57:42.000   28 35 34.11352  -17 55 01.61439    73.1545   6   8   0.0604   0.1029   0.2998  -0.0345   0.0581   0.0645   0.00    0.0
2021/10/06 08:58:12.000   28 35 34.11346  -17 55 01.61429    73.1620   6   8   0.0600   0.1021   0.2985  -0.0341   0.0581   0.0644   0.00    0.0
2021/10/06 08:58:42.000   28 35 34.11352  -17 55 01.61423    73.1652   6   8   0.0592   0.1006   0.2958  -0.0336   0.0583   0.0645   0.00    0.0
2021/10/06 08:59:12.000   28 35 34.11372  -17 55 01.61347    73.1452   6   8   0.0570   0.0971   0.2888  -0.0323   0.0591   0.0649   0.00    0.0
2021/10/06 08:59:42.000   28 35 34.11387  -17 55 01.61127    73.1479   6   8   0.0509   0.0885   0.2690  -0.0282   0.0606   0.0644   0.00    0.0
2021/10/06 09:00:12.000   28 35 34.11380  -17 55 01.61107    73.1595   6   8   0.0497   0.0864   0.2647  -0.0273   0.0608   0.0641   0.00    0.0
2021/10/06 09:00:42.000   28 35 34.11381  -17 55 01.61115    73.1620   6   8   0.0493   0.0855   0.2631  -0.0270   0.0608   0.0640   0.00    0.0
2021/10/06 09:01:12.000   28 35 34.11381  -17 55 01.61105    73.1653   6   8   0.0491   0.0850   0.2622  -0.0268   0.0607   0.0638   0.00    0.0
2021/10/06 09:01:42.000   28 35 34.11383  -17 55 01.61111    73.1667   6   8   0.0489   0.0847   0.2615  -0.0266   0.0606   0.0637   0.00    0.0
2021/10/06 09:02:12.000   28 35 34.11387  -17 55 01.61126    73.1655   6   8   0.0488   0.0843   0.2610  -0.0265   0.0605   0.0636   0.00    0.0
2021/10/06 09:02:42.000   28 35 34.11387  -17 55 01.61128    73.1669   6   8   0.0487   0.0840   0.2602  -0.0263   0.0605   0.0634   0.00    0.0
2021/10/06 09:03:12.000   28 35 34.11388  -17 55 01.61116    73.1714   6   8   0.0484   0.0834   0.2590  -0.0260   0.0605   0.0633   0.00    0.0
2021/10/06 09:03:42.000   28 35 34.11391  -17 55 01.61098    73.1747   6   8   0.0479   0.0825   0.2565  -0.0255   0.0607   0.0630   0.00    0.0
2021/10/06 09:04:12.000   28 35 34.11404  -17 55 01.61057    73.1834   6   8   0.0464   0.0801   0.2497  -0.0243   0.0614   0.0624   0.00    0.0
2021/10/06 09:04:42.000   28 35 34.11430  -17 55 01.60963    73.1876   6   8   0.0422   0.0742   0.2306  -0.0207   0.0618   0.0600   0.00    0.0
2021/10/06 09:05:12.000   28 35 34.11433  -17 55 01.60937    73.1759   6   8   0.0414   0.0727   0.2262  -0.0199   0.0619   0.0593   0.00    0.0
2021/10/06 09:05:42.000   28 35 34.11433  -17 55 01.60934    73.1567   6   8   0.0411   0.0721   0.2246  -0.0196   0.0618   0.0590   0.00    0.0
2021/10/06 09:06:12.000   28 35 34.11431  -17 55 01.60930    73.1349   6   8   0.0409   0.0718   0.2237  -0.0194   0.0618   0.0588   0.00    0.0
2021/10/06 09:06:42.000   28 35 34.11428  -17 55 01.60928    73.1208   6   8   0.0408   0.0715   0.2231  -0.0193   0.0617   0.0586   0.00    0.0
2021/10/06 09:07:12.000   28 35 34.11427  -17 55 01.60931    73.1156   6   8   0.0407   0.0713   0.2226  -0.0192   0.0616   0.0585   0.00    0.0
2021/10/06 09:07:42.000   28 35 34.11425  -17 55 01.60934    73.1155   6   8   0.0406   0.0711   0.2219  -0.0190   0.0616   0.0583   0.00    0.0
2021/10/06 09:08:12.000   28 35 34.11425  -17 55 01.60944    73.1100   6   8   0.0404   0.0707   0.2207  -0.0188   0.0615   0.0581   0.00    0.0
2021/10/06 09:08:42.000   28 35 34.11424  -17 55 01.60935    73.1139   6   8   0.0400   0.0701   0.2181  -0.0184   0.0616   0.0575   0.00    0.0
2021/10/06 09:09:12.000   28 35 34.11426  -17 55 01.60915    73.0816   6   8   0.0389   0.0685   0.2110  -0.0174   0.0617   0.0561   0.00    0.0
2021/10/06 09:09:42.000   28 35 34.11429  -17 55 01.60844    73.1322   6   9   0.0357   0.0643   0.1925  -0.0143   0.0607   0.0526   0.00    0.0
2021/10/06 09:10:12.000   28 35 34.11436  -17 55 01.60837    73.1279   6  10   0.0350   0.0632   0.1877  -0.0137   0.0604   0.0514   0.00    0.0
2021/10/06 09:10:42.000   28 35 34.11438  -17 55 01.60836    73.1335   6  10   0.0347   0.0628   0.1859  -0.0134   0.0602   0.0509   0.00    0.0
2021/10/06 09:11:12.000   28 35 34.11436  -17 55 01.60841    73.1291   6  10   0.0346   0.0626   0.1848  -0.0133   0.0601   0.0506   0.00    0.0
2021/10/06 09:11:42.000   28 35 34.11434  -17 55 01.60847    73.1292   6  10   0.0345   0.0624   0.1839  -0.0133   0.0599   0.0504   0.00    0.0
2021/10/06 09:12:12.000   28 35 34.11433  -17 55 01.60848    73.1316   6  10   0.0344   0.0622   0.1832  -0.0132   0.0597   0.0502   0.00    0.0
2021/10/06 09:12:42.000   28 35 34.11431  -17 55 01.60844    73.1350   6  10   0.0343   0.0620   0.1820  -0.0132   0.0594   0.0498   0.00    0.0
2021/10/06 09:13:12.000   28 35 34.11429  -17 55 01.60836    73.1407   6  10   0.0341   0.0617   0.1797  -0.0132   0.0589   0.0491   0.00    0.0
2021/10/06 09:13:42.000   28 35 34.11426  -17 55 01.60829    73.1335   6  10   0.0337   0.0612   0.1750  -0.0132   0.0580   0.0477   0.00    0.0
2021/10/06 09:14:12.000   28 35 34.11430  -17 55 01.60815    73.1465   6  10   0.0326   0.0599   0.1645  -0.0131   0.0560   0.0447   0.00    0.0
2021/10/06 09:14:42.000   28 35 34.11442  -17 55 01.60720    73.1955   6  10   0.0299   0.0566   0.1457  -0.0117   0.0526   0.0400   0.00    0.0
2021/10/06 09:15:12.000   28 35 34.11461  -17 55 01.60710    73.2378   6  10   0.0293   0.0557   0.1404  -0.0115   0.0516   0.0384   0.00    0.0
2021/10/06 09:15:42.000   28 35 34.11469  -17 55 01.60705    73.2541   6  10   0.0290   0.0553   0.1383  -0.0114   0.0511   0.0377   0.00    0.0
2021/10/06 09:16:12.000   28 35 34.11472  -17 55 01.60706    73.2627   6  10   0.0289   0.0551   0.1371  -0.0114   0.0508   0.0374   0.00    0.0
2021/10/06 09:16:42.000   28 35 34.11474  -17 55 01.60708    73.2700   6  10   0.0288   0.0550   0.1363  -0.0114   0.0506   0.0371   0.00    0.0
2021/10/06 09:17:12.000   28 35 34.11475  -17 55 01.60709    73.2744   6  10   0.0288   0.0549   0.1357  -0.0114   0.0504   0.0369   0.00    0.0
2021/10/06 09:17:42.000   28 35 34.11477  -17 55 01.60712    73.2798   6  10   0.0287   0.0547   0.1347  -0.0114   0.0501   0.0366   0.00    0.0
2021/10/06 09:18:12.000   28 35 34.11480  -17 55 01.60717    73.2814   6  10   0.0285   0.0545   0.1328  -0.0115   0.0496   0.0360   0.00    0.0
2021/10/06 09:18:42.000   28 35 34.11485  -17 55 01.60724    73.2749   6  10   0.0282   0.0540   0.1292  -0.0117   0.0486   0.0348   0.00    0.0
2021/10/06 09:19:12.000   28 35 34.11500  -17 55 01.60707    73.2956   6  10   0.0273   0.0529   0.1209  -0.0118   0.0464   0.0322   0.00    0.0
2021/10/06 09:19:42.000   28 35 34.11504  -17 55 01.60625    73.3381   6  10   0.0252   0.0502   0.1065  -0.0111   0.0429   0.0282   0.00    0.0
2021/10/06 09:20:12.000   28 35 34.11501  -17 55 01.60600    73.3546   6  10   0.0247   0.0494   0.1023  -0.0111   0.0418   0.0269   0.00    0.0
2021/10/06 09:20:42.000   28 35 34.11498  -17 55 01.60594    73.3573   6  10   0.0245   0.0491   0.1008  -0.0111   0.0414   0.0264   0.00    0.0
2021/10/06 09:21:12.000   28 35 34.11495  -17 55 01.60591    73.3581   6  10   0.0245   0.0490   0.1000  -0.0111   0.0411   0.0261   0.00    0.0
2021/10/06 09:21:42.000   28 35 34.11494  -17 55 01.60586    73.3601   6  10   0.0244   0.0489   0.0994  -0.0111   0.0410   0.0259   0.00    0.0
2021/10/06 09:22:12.000   28 35 34.11493  -17 55 01.60587    73.3594   6  10   0.0244   0.0488   0.0991  -0.0111   0.0408   0.0258   0.00    0.0
2021/10/06 09:22:42.000   28 35 34.11491  -17 55 01.60588    73.3585   6  10   0.0243   0.0486   0.0984  -0.0111   0.0406   0.0255   0.00    0.0
2021/10/06 09:23:12.000   28 35 34.11491  -17 55 01.60589    73.3577   6  10   0.0242   0.0485   0.0974  -0.0111   0.0403   0.0252   0.00    0.0
2021/10/06 09:23:42.000   28 35 34.11491  -17 55 01.60595    73.3506   6  10   0.0239   0.0481   0.0952  -0.0111   0.0396   0.0244   0.00    0.0
2021/10/06 09:24:12.000   28 35 34.11481  -17 55 01.60577    73.3331   6  10   0.0233   0.0473   0.0902  -0.0112   0.0382   0.0227   0.00    0.0
2021/10/06 09:24:42.000   28 35 34.11480  -17 55 01.60526    73.3423   6  10   0.0218   0.0451   0.0807  -0.0106   0.0356   0.0201   0.00    0.0
2021/10/06 09:25:12.000   28 35 34.11478  -17 55 01.60525    73.3282   6  10   0.0214   0.0445   0.0780  -0.0105   0.0349   0.0191   0.00    0.0
2021/10/06 09:25:42.000   28 35 34.11476  -17 55 01.60529    73.3196   6  10   0.0212   0.0443   0.0770  -0.0105   0.0346   0.0188   0.00    0.0
2021/10/06 09:26:12.000   28 35 34.11476  -17 55 01.60531    73.3160   6  10   0.0212   0.0442   0.0764  -0.0105   0.0344   0.0186   0.00    0.0
2021/10/06 09:26:42.000   28 35 34.11476  -17 55 01.60534    73.3147   6  10   0.0211   0.0441   0.0763  -0.0105   0.0343   0.0185   0.00    0.0
2021/10/06 09:27:12.000   28 35 34.11477  -17 55 01.60539    73.3137   6  10   0.0211   0.0440   0.0761  -0.0104   0.0342   0.0185   0.00    0.0
2021/10/06 09:27:42.000   28 35 34.11477  -17 55 01.60540    73.3123   6  10   0.0211   0.0439   0.0759  -0.0104   0.0341   0.0184   0.00    0.0
2021/10/06 09:28:12.000   28 35 34.11478  -17 55 01.60540    73.3106   6  10   0.0210   0.0438   0.0756  -0.0104   0.0339   0.0183   0.00    0.0
2021/10/06 09:28:42.000   28 35 34.11478  -17 55 01.60543    73.3063   6  10   0.0209   0.0436   0.0748  -0.0104   0.0335   0.0181   0.00    0.0
2021/10/06 09:29:12.000   28 35 34.11478  -17 55 01.60537    73.3019   6  10   0.0205   0.0429   0.0728  -0.0103   0.0327   0.0176   0.00    0.0
2021/10/06 09:29:42.000   28 35 34.11475  -17 55 01.60501    73.3187   6  10   0.0193   0.0412   0.0678  -0.0098   0.0309   0.0165   0.00    0.0
2021/10/06 09:30:12.000   28 35 34.11468  -17 55 01.60509    73.3172   6  10   0.0191   0.0408   0.0665  -0.0097   0.0303   0.0162   0.00    0.0
2021/10/06 09:30:42.000   28 35 34.11465  -17 55 01.60511    73.3154   6  10   0.0190   0.0406   0.0661  -0.0097   0.0301   0.0160   0.00    0.0
2021/10/06 09:31:12.000   28 35 34.11464  -17 55 01.60511    73.3153   6  10   0.0189   0.0405   0.0659  -0.0097   0.0300   0.0160   0.00    0.0
2021/10/06 09:31:42.000   28 35 34.11464  -17 55 01.60510    73.3157   6   9   0.0189   0.0404   0.0657  -0.0097   0.0299   0.0159   0.00    0.0
2021/10/06 09:32:12.000   28 35 34.11463  -17 55 01.60509    73.3160   6   9   0.0189   0.0404   0.0656  -0.0097   0.0299   0.0159   0.00    0.0
2021/10/06 09:32:42.000   28 35 34.11464  -17 55 01.60508    73.3156   6   9   0.0188   0.0403   0.0655  -0.0097   0.0298   0.0159   0.00    0.0
2021/10/06 09:33:12.000   28 35 34.11465  -17 55 01.60507    73.3156   6   9   0.0188   0.0402   0.0652  -0.0096   0.0297   0.0158   0.00    0.0
2021/10/06 09:33:42.000   28 35 34.11466  -17 55 01.60505    73.3152   6   9   0.0187   0.0400   0.0647  -0.0096   0.0294   0.0156   0.00    0.0
2021/10/06 09:34:12.000   28 35 34.11467  -17 55 01.60495    73.3094   6   9   0.0184   0.0395   0.0633  -0.0095   0.0289   0.0152   0.00    0.0
2021/10/06 09:34:42.000   28 35 34.11469  -17 55 01.60466    73.3261   6   9   0.0174   0.0382   0.0595  -0.0091   0.0276   0.0145   0.00    0.0
2021/10/06 09:35:12.000   28 35 34.11469  -17 55 01.60451    73.3404   6   9   0.0172   0.0379   0.0585  -0.0090   0.0272   0.0142   0.00    0.0
2021/10/06 09:35:42.000   28 35 34.11469  -17 55 01.60448    73.3457   6   9   0.0171   0.0377   0.0582  -0.0090   0.0271   0.0141   0.00    0.0
2021/10/06 09:36:12.000   28 35 34.11469  -17 55 01.60446    73.3480   6   9   0.0171   0.0377   0.0581  -0.0089   0.0270   0.0141   0.00    0.0
2021/10/06 09:36:42.000   28 35 34.11468  -17 55 01.60445    73.3494   6   9   0.0171   0.0376   0.0580  -0.0089   0.0270   0.0140   0.00    0.0
2021/10/06 09:37:12.000   28 35 34.11467  -17 55 01.60445    73.3502   6   9   0.0171   0.0376   0.0579  -0.0089   0.0269   0.0140   0.00    0.0
2021/10/06 09:37:42.000   28 35 34.11468  -17 55 01.60446    73.3509   6   9   0.0170   0.0375   0.0578  -0.0089   0.0269   0.0140   0.00    0.0
2021/10/06 09:38:12.000   28 35 34.11469  -17 55 01.60446    73.3521   6   9   0.0170   0.0374   0.0576  -0.0089   0.0268   0.0139   0.00    0.0
2021/10/06 09:38:42.000   28 35 34.11470  -17 55 01.60443    73.3553   6   9   0.0169   0.0373   0.0572  -0.0089   0.0267   0.0138   0.00    0.0
2021/10/06 09:39:12.000   28 35 34.11472  -17 55 01.60435    73.3581   6   9   0.0167   0.0369   0.0562  -0.0088   0.0263   0.0135   0.00    0.0
2021/10/06 09:39:42.000   28 35 34.11476  -17 55 01.60422    73.3608   6   9   0.0159   0.0359   0.0533  -0.0083   0.0255   0.0130   0.00    0.0
2021/10/06 09:40:12.000   28 35 34.11480  -17 55 01.60418    73.3668   6   9   0.0157   0.0356   0.0526  -0.0082   0.0252   0.0128   0.00    0.0
2021/10/06 09:40:42.000   28 35 34.11483  -17 55 01.60418    73.3685   6   9   0.0156   0.0355   0.0524  -0.0082   0.0251   0.0127   0.00    0.0
2021/10/06 09:41:12.000   28 35 34.11484  -17 55 01.60416    73.3705   6   9   0.0156   0.0354   0.0523  -0.0082   0.0251   0.0127   0.00    0.0
2021/10/06 09:41:42.000   28 35 34.11484  -17 55 01.60415    73.3721   6   9   0.0156   0.0353   0.0522  -0.0082   0.0251   0.0127   0.00    0.0
2021/10/06 09:42:12.000   28 35 34.11484  -17 55 01.60414    73.3733   6   9   0.0156   0.0353   0.0522  -0.0082   0.0250   0.0127   0.00    0.0
2021/10/06 09:42:42.000   28 35 34.11483  -17 55 01.60413    73.3753   6   9   0.0156   0.0353   0.0521  -0.0082   0.0250   0.0126   0.00    0.0
2021/10/06 09:43:12.000   28 35 34.11482  -17 55 01.60411    73.3781   6   9   0.0155   0.0352   0.0520  -0.0082   0.0249   0.0126   0.00    0.0
2021/10/06 09:43:42.000   28 35 34.11480  -17 55 01.60408    73.3812   6   9   0.0155   0.0351   0.0517  -0.0081   0.0249   0.0125   0.00    0.0
2021/10/06 09:44:12.000   28 35 34.11479  -17 55 01.60403    73.3820   6   9   0.0152   0.0348   0.0509  -0.0080   0.0246   0.0123   0.00    0.0
2021/10/06 09:44:42.000   28 35 34.11475  -17 55 01.60390    73.3819   6   9   0.0146   0.0340   0.0488  -0.0076   0.0241   0.0119   0.00    0.0
2021/10/06 09:45:12.000   28 35 34.11473  -17 55 01.60392    73.3756   6   9   0.0144   0.0337   0.0482  -0.0075   0.0240   0.0118   0.00    0.0
2021/10/06 09:45:42.000   28 35 34.11473  -17 55 01.60392    73.3737   6   9   0.0144   0.0336   0.0480  -0.0075   0.0239   0.0117   0.00    0.0
2021/10/06 09:46:12.000   28 35 34.11473  -17 55 01.60395    73.3725   6   9   0.0144   0.0336   0.0480  -0.0075   0.0239   0.0117   0.00    0.0
2021/10/06 09:46:42.000   28 35 34.11473  -17 55 01.60396    73.3719   6   9   0.0144   0.0335   0.0479  -0.0074   0.0239   0.0117   0.00    0.0
2021/10/06 09:47:12.000   28 35 34.11473  -17 55 01.60396    73.3719   6   9   0.0143   0.0335   0.0479  -0.0074   0.0238   0.0117   0.00    0.0
2021/10/06 09:47:42.000   28 35 34.11473  -17 55 01.60395    73.3720   6   9   0.0143   0.0335   0.0478  -0.0074   0.0238   0.0117   0.00    0.0
2021/10/06 09:48:12.000   28 35 34.11472  -17 55 01.60394    73.3728   6   9   0.0143   0.0334   0.0477  -0.0074   0.0238   0.0117   0.00    0.0
2021/10/06 09:48:42.000   28 35 34.11473  -17 55 01.60391    73.3740   6   9   0.0142   0.0333   0.0475  -0.0074   0.0237   0.0116   0.00    0.0
2021/10/06 09:49:12.000   28 35 34.11475  -17 55 01.60389    73.3749   6   9   0.0141   0.0331   0.0470  -0.0073   0.0236   0.0115   0.00    0.0
2021/10/06 09:49:42.000   28 35 34.11473  -17 55 01.60379    73.3788   6   9   0.0135   0.0324   0.0453  -0.0069   0.0233   0.0112   0.00    0.0
2021/10/06 09:50:12.000   28 35 34.11471  -17 55 01.60375    73.3800   6   9   0.0134   0.0322   0.0449  -0.0068   0.0232   0.0111   0.00    0.0
2021/10/06 09:50:42.000   28 35 34.11470  -17 55 01.60373    73.3793   6   9   0.0133   0.0322   0.0448  -0.0068   0.0232   0.0110   0.00    0.0
2021/10/06 09:51:12.000   28 35 34.11468  -17 55 01.60374    73.3791   6   9   0.0133   0.0321   0.0447  -0.0067   0.0232   0.0110   0.00    0.0
2021/10/06 09:51:42.000   28 35 34.11467  -17 55 01.60374    73.3794   6   9   0.0133   0.0321   0.0447  -0.0067   0.0232   0.0110   0.00    0.0
2021/10/06 09:52:12.000   28 35 34.11466  -17 55 01.60374    73.3796   6   9   0.0133   0.0321   0.0447  -0.0067   0.0232   0.0110   0.00    0.0
2021/10/06 09:52:42.000   28 35 34.11466  -17 55 01.60374    73.3798   6   9   0.0133   0.0320   0.0446  -0.0067   0.0231   0.0110   0.00    0.0
2021/10/06 09:53:12.000   28 35 34.11465  -17 55 01.60374    73.3798   6   9   0.0133   0.0320   0.0446  -0.0067   0.0231   0.0110   0.00    0.0
2021/10/06 09:53:42.000   28 35 34.11464  -17 55 01.60372    73.3809   6   9   0.0132   0.0319   0.0444  -0.0067   0.0231   0.0109   0.00    0.0
2021/10/06 09:54:12.000   28 35 34.11464  -17 55 01.60371    73.3828   6   9   0.0131   0.0317   0.0440  -0.0066   0.0230   0.0108   0.00    0.0
2021/10/06 09:54:42.000   28 35 34.11463  -17 55 01.60363    73.3814   6   9   0.0126   0.0312   0.0427  -0.0062   0.0229   0.0106   0.00    0.0
2021/10/06 09:55:12.000   28 35 34.11463  -17 55 01.60356    73.3838   6   9   0.0125   0.0310   0.0424  -0.0061   0.0229   0.0105   0.00    0.0
2021/10/06 09:55:42.000   28 35 34.11462  -17 55 01.60353    73.3847   6   9   0.0125   0.0310   0.0424  -0.0060   0.0229   0.0105   0.00    0.0
2021/10/06 09:56:12.000   28 35 34.11461  -17 55 01.60353    73.3842   6   9   0.0124   0.0309   0.0423  -0.0060   0.0228   0.0105   0.00    0.0
2021/10/06 09:56:42.000   28 35 34.11461  -17 55 01.60353    73.3839   6   9   0.0124   0.0309   0.0423  -0.0060   0.0228   0.0105   0.00    0.0
2021/10/06 09:57:12.000   28 35 34.11460  -17 55 01.60352    73.3841   6   9   0.0124   0.0309   0.0423  -0.0060   0.0228   0.0105   0.00    0.0
2021/10/06 09:57:42.000   28 35 34.11460  -17 55 01.60352    73.3840   6   9   0.0124   0.0309   0.0422  -0.0060   0.0228   0.0105   0.00    0.0
2021/10/06 09:58:12.000   28 35 34.11459  -17 55 01.60352    73.3838   6   9   0.0124   0.0308   0.0422  -0.0060   0.0228   0.0105   0.00    0.0
2021/10/06 09:58:42.000   28 35 34.11460  -17 55 01.60352    73.3836   6   9   0.0123   0.0308   0.0421  -0.0060   0.0228   0.0105   0.00    0.0
2021/10/06 09:59:12.000   28 35 34.11462  -17 55 01.60349    73.3851   6   9   0.0122   0.0306   0.0418  -0.0058   0.0228   0.0104   0.00    0.0
2021/10/06 09:59:42.000   28 35 34.11461  -17 55 01.60349    73.3843   6   9   0.0118   0.0302   0.0408  -0.0054   0.0228   0.0102   0.00    0.0
2021/10/06 10:00:12.000   28 35 34.11461  -17 55 01.60345    73.3849   6   9   0.0117   0.0301   0.0406  -0.0054   0.0228   0.0102   0.00    0.0
2021/10/06 10:00:42.000   28 35 34.11461  -17 55 01.60344    73.3855   6   9   0.0117   0.0300   0.0405  -0.0053   0.0228   0.0101   0.00    0.0
2021/10/06 10:01:12.000   28 35 34.11461  -17 55 01.60345    73.3851   6   9   0.0117   0.0300   0.0405  -0.0053   0.0228   0.0101   0.00    0.0
2021/10/06 10:01:42.000   28 35 34.11461  -17 55 01.60346    73.3850   6   9   0.0116   0.0300   0.0405  -0.0053   0.0228   0.0101   0.00    0.0
2021/10/06 10:02:12.000   28 35 34.11461  -17 55 01.60346    73.3851   6   9   0.0116   0.0300   0.0404  -0.0053   0.0228   0.0101   0.00    0.0
2021/10/06 10:02:42.000   28 35 34.11461  -17 55 01.60346    73.3849   6   9   0.0116   0.0299   0.0404  -0.0053   0.0228   0.0101   0.00    0.0
2021/10/06 10:03:12.000   28 35 34.11461  -17 55 01.60345    73.3851   6   9   0.0116   0.0299   0.0404  -0.0053   0.0228   0.0101   0.00    0.0
2021/10/06 10:03:42.000   28 35 34.11461  -17 55 01.60344    73.3852   6   9   0.0116   0.0299   0.0403  -0.0052   0.0228   0.0101   0.00    0.0
2021/10/06 10:04:12.000   28 35 34.11463  -17 55 01.60343    73.3862   6   9   0.0115   0.0297   0.0401  -0.0051   0.0228   0.0100   0.00    0.0
2021/10/06 10:04:42.000   28 35 34.11462  -17 55 01.60339    73.3856   6  10   0.0111   0.0294   0.0393  -0.0047   0.0229   0.0099   0.00    0.0
2021/10/06 10:05:12.000   28 35 34.11462  -17 55 01.60339    73.3831   6  10   0.0110   0.0293   0.0392  -0.0046   0.0229   0.0098   0.00    0.0
2021/10/06 10:05:42.000   28 35 34.11462  -17 55 01.60339    73.3815   6  10   0.0110   0.0293   0.0391  -0.0046   0.0229   0.0098   0.00    0.0
2021/10/06 10:06:12.000   28 35 34.11462  -17 55 01.60339    73.3809   6  10   0.0110   0.0293   0.0391  -0.0046   0.0229   0.0098   0.00    0.0
2021/10/06 10:06:42.000   28 35 34.11462  -17 55 01.60339    73.3807   6  10   0.0110   0.0292   0.0391  -0.0046   0.0229   0.0098   0.00    0.0
2021/10/06 10:07:12.000   28 35 34.11462  -17 55 01.60340    73.3806   6  10   0.0110   0.0292   0.0391  -0.0045   0.0229   0.0098   0.00    0.0
2021/10/06 10:07:42.000   28 35 34.11463  -17 55 01.60340    73.3805   6  10   0.0109   0.0292   0.0390  -0.0045   0.0229   0.0098   0.00    0.0
2021/10/06 10:08:12.000   28 35 34.11463  -17 55 01.60340    73.3803   6  10   0.0109   0.0292   0.0390  -0.0045   0.0229   0.0098   0.00    0.0
2021/10/06 10:08:42.000   28 35 34.11465  -17 55 01.60340    73.3806   6  10   0.0109   0.0291   0.0389  -0.0045   0.0229   0.0098   0.00    0.0
2021/10/06 10:09:12.000   28 35 34.11467  -17 55 01.60339    73.3809   6  10   0.0108   0.0291   0.0387  -0.0044   0.0229   0.0097   0.00    0.0
2021/10/06 10:09:42.000   28 35 34.11467  -17 55 01.60338    73.3825   6  10   0.0105   0.0288   0.0382  -0.0040   0.0230   0.0096   0.00    0.0
2021/10/06 10:10:12.000   28 35 34.11463  -17 55 01.60337    73.3841   6  10   0.0104   0.0287   0.0380  -0.0039   0.0231   0.0095   0.00    0.0
2021/10/06 10:10:42.000   28 35 34.11462  -17 55 01.60339    73.3839   6  10   0.0104   0.0287   0.0380  -0.0038   0.0231   0.0095   0.00    0.0
2021/10/06 10:11:12.000   28 35 34.11462  -17 55 01.60340    73.3836   6  10   0.0104   0.0287   0.0379  -0.0038   0.0231   0.0095   0.00    0.0
2021/10/06 10:11:42.000   28 35 34.11462  -17 55 01.60341    73.3835   6  10   0.0103   0.0287   0.0379  -0.0038   0.0231   0.0095   0.00    0.0
2021/10/06 10:12:12.000   28 35 34.11462  -17 55 01.60340    73.3837   6  10   0.0103   0.0286   0.0379  -0.0038   0.0231   0.0095   0.00    0.0
2021/10/06 10:12:42.000   28 35 34.11461  -17 55 01.60340    73.3840   6  10   0.0103   0.0286   0.0379  -0.0038   0.0231   0.0095   0.00    0.0
2021/10/06 10:13:12.000   28 35 34.11461  -17 55 01.60340    73.3843   6  10   0.0103   0.0286   0.0378  -0.0038   0.0231   0.0095   0.00    0.0
2021/10/06 10:13:42.000   28 35 34.11460  -17 55 01.60340    73.3850   6  10   0.0103   0.0286   0.0378  -0.0037   0.0231   0.0095   0.00    0.0
2021/10/06 10:14:12.000   28 35 34.11458  -17 55 01.60338    73.3863   6  10   0.0102   0.0285   0.0376  -0.0036   0.0231   0.0094   0.00    0.0
2021/10/06 10:14:42.000   28 35 34.11457  -17 55 01.60336    73.3859   6  10   0.0099   0.0283   0.0371  -0.0032   0.0232   0.0092   0.00    0.0
2021/10/06 10:15:12.000   28 35 34.11458  -17 55 01.60336    73.3849   6  10   0.0098   0.0282   0.0369  -0.0031   0.0232   0.0092   0.00    0.0
2021/10/06 10:15:42.000   28 35 34.11457  -17 55 01.60338    73.3843   6  10   0.0098   0.0282   0.0369  -0.0031   0.0232   0.0092   0.00    0.0
2021/10/06 10:16:12.000   28 35 34.11457  -17 55 01.60339    73.3839   6  10   0.0098   0.0282   0.0368  -0.0031   0.0232   0.0091   0.00    0.0
2021/10/06 10:16:42.000   28 35 34.11457  -17 55 01.60340    73.3835   6  10   0.0098   0.0282   0.0368  -0.0031   0.0232   0.0091   0.00    0.0
2021/10/06 10:17:12.000   28 35 34.11457  -17 55 01.60340    73.3834   6  10   0.0098   0.0282   0.0368  -0.0031   0.0232   0.0091   0.00    0.0
2021/10/06 10:17:42.000   28 35 34.11457  -17 55 01.60341    73.3830   6  10   0.0098   0.0282   0.0368  -0.0031   0.0232   0.0091   0.00    0.0
2021/10/06 10:18:12.000   28 35 34.11456  -17 55 01.60342    73.3827   6  10   0.0098   0.0281   0.0367  -0.0030   0.0232   0.0091   0.00    0.0
2021/10/06 10:18:42.000   28 35 34.11456  -17 55 01.60343    73.3816   6  10   0.0097   0.0281   0.0366  -0.0030   0.0232   0.0091   0.00    0.0
2021/10/06 10:19:12.000   28 35 34.11454  -17 55 01.60343    73.3797   6  10   0.0097   0.0280   0.0364  -0.0029   0.0232   0.0090   0.00    0.0
2021/10/06 10:19:42.000   28 35 34.11455  -17 55 01.60337    73.3766   6  10   0.0094   0.0279   0.0359  -0.0025   0.0233   0.0088   0.00    0.0
2021/10/06 10:20:12.000   28 35 34.11454  -17 55 01.60337    73.3750   6  10   0.0093   0.0278   0.0358  -0.0025   0.0233   0.0087   0.00    0.0
2021/10/06 10:20:42.000   28 35 34.11453  -17 55 01.60338    73.3746   6  10   0.0093   0.0278   0.0357  -0.0024   0.0233   0.0087   0.00    0.0
2021/10/06 10:21:12.000   28 35 34.11453  -17 55 01.60337    73.3746   6  10   0.0093   0.0278   0.0357  -0.0024   0.0233   0.0087   0.00    0.0
2021/10/06 10:21:42.000   28 35 34.11453  -17 55 01.60337    73.3747   6  10   0.0093   0.0278   0.0357  -0.0024   0.0233   0.0087   0.00    0.0
2021/10/06 10:22:12.000   28 35 34.11452  -17 55 01.60337    73.3747   6  10   0.0093   0.0278   0.0356  -0.0024   0.0233   0.0087   0.00    0.0
2021/10/06 10:22:42.000   28 35 34.11452  -17 55 01.60338    73.3747   6  10   0.0093   0.0278   0.0356  -0.0024   0.0233   0.0087   0.00    0.0
2021/10/06 10:23:12.000   28 35 34.11452  -17 55 01.60337    73.3749   6  10   0.0092   0.0277   0.0356  -0.0024   0.0233   0.0087   0.00    0.0
2021/10/06 10:23:42.000   28 35 34.11451  -17 55 01.60337    73.3748   6  10   0.0092   0.0277   0.0355  -0.0024   0.0233   0.0086   0.00    0.0
2021/10/06 10:24:12.000   28 35 34.11452  -17 55 01.60337    73.3746   6  10   0.0091   0.0277   0.0353  -0.0023   0.0233   0.0085   0.00    0.0
2021/10/06 10:24:42.000   28 35 34.11454  -17 55 01.60332    73.3754   6  10   0.0089   0.0275   0.0348  -0.0020   0.0233   0.0083   0.00    0.0
2021/10/06 10:25:12.000   28 35 34.11455  -17 55 01.60329    73.3751   6  10   0.0088   0.0275   0.0346  -0.0019   0.0233   0.0082   0.00    0.0
2021/10/06 10:25:42.000   28 35 34.11455  -17 55 01.60328    73.3749   6  10   0.0088   0.0274   0.0345  -0.0019   0.0233   0.0082   0.00    0.0
2021/10/06 10:26:12.000   28 35 34.11456  -17 55 01.60327    73.3749   6  10   0.0088   0.0274   0.0345  -0.0019   0.0233   0.0082   0.00    0.0
2021/10/06 10:26:42.000   28 35 34.11456  -17 55 01.60328    73.3747   6  10   0.0088   0.0274   0.0344  -0.0019   0.0233   0.0082   0.00    0.0
2021/10/06 10:27:12.000   28 35 34.11456  -17 55 01.60327    73.3749   6  10   0.0088   0.0274   0.0344  -0.0019   0.0233   0.0081   0.00    0.0
2021/10/06 10:27:42.000   28 35 34.11456  -17 55 01.60325    73.3751   6  10   0.0088   0.0274   0.0344  -0.0019   0.0233   0.0081   0.00    0.0
2021/10/06 10:28:12.000   28 35 34.11456  -17 55 01.60324    73.3752   6  10   0.0088   0.0274   0.0343  -0.0019   0.0232   0.0081   0.00    0.0
2021/10/06 10:28:42.000   28 35 34.11456  -17 55 01.60323    73.3750   6  10   0.0087   0.0273   0.0342  -0.0019   0.0232   0.0081   0.00    0.0
2021/10/06 10:29:12.000   28 35 34.11456  -17 55 01.60322    73.3745   6  10   0.0087   0.0273   0.0340  -0.0019   0.0232   0.0080   0.00    0.0
2021/10/06 10:29:42.000   28 35 34.11457  -17 55 01.60322    73.3727   6  10   0.0084   0.0271   0.0335  -0.0016   0.0232   0.0077   0.00    0.0
2021/10/06 10:30:12.000   28 35 34.11457  -17 55 01.60323    73.3722   6  10   0.0084   0.0271   0.0332  -0.0016   0.0231   0.0076   0.00    0.0
2021/10/06 10:30:42.000   28 35 34.11456  -17 55 01.60323    73.3722   6  10   0.0084   0.0270   0.0332  -0.0017   0.0231   0.0076   0.00    0.0
2021/10/06 10:31:12.000   28 35 34.11456  -17 55 01.60323    73.3721   6  10   0.0083   0.0270   0.0331  -0.0017   0.0231   0.0075   0.00    0.0
2021/10/06 10:31:42.000   28 35 34.11456  -17 55 01.60323    73.3721   6  10   0.0083   0.0270   0.0331  -0.0017   0.0231   0.0075   0.00    0.0
2021/10/06 10:32:12.000   28 35 34.11456  -17 55 01.60322    73.3722   6   9   0.0083   0.0270   0.0331  -0.0017   0.0231   0.0075   0.00    0.0
2021/10/06 10:32:42.000   28 35 34.11455  -17 55 01.60322    73.3725   6   9   0.0083   0.0270   0.0331  -0.0017   0.0231   0.0075   0.00    0.0
2021/10/06 10:33:12.000   28 35 34.11455  -17 55 01.60320    73.3729   6   9   0.0083   0.0270   0.0330  -0.0017   0.0230   0.0075   0.00    0.0
2021/10/06 10:33:42.000   28 35 34.11455  -17 55 01.60319    73.3731   6   9   0.0083   0.0269   0.0330  -0.0017   0.0230   0.0075   0.00    0.0
2021/10/06 10:34:12.000   28 35 34.11455  -17 55 01.60319    73.3737   6   9   0.0082   0.0269   0.0329  -0.0016   0.0230   0.0074   0.00    0.0
2021/10/06 10:34:42.000   28 35 34.11458  -17 55 01.60322    73.3754   6   9   0.0080   0.0268   0.0326  -0.0014   0.0231   0.0072   0.00    0.0
2021/10/06 10:35:12.000   28 35 34.11458  -17 55 01.60325    73.3756   6   9   0.0080   0.0267   0.0325  -0.0014   0.0231   0.0072   0.00    0.0
2021/10/06 10:35:42.000   28 35 34.11459  -17 55 01.60324    73.3753   6   9   0.0079   0.0267   0.0325  -0.0014   0.0230   0.0071   0.00    0.0
2021/10/06 10:36:12.000   28 35 34.11459  -17 55 01.60325    73.3750   6   9   0.0079   0.0267   0.0324  -0.0014   0.0230   0.0071   0.00    0.0
2021/10/06 10:36:42.000   28 35 34.11459  -17 55 01.60326    73.3746   6   9   0.0079   0.0267   0.0324  -0.0014   0.0230   0.0071   0.00    0.0
2021/10/06 10:37:12.000   28 35 34.11459  -17 55 01.60325    73.3746   6   9   0.0079   0.0267   0.0324  -0.0014   0.0230   0.0071   0.00    0.0
2021/10/06 10:37:42.000   28 35 34.11459  -17 55 01.60324    73.3747   6   9   0.0079   0.0266   0.0324  -0.0014   0.0230   0.0071   0.00    0.0
2021/10/06 10:38:12.000   28 35 34.11459  -17 55 01.60323    73.3749   6   9   0.0079   0.0266   0.0324  -0.0014   0.0230   0.0071   0.00    0.0
2021/10/06 10:38:42.000   28 35 34.11459  -17 55 01.60322    73.3751   6   9   0.0079   0.0266   0.0323  -0.0014   0.0230   0.0071   0.00    0.0
2021/10/06 10:39:12.000   28 35 34.11461  -17 55 01.60321    73.3749   6   9   0.0078   0.0265   0.0322  -0.0014   0.0230   0.0070   0.00    0.0
2021/10/06 10:39:42.000   28 35 34.11463  -17 55 01.60322    73.3736   6   9   0.0076   0.0264   0.0319  -0.0013   0.0229   0.0068   0.00    0.0
2021/10/06 10:40:12.000   28 35 34.11465  -17 55 01.60324    73.3732   6   9   0.0076   0.0263   0.0318  -0.0013   0.0229   0.0067   0.00    0.0
2021/10/06 10:40:42.000   28 35 34.11466  -17 55 01.60325    73.3735   6   9   0.0076   0.0263   0.0318  -0.0013   0.0229   0.0067   0.00    0.0
2021/10/06 10:41:12.000   28 35 34.11466  -17 55 01.60324    73.3734   6   9   0.0076   0.0263   0.0317  -0.0013   0.0229   0.0067   0.00    0.0
2021/10/06 10:41:42.000   28 35 34.11466  -17 55 01.60324    73.3733   6   9   0.0076   0.0263   0.0317  -0.0014   0.0229   0.0067   0.00    0.0
2021/10/06 10:42:12.000   28 35 34.11466  -17 55 01.60322    73.3734   6   9   0.0076   0.0263   0.0317  -0.0014   0.0229   0.0066   0.00    0.0
2021/10/06 10:42:42.000   28 35 34.11466  -17 55 01.60322    73.3731   6   9   0.0076   0.0263   0.0317  -0.0014   0.0229   0.0066   0.00    0.0
2021/10/06 10:43:12.000   28 35 34.11466  -17 55 01.60322    73.3725   6   9   0.0075   0.0262   0.0317  -0.0014   0.0229   0.0066   0.00    0.0
2021/10/06 10:43:42.000   28 35 34.11466  -17 55 01.60323    73.3711   6   9   0.0075   0.0262   0.0316  -0.0014   0.0228   0.0066   0.00    0.0
2021/10/06 10:44:12.000   28 35 34.11465  -17 55 01.60324    73.3692   6   9   0.0075   0.0262   0.0315  -0.0014   0.0228   0.0065   0.00    0.0
2021/10/06 10:44:42.000   28 35 34.11467  -17 55 01.60327    73.3676   6   9   0.0073   0.0260   0.0311  -0.0014   0.0227   0.0063   0.00    0.0
2021/10/06 10:45:12.000   28 35 34.11468  -17 55 01.60328    73.3657   6   9   0.0072   0.0259   0.0310  -0.0015   0.0227   0.0062   0.00    0.0
2021/10/06 10:45:42.000   28 35 34.11468  -17 55 01.60328    73.3644   6   9   0.0072   0.0259   0.0309  -0.0015   0.0227   0.0062   0.00    0.0
2021/10/06 10:46:12.000   28 35 34.11467  -17 55 01.60327    73.3639   6   9   0.0072   0.0259   0.0309  -0.0015   0.0227   0.0062   0.00    0.0
2021/10/06 10:46:42.000   28 35 34.11467  -17 55 01.60327    73.3635   6   9   0.0072   0.0259   0.0309  -0.0015   0.0226   0.0061   0.00    0.0
2021/10/06 10:47:12.000   28 35 34.11467  -17 55 01.60328    73.3630   6   9   0.0072   0.0259   0.0309  -0.0015   0.0226   0.0061   0.00    0.0
2021/10/06 10:47:42.000   28 35 34.11467  -17 55 01.60330    73.3620   6   9   0.0072   0.0258   0.0309  -0.0015   0.0226   0.0061   0.00    0.0
2021/10/06 10:48:12.000   28 35 34.11466  -17 55 01.60332    73.3608   6   9   0.0072   0.0258   0.0308  -0.0015   0.0226   0.0061   0.00    0.0
2021/10/06 10:48:42.000   28 35 34.11466  -17 55 01.60333    73.3600   6   9   0.0072   0.0258   0.0308  -0.0016   0.0226   0.0061   0.00    0.0
2021/10/06 10:49:12.000   28 35 34.11465  -17 55 01.60332    73.3601   6   8   0.0071   0.0257   0.0306  -0.0016   0.0225   0.0060   0.00    0.0
2021/10/06 10:49:42.000   28 35 34.11466  -17 55 01.60330    73.3606   6   8   0.0070   0.0255   0.0303  -0.0017   0.0224   0.0058   0.00    0.0
2021/10/06 10:50:12.000   28 35 34.11466  -17 55 01.60331    73.3598   6   8   0.0069   0.0254   0.0302  -0.0017   0.0223   0.0057   0.00    0.0
2021/10/06 10:50:42.000   28 35 34.11466  -17 55 01.60334    73.3587   6   8   0.0069   0.0254   0.0302  -0.0017   0.0223   0.0056   0.00    0.0
2021/10/06 10:51:12.000   28 35 34.11466  -17 55 01.60335    73.3581   6   8   0.0069   0.0254   0.0301  -0.0018   0.0222   0.0056   0.00    0.0
2021/10/06 10:51:42.000   28 35 34.11466  -17 55 01.60335    73.3579   6   8   0.0069   0.0254   0.0301  -0.0018   0.0222   0.0056   0.00    0.0
2021/10/06 10:52:12.000   28 35 34.11466  -17 55 01.60335    73.3578   6   8   0.0069   0.0254   0.0301  -0.0018   0.0222   0.0056   0.00    0.0
2021/10/06 10:52:42.000   28 35 34.11465  -17 55 01.60334    73.3576   6   8   0.0069   0.0254   0.0301  -0.0018   0.0222   0.0056   0.00    0.0
2021/10/06 10:53:12.000   28 35 34.11465  -17 55 01.60335    73.3571   6   8   0.0069   0.0253   0.0301  -0.0018   0.0222   0.0056   0.00    0.0
2021/10/06 10:53:42.000   28 35 34.11465  -17 55 01.60336    73.3562   6   8   0.0069   0.0253   0.0300  -0.0018   0.0221   0.0056   0.00    0.0
2021/10/06 10:54:12.000   28 35 34.11465  -17 55 01.60339    73.3538   6   8   0.0068   0.0252   0.0299  -0.0019   0.0220   0.0055   0.00    0.0
2021/10/06 10:54:42.000   28 35 34.11464  -17 55 01.60344    73.3510   6   8   0.0067   0.0250   0.0295  -0.0020   0.0218   0.0052   0.00    0.0
2021/10/06 10:55:12.000   28 35 34.11463  -17 55 01.60348    73.3495   6   8   0.0066   0.0249   0.0294  -0.0020   0.0217   0.0051   0.00    0.0
2021/10/06 10:55:42.000   28 35 34.11463  -17 55 01.60348    73.3494   6   8   0.0066   0.0249   0.0293  -0.0021   0.0217   0.0051   0.00    0.0
2021/10/06 10:56:12.000   28 35 34.11463  -17 55 01.60347    73.3493   6   8   0.0066   0.0248   0.0293  -0.0021   0.0217   0.0051   0.00    0.0
2021/10/06 10:56:42.000   28 35 34.11463  -17 55 01.60345    73.3496   6   8   0.0066   0.0248   0.0293  -0.0021   0.0217   0.0051   0.00    0.0
2021/10/06 10:57:12.000   28 35 34.11463  -17 55 01.60345    73.3497   6   8   0.0066   0.0248   0.0292  -0.0021   0.0216   0.0051   0.00    0.0
2021/10/06 10:57:42.000   28 35 34.11463  -17 55 01.60345    73.3496   6   8   0.0066   0.0248   0.0292  -0.0021   0.0216   0.0051   0.00    0.0
2021/10/06 10:58:12.000   28 35 34.11463  -17 55 01.60344    73.3496   6   8   0.0066   0.0248   0.0292  -0.0021   0.0216   0.0050   0.00    0.0
2021/10/06 10:58:42.000   28 35 34.11462  -17 55 01.60345    73.3488   6   8   0.0066   0.0247   0.0291  -0.0021   0.0215   0.0050   0.00    0.0
2021/10/06 10:59:12.000   28 35 34.11462  -17 55 01.60347    73.3468   6   8   0.0065   0.0246   0.0289  -0.0022   0.0214   0.0049   0.00    0.0
2021/10/06 10:59:42.000   28 35 34.11462  -17 55 01.60344    73.3450   6   8   0.0064   0.0244   0.0285  -0.0023   0.0212   0.0047   0.00    0.0
2021/10/06 11:00:12.000   28 35 34.11462  -17 55 01.60340    73.3460   6   8   0.0064   0.0243   0.0284  -0.0023   0.0210   0.0046   0.00    0.0
2021/10/06 11:00:42.000   28 35 34.11463  -17 55 01.60338    73.3462   6   7   0.0064   0.0243   0.0284  -0.0023   0.0210   0.0046   0.00    0.0
2021/10/06 11:01:12.000   28 35 34.11463  -17 55 01.60337    73.3464   6   7   0.0063   0.0243   0.0284  -0.0023   0.0210   0.0046   0.00    0.0
2021/10/06 11:01:42.000   28 35 34.11463  -17 55 01.60336    73.3466   6   7   0.0063   0.0242   0.0283  -0.0023   0.0210   0.0046   0.00    0.0
2021/10/06 11:02:12.000   28 35 34.11463  -17 55 01.60336    73.3467   6   7   0.0063   0.0242   0.0283  -0.0023   0.0210   0.0045   0.00    0.0
2021/10/06 11:02:42.000   28 35 34.11463  -17 55 01.60335    73.3468   6   7   0.0063   0.0242   0.0283  -0.0023   0.0210   0.0045   0.00    0.0
2021/10/06 11:03:12.000   28 35 34.11463  -17 55 01.60334    73.3468   6   7   0.0063   0.0242   0.0283  -0.0023   0.0210   0.0045   0.00    0.0
2021/10/06 11:03:42.000   28 35 34.11463  -17 55 01.60333    73.3469   6   7   0.0063   0.0242   0.0283  -0.0023   0.0210   0.0045   0.00    0.0
2021/10/06 11:04:12.000   28 35 34.11463  -17 55 01.60332    73.3467   6   7   0.0063   0.0241   0.0282  -0.0023   0.0209   0.0045   0.00    0.0
2021/10/06 11:04:42.000   28 35 34.11465  -17 55 01.60323    73.3472   6   7   0.0062   0.0239   0.0280  -0.0023   0.0207   0.0043   0.00    0.0
2021/10/06 11:05:12.000   28 35 34.11466  -17 55 01.60319    73.3475   6   7   0.0061   0.0238   0.0279  -0.0023   0.0207   0.0043   0.00    0.0
2021/10/06 11:05:42.000   28 35 34.11466  -17 55 01.60319    73.3475   6   7   0.0061   0.0238   0.0279  -0.0023   0.0206   0.0043   0.00    0.0
2021/10/06 11:06:12.000   28 35 34.11466  -17 55 01.60319    73.3474   6   7   0.0061   0.0238   0.0279  -0.0023   0.0206   0.0043   0.00    0.0
2021/10/06 11:06:42.000   28 35 34.11466  -17 55 01.60319    73.3473   6   7   0.0061   0.0237   0.0279  -0.0023   0.0206   0.0043   0.00    0.0
2021/10/06 11:07:12.000   28 35 34.11466  -17 55 01.60319    73.3473   6   7   0.0061   0.0237   0.0279  -0.0023   0.0206   0.0043   0.00    0.0
2021/10/06 11:07:42.000   28 35 34.11466  -17 55 01.60319    73.3473   6   7   0.0061   0.0237   0.0279  -0.0023   0.0206   0.0043   0.00    0.0
2021/10/06 11:08:12.000   28 35 34.11467  -17 55 01.60318    73.3473   6   7   0.0061   0.0237   0.0279  -0.0023   0.0206   0.0043   0.00    0.0
2021/10/06 11:08:42.000   28 35 34.11467  -17 55 01.60317    73.3475   6   7   0.0061   0.0237   0.0278  -0.0023   0.0206   0.0043   0.00    0.0
2021/10/06 11:09:12.000   28 35 34.11468  -17 55 01.60314    73.3478   6   7   0.0061   0.0236   0.0278  -0.0023   0.0205   0.0042   0.00    0.0
2021/10/06 11:09:42.000   28 35 34.11469  -17 55 01.60306    73.3492   6   7   0.0059   0.0233   0.0275  -0.0023   0.0202   0.0041   0.00    0.0
2021/10/06 11:10:12.000   28 35 34.11469  -17 55 01.60301    73.3503   6   7   0.0059   0.0232   0.0274  -0.0024   0.0202   0.0041   0.00    0.0
2021/10/06 11:10:42.000   28 35 34.11469  -17 55 01.60300    73.3504   6   7   0.0059   0.0232   0.0274  -0.0024   0.0201   0.0040   0.00    0.0
2021/10/06 11:11:12.000   28 35 34.11469  -17 55 01.60300    73.3503   6   7   0.0059   0.0232   0.0274  -0.0024   0.0201   0.0040   0.00    0.0
2021/10/06 11:11:42.000   28 35 34.11469  -17 55 01.60299    73.3505   6   7   0.0059   0.0231   0.0274  -0.0024   0.0201   0.0040   0.00    0.0
2021/10/06 11:12:12.000   28 35 34.11469  -17 55 01.60299    73.3505   6   7   0.0059   0.0231   0.0274  -0.0024   0.0201   0.0040   0.00    0.0
2021/10/06 11:12:42.000   28 35 34.11469  -17 55 01.60298    73.3506   6   7   0.0059   0.0231   0.0274  -0.0024   0.0201   0.0040   0.00    0.0
2021/10/06 11:13:12.000   28 35 34.11470  -17 55 01.60298    73.3506   6   7   0.0059   0.0231   0.0274  -0.0024   0.0201   0.0040   0.00    0.0
2021/10/06 11:13:42.000   28 35 34.11470  -17 55 01.60297    73.3509   6   7   0.0059   0.0231   0.0273  -0.0024   0.0200   0.0040   0.00    0.0
2021/10/06 11:14:12.000   28 35 34.11470  -17 55 01.60293    73.3517   6   7   0.0059   0.0230   0.0273  -0.0024   0.0200   0.0040   0.00    0.0
2021/10/06 11:14:42.000   28 35 34.11472  -17 55 01.60288    73.3526   6   7   0.0057   0.0226   0.0270  -0.0024   0.0196   0.0038   0.00    0.0
2021/10/06 11:15:12.000   28 35 34.11471  -17 55 01.60288    73.3519   6   7   0.0057   0.0225   0.0269  -0.0024   0.0195   0.0038   0.00    0.0
2021/10/06 11:15:42.000   28 35 34.11471  -17 55 01.60288    73.3519   6   7   0.0057   0.0225   0.0269  -0.0024   0.0195   0.0038   0.00    0.0
2021/10/06 11:16:12.000   28 35 34.11471  -17 55 01.60286    73.3521   6   7   0.0057   0.0225   0.0269  -0.0024   0.0195   0.0038   0.00    0.0
2021/10/06 11:16:42.000   28 35 34.11471  -17 55 01.60286    73.3520   6   7   0.0057   0.0225   0.0269  -0.0024   0.0195   0.0038   0.00    0.0
2021/10/06 11:17:12.000   28 35 34.11471  -17 55 01.60287    73.3519   6   7   0.0057   0.0225   0.0269  -0.0024   0.0195   0.0038   0.00    0.0
2021/10/06 11:17:42.000   28 35 34.11470  -17 55 01.60286    73.3518   6   7   0.0057   0.0224   0.0268  -0.0024   0.0195   0.0038   0.00    0.0
2021/10/06 11:18:12.000   28 35 34.11470  -17 55 01.60287    73.3513   6   7   0.0057   0.0224   0.0268  -0.0024   0.0194   0.0038   0.00    0.0
2021/10/06 11:18:42.000   28 35 34.11470  -17 55 01.60288    73.3505   6   7   0.0057   0.0224   0.0268  -0.0024   0.0194   0.0038   0.00    0.0
2021/10/06 11:19:12.000   28 35 34.11469  -17 55 01.60286    73.3501   6   7   0.0057   0.0223   0.0267  -0.0024   0.0193   0.0037   0.00    0.0
2021/10/06 11:19:42.000   28 35 34.11471  -17 55 01.60273    73.3527   6   7   0.0056   0.0219   0.0264  -0.0024   0.0189   0.0036   0.00    0.0
2021/10/06 11:20:12.000   28 35 34.11471  -17 55 01.60271    73.3524   6   7   0.0055   0.0218   0.0263  -0.0024   0.0188   0.0036   0.00    0.0
2021/10/06 11:20:42.000   28 35 34.11471  -17 55 01.60271    73.3523   6   7   0.0055   0.0217   0.0263  -0.0024   0.0188   0.0036   0.00    0.0
2021/10/06 11:21:12.000   28 35 34.11471  -17 55 01.60271    73.3521   6   7   0.0055   0.0217   0.0263  -0.0024   0.0188   0.0036   0.00    0.0
2021/10/06 11:21:42.000   28 35 34.11471  -17 55 01.60271    73.3520   6   7   0.0055   0.0217   0.0263  -0.0024   0.0187   0.0036   0.00    0.0
2021/10/06 11:22:12.000   28 35 34.11471  -17 55 01.60271    73.3518   6   7   0.0055   0.0217   0.0262  -0.0024   0.0187   0.0036   0.00    0.0
2021/10/06 11:22:42.000   28 35 34.11471  -17 55 01.60271    73.3518   6   7   0.0055   0.0217   0.0262  -0.0024   0.0187   0.0036   0.00    0.0
2021/10/06 11:23:12.000   28 35 34.11471  -17 55 01.60271    73.3519   6   7   0.0055   0.0217   0.0262  -0.0024   0.0187   0.0036   0.00    0.0
2021/10/06 11:23:42.000   28 35 34.11471  -17 55 01.60270    73.3524   6   7   0.0055   0.0216   0.0262  -0.0024   0.0187   0.0036   0.00    0.0
2021/10/06 11:24:12.000   28 35 34.11472  -17 55 01.60269    73.3528   6   7   0.0055   0.0215   0.0261  -0.0024   0.0185   0.0035   0.00    0.0
2021/10/06 11:24:42.000   28 35 34.11474  -17 55 01.60270    73.3529   6   7   0.0054   0.0211   0.0257  -0.0024   0.0181   0.0034   0.00    0.0
2021/10/06 11:25:12.000   28 35 34.11473  -17 55 01.60270    73.3531   6   7   0.0054   0.0210   0.0256  -0.0024   0.0180   0.0034   0.00    0.0
2021/10/06 11:25:42.000   28 35 34.11473  -17 55 01.60270    73.3531   6   7   0.0054   0.0210   0.0256  -0.0024   0.0180   0.0034   0.00    0.0
2021/10/06 11:26:12.000   28 35 34.11473  -17 55 01.60269    73.3532   6   7   0.0054   0.0210   0.0256  -0.0024   0.0179   0.0034   0.00    0.0
2021/10/06 11:26:42.000   28 35 34.11473  -17 55 01.60269    73.3534   6   7   0.0054   0.0210   0.0256  -0.0024   0.0179   0.0034   0.00    0.0
2021/10/06 11:27:12.000   28 35 34.11473  -17 55 01.60269    73.3534   6   7   0.0054   0.0210   0.0256  -0.0024   0.0179   0.0034   0.00    0.0
2021/10/06 11:27:42.000   28 35 34.11473  -17 55 01.60269    73.3532   6   7   0.0054   0.0209   0.0256  -0.0024   0.0179   0.0034   0.00    0.0
2021/10/06 11:28:12.000   28 35 34.11473  -17 55 01.60270    73.3530   6   7   0.0054   0.0209   0.0255  -0.0024   0.0179   0.0034   0.00    0.0
2021/10/06 11:28:42.000   28 35 34.11473  -17 55 01.60272    73.3526   6   7   0.0054   0.0209   0.0255  -0.0024   0.0178   0.0034   0.00    0.0
2021/10/06 11:29:12.000   28 35 34.11472  -17 55 01.60275    73.3515   6   7   0.0053   0.0208   0.0254  -0.0024   0.0177   0.0033   0.00    0.0
2021/10/06 11:29:42.000   28 35 34.11475  -17 55 01.60276    73.3517   6   8   0.0052   0.0204   0.0250  -0.0024   0.0172   0.0032   0.00    0.0
2021/10/06 11:30:12.000   28 35 34.11476  -17 55 01.60276    73.3520   6   8   0.0052   0.0203   0.0249  -0.0024   0.0171   0.0032   0.00    0.0
2021/10/06 11:30:42.000   28 35 34.11476  -17 55 01.60277    73.3519   6   8   0.0052   0.0202   0.0249  -0.0024   0.0171   0.0032   0.00    0.0
2021/10/06 11:31:12.000   28 35 34.11476  -17 55 01.60276    73.3521   6   8   0.0052   0.0202   0.0248  -0.0024   0.0170   0.0032   0.00    0.0
2021/10/06 11:31:42.000   28 35 34.11476  -17 55 01.60276    73.3523   6   8   0.0052   0.0202   0.0248  -0.0024   0.0170   0.0032   0.00    0.0
2021/10/06 11:32:12.000   28 35 34.11476  -17 55 01.60275    73.3525   6   8   0.0052   0.0202   0.0248  -0.0024   0.0170   0.0032   0.00    0.0
2021/10/06 11:32:42.000   28 35 34.11476  -17 55 01.60274    73.3527   6   8   0.0052   0.0202   0.0248  -0.0024   0.0170   0.0032   0.00    0.0
2021/10/06 11:33:12.000   28 35 34.11477  -17 55 01.60273    73.3530   6   8   0.0052   0.0201   0.0248  -0.0024   0.0170   0.0032   0.00    0.0
2021/10/06 11:33:42.000   28 35 34.11477  -17 55 01.60272    73.3535   6   8   0.0052   0.0201   0.0247  -0.0024   0.0169   0.0031   0.00    0.0
2021/10/06 11:34:12.000   28 35 34.11478  -17 55 01.60271    73.3536   6   8   0.0052   0.0200   0.0246  -0.0024   0.0168   0.0031   0.00    0.0
2021/10/06 11:34:42.000   28 35 34.11480  -17 55 01.60269    73.3546   6   8   0.0051   0.0196   0.0242  -0.0024   0.0163   0.0030   0.00    0.0
2021/10/06 11:35:12.000   28 35 34.11480  -17 55 01.60270    73.3546   6   8   0.0051   0.0195   0.0241  -0.0024   0.0161   0.0030   0.00    0.0
2021/10/06 11:35:42.000   28 35 34.11480  -17 55 01.60270    73.3546   6   8   0.0051   0.0194   0.0241  -0.0024   0.0161   0.0030   0.00    0.0
2021/10/06 11:36:12.000   28 35 34.11480  -17 55 01.60270    73.3546   6   8   0.0051   0.0194   0.0240  -0.0024   0.0161   0.0030   0.00    0.0
2021/10/06 11:36:42.000   28 35 34.11480  -17 55 01.60270    73.3545   6   8   0.0051   0.0194   0.0240  -0.0024   0.0160   0.0030   0.00    0.0
2021/10/06 11:37:12.000   28 35 34.11480  -17 55 01.60269    73.3546   6   8   0.0051   0.0194   0.0240  -0.0024   0.0160   0.0030   0.00    0.0
2021/10/06 11:37:42.000   28 35 34.11481  -17 55 01.60269    73.3546   6   8   0.0051   0.0194   0.0240  -0.0024   0.0160   0.0029   0.00    0.0
2021/10/06 11:38:12.000   28 35 34.11481  -17 55 01.60269    73.3544   6   8   0.0051   0.0194   0.0240  -0.0024   0.0160   0.0029   0.00    0.0
2021/10/06 11:38:42.000   28 35 34.11481  -17 55 01.60271    73.3535   6   8   0.0051   0.0193   0.0239  -0.0024   0.0159   0.0029   0.00    0.0
2021/10/06 11:39:12.000   28 35 34.11481  -17 55 01.60271    73.3536   6   8   0.0050   0.0192   0.0238  -0.0024   0.0158   0.0029   0.00    0.0
2021/10/06 11:39:42.000   28 35 34.11483  -17 55 01.60270    73.3545   6   8   0.0050   0.0188   0.0234  -0.0024   0.0152   0.0028   0.00    0.0
2021/10/06 11:40:12.000   28 35 34.11483  -17 55 01.60274    73.3527   6   8   0.0050   0.0187   0.0233  -0.0024   0.0151   0.0028   0.00    0.0
2021/10/06 11:40:42.000   28 35 34.11483  -17 55 01.60276    73.3517   6   8   0.0050   0.0187   0.0232  -0.0024   0.0151   0.0028   0.00    0.0
2021/10/06 11:41:12.000   28 35 34.11483  -17 55 01.60277    73.3513   6   8   0.0049   0.0187   0.0232  -0.0024   0.0150   0.0028   0.00    0.0
2021/10/06 11:41:42.000   28 35 34.11483  -17 55 01.60278    73.3509   6   8   0.0049   0.0187   0.0232  -0.0024   0.0150   0.0028   0.00    0.0
2021/10/06 11:42:12.000   28 35 34.11483  -17 55 01.60279    73.3507   6   8   0.0049   0.0186   0.0232  -0.0024   0.0150   0.0028   0.00    0.0
2021/10/06 11:42:42.000   28 35 34.11483  -17 55 01.60278    73.3507   6   8   0.0049   0.0186   0.0232  -0.0024   0.0150   0.0027   0.00    0.0
2021/10/06 11:43:12.000   28 35 34.11483  -17 55 01.60279    73.3504   6   7   0.0049   0.0186   0.0231  -0.0024   0.0150   0.0027   0.00    0.0
2021/10/06 11:43:42.000   28 35 34.11483  -17 55 01.60280    73.3498   6   7   0.0049   0.0186   0.0231  -0.0024   0.0149   0.0027   0.00    0.0
2021/10/06 11:44:12.000   28 35 34.11483  -17 55 01.60284    73.3481   6   7   0.0049   0.0185   0.0230  -0.0024   0.0148   0.0027   0.00    0.0
2021/10/06 11:44:42.000   28 35 34.11485  -17 55 01.60283    73.3484   6   7   0.0049   0.0181   0.0225  -0.0024   0.0142   0.0026   0.00    0.0
2021/10/06 11:45:12.000   28 35 34.11485  -17 55 01.60286    73.3471   6   7   0.0048   0.0180   0.0224  -0.0024   0.0141   0.0026   0.00    0.0
2021/10/06 11:45:42.000   28 35 34.11484  -17 55 01.60289    73.3460   6   7   0.0048   0.0180   0.0224  -0.0024   0.0140   0.0026   0.00    0.0
2021/10/06 11:46:12.000   28 35 34.11484  -17 55 01.60290    73.3456   6   7   0.0048   0.0179   0.0223  -0.0024   0.0140   0.0026   0.00    0.0
2021/10/06 11:46:42.000   28 35 34.11484  -17 55 01.60290    73.3454   6   7   0.0048   0.0179   0.0223  -0.0024   0.0140   0.0026   0.00    0.0
2021/10/06 11:47:12.000   28 35 34.11484  -17 55 01.60290    73.3454   6   7   0.0048   0.0179   0.0223  -0.0024   0.0140   0.0026   0.00    0.0
2021/10/06 11:47:42.000   28 35 34.11484  -17 55 01.60290    73.3454   6   7   0.0048   0.0179   0.0223  -0.0024   0.0140   0.0026   0.00    0.0
2021/10/06 11:48:12.000   28 35 34.11484  -17 55 01.60290    73.3453   6   7   0.0048   0.0179   0.0223  -0.0024   0.0139   0.0025   0.00    0.0
2021/10/06 11:48:42.000   28 35 34.11484  -17 55 01.60290    73.3450   6   7   0.0048   0.0179   0.0222  -0.0024   0.0139   0.0025   0.00    0.0
2021/10/06 11:49:12.000   28 35 34.11484  -17 55 01.60291    73.3444   6   7   0.0048   0.0178   0.0221  -0.0024   0.0137   0.0025   0.00    0.0
2021/10/06 11:49:42.000   28 35 34.11487  -17 55 01.60286    73.3458   6   7   0.0047   0.0174   0.0217  -0.0024   0.0132   0.0024   0.00    0.0
2021/10/06 11:50:12.000   28 35 34.11485  -17 55 01.60291    73.3434   6   7   0.0047   0.0173   0.0215  -0.0024   0.0130   0.0024   0.00    0.0
2021/10/06 11:50:42.000   28 35 34.11485  -17 55 01.60293    73.3423   6   7   0.0047   0.0173   0.0215  -0.0024   0.0130   0.0024   0.00    0.0
2021/10/06 11:51:12.000   28 35 34.11485  -17 55 01.60294    73.3419   6   7   0.0047   0.0173   0.0215  -0.0024   0.0130   0.0024   0.00    0.0
2021/10/06 11:51:42.000   28 35 34.11485  -17 55 01.60294    73.3418   6   7   0.0047   0.0173   0.0215  -0.0024   0.0130   0.0024   0.00    0.0
2021/10/06 11:52:12.000   28 35 34.11485  -17 55 01.60294    73.3418   6   7   0.0047   0.0173   0.0215  -0.0024   0.0129   0.0024   0.00    0.0
2021/10/06 11:52:42.000   28 35 34.11485  -17 55 01.60293    73.3416   6   8   0.0047   0.0172   0.0214  -0.0024   0.0129   0.0024   0.00    0.0
2021/10/06 11:53:12.000   28 35 34.11485  -17 55 01.60293    73.3416   6   8   0.0047   0.0172   0.0214  -0.0024   0.0129   0.0024   0.00    0.0
2021/10/06 11:53:42.000   28 35 34.11485  -17 55 01.60292    73.3417   6   8   0.0047   0.0172   0.0214  -0.0024   0.0128   0.0024   0.00    0.0
2021/10/06 11:54:12.000   28 35 34.11486  -17 55 01.60291    73.3418   6   8   0.0047   0.0171   0.0212  -0.0024   0.0127   0.0023   0.00    0.0
2021/10/06 11:54:42.000   28 35 34.11488  -17 55 01.60284    73.3436   6   8   0.0046   0.0168   0.0208  -0.0024   0.0122   0.0023   0.00    0.0
2021/10/06 11:55:12.000   28 35 34.11489  -17 55 01.60281    73.3445   6   8   0.0046   0.0167   0.0207  -0.0024   0.0120   0.0022   0.00    0.0
2021/10/06 11:55:42.000   28 35 34.11489  -17 55 01.60281    73.3448   6   7   0.0046   0.0167   0.0207  -0.0024   0.0120   0.0022   0.00    0.0
2021/10/06 11:56:12.000   28 35 34.11489  -17 55 01.60281    73.3448   6   7   0.0046   0.0167   0.0207  -0.0024   0.0120   0.0022   0.00    0.0
2021/10/06 11:56:42.000   28 35 34.11489  -17 55 01.60281    73.3447   6   7   0.0046   0.0167   0.0206  -0.0024   0.0120   0.0022   0.00    0.0
