% program   : RTKLIB ver.2.4.2
% inp file  : C:\IPNA\data\OBS\CVBB2740.o
% inp file  : C:\IPNA\data\NAV\CVBB2740.n
% inp file  : C:\IPNA\data\SP3\CVBB2740.sp3
% inp file  : C:\IPNA\data\CLOCK\CVBB2740.clk
% obs start : 2021/09/30 23:59:42.0 UTC (week2177 432000.0s)
% obs end   : 2021/10/01 23:59:12.0 UTC (week2177 518370.0s)
% pos mode  : ppp-static
% solution  : forward
% elev mask : 15.0 deg
% dynamics  : off
% tidecorr  : on
% tropo opt : est ztd
% ephemeris : precise
% antenna1  :                       ( 0.0000  0.0000  0.0000)
%
% (lat/lon/height=WGS84/ellipsoidal,Q=1:fix,2:float,3:sbas,4:dgps,5:single,6:ppp,ns=# of satellites)
%  UTC                     latitude(d'")   longitude(d'")  height(m)   Q  ns   sdn(m)   sde(m)   sdu(m)  sdne(m)  sdeu(m)  sdue(m) age(s)  ratio
2021/09/30 23:59:42.000   28 35 34.08932  -17 55 01.61009    75.0092   6   5   2.8074   2.2933   6.8526  -2.0517  -3.3244   3.6415   0.00    0.0
2021/10/01 00:00:12.000   28 35 34.08812  -17 55 01.62952    75.2315   6   5   1.7742   1.4990   4.2446  -1.2510  -2.0237   2.1503   0.00    0.0
2021/10/01 00:00:42.000   28 35 34.09217  -17 55 01.63285    75.4006   6   5   1.3798   1.1849   3.2727  -0.9551  -1.5436   1.6121   0.00    0.0
2021/10/01 00:01:12.000   28 35 34.09840  -17 55 01.62993    75.3704   6   5   1.1608   1.0070   2.7414  -0.7939  -1.2823   1.3235   0.00    0.0
2021/10/01 00:01:42.000   28 35 34.10230  -17 55 01.62842    75.2411   6   5   1.0178   0.8892   2.3983  -0.6899  -1.1139   1.1393   0.00    0.0
2021/10/01 00:02:12.000   28 35 34.09590  -17 55 01.62914    74.9645   6   5   0.9153   0.8040   2.1547  -0.6161  -0.9944   1.0095   0.00    0.0
2021/10/01 00:02:42.000   28 35 34.09071  -17 55 01.62706    74.4746   6   5   0.8111   0.7248   1.8921  -0.5347  -0.8617   0.8546   0.00    0.0
2021/10/01 00:03:12.000   28 35 34.08511  -17 55 01.62397    73.9279   6   6   0.6667   0.6250   1.5217  -0.3988  -0.6492   0.5840   0.00    0.0
2021/10/01 00:03:42.000   28 35 34.08941  -17 55 01.62697    73.8557   6   6   0.5489   0.5517   1.2124  -0.2922  -0.4843   0.3564   0.00    0.0
2021/10/01 00:04:12.000   28 35 34.08937  -17 55 01.62392    73.9114   6   6   0.4262   0.4889   0.9080  -0.1885  -0.3417   0.1169   0.00    0.0
2021/10/01 00:04:42.000   28 35 34.09955  -17 55 01.62613    73.8628   6   6   0.3111   0.4343   0.6690  -0.0989  -0.2567  -0.1094   0.00    0.0
2021/10/01 00:05:12.000   28 35 34.10054  -17 55 01.62563    73.8134   6   6   0.2924   0.4125   0.6342  -0.0873  -0.2405  -0.1086   0.00    0.0
2021/10/01 00:05:42.000   28 35 34.10083  -17 55 01.62674    73.8035   6   6   0.2832   0.3964   0.6190  -0.0843  -0.2316  -0.1047   0.00    0.0
2021/10/01 00:06:12.000   28 35 34.10151  -17 55 01.62770    73.8127   6   6   0.2765   0.3827   0.6086  -0.0831  -0.2248  -0.1004   0.00    0.0
2021/10/01 00:06:42.000   28 35 34.10251  -17 55 01.62774    73.8050   6   6   0.2708   0.3706   0.6004  -0.0825  -0.2190  -0.0964   0.00    0.0
2021/10/01 00:07:12.000   28 35 34.10321  -17 55 01.62763    73.8363   6   6   0.2659   0.3597   0.5934  -0.0822  -0.2139  -0.0925   0.00    0.0
2021/10/01 00:07:42.000   28 35 34.10348  -17 55 01.62868    73.8544   6   6   0.2601   0.3492   0.5841  -0.0807  -0.2084  -0.0894   0.00    0.0
2021/10/01 00:08:12.000   28 35 34.10391  -17 55 01.62799    73.8398   6   6   0.2522   0.3388   0.5698  -0.0773  -0.2020  -0.0874   0.00    0.0
2021/10/01 00:08:42.000   28 35 34.10576  -17 55 01.62772    73.7942   6   6   0.2394   0.3274   0.5440  -0.0695  -0.1933  -0.0863   0.00    0.0
2021/10/01 00:09:12.000   28 35 34.10801  -17 55 01.62696    73.7538   6   6   0.2129   0.3114   0.4886  -0.0492  -0.1797  -0.0825   0.00    0.0
2021/10/01 00:09:42.000   28 35 34.10978  -17 55 01.62513    73.8071   6   6   0.1665   0.2856   0.3971   0.0257  -0.1642  -0.0638   0.00    0.0
2021/10/01 00:10:12.000   28 35 34.10862  -17 55 01.62468    73.8816   6   6   0.1588   0.2765   0.3807   0.0293  -0.1587  -0.0614   0.00    0.0
2021/10/01 00:10:42.000   28 35 34.10810  -17 55 01.62382    73.8796   6   6   0.1557   0.2704   0.3742   0.0285  -0.1554  -0.0600   0.00    0.0
2021/10/01 00:11:12.000   28 35 34.10803  -17 55 01.62307    73.8758   6   6   0.1537   0.2654   0.3704   0.0268  -0.1528  -0.0588   0.00    0.0
2021/10/01 00:11:42.000   28 35 34.10781  -17 55 01.62257    73.8852   6   6   0.1522   0.2608   0.3677   0.0248  -0.1505  -0.0578   0.00    0.0
2021/10/01 00:12:12.000   28 35 34.10760  -17 55 01.62271    73.9034   6   6   0.1509   0.2566   0.3655   0.0226  -0.1484  -0.0568   0.00    0.0
2021/10/01 00:12:42.000   28 35 34.10733  -17 55 01.62305    73.9240   6   6   0.1493   0.2523   0.3622   0.0210  -0.1462  -0.0558   0.00    0.0
2021/10/01 00:13:12.000   28 35 34.10676  -17 55 01.62342    73.9544   6   6   0.1468   0.2477   0.3568   0.0206  -0.1437  -0.0548   0.00    0.0
2021/10/01 00:13:42.000   28 35 34.10599  -17 55 01.62296    74.0062   6   6   0.1422   0.2423   0.3462   0.0228  -0.1405  -0.0532   0.00    0.0
2021/10/01 00:14:12.000   28 35 34.10738  -17 55 01.62211    74.0000   6   6   0.1312   0.2334   0.3210   0.0299  -0.1352  -0.0489   0.00    0.0
2021/10/01 00:14:42.000   28 35 34.10943  -17 55 01.61993    73.8173   6   6   0.1080   0.2162   0.2700   0.0378  -0.1273  -0.0350   0.00    0.0
2021/10/01 00:15:12.000   28 35 34.10919  -17 55 01.61915    73.7830   6   6   0.1037   0.2106   0.2598   0.0380  -0.1240  -0.0341   0.00    0.0
2021/10/01 00:15:42.000   28 35 34.10902  -17 55 01.61877    73.7719   6   6   0.1022   0.2073   0.2560   0.0374  -0.1220  -0.0336   0.00    0.0
2021/10/01 00:16:12.000   28 35 34.10886  -17 55 01.61872    73.7735   6   6   0.1013   0.2047   0.2538   0.0367  -0.1206  -0.0332   0.00    0.0
2021/10/01 00:16:42.000   28 35 34.10878  -17 55 01.61905    73.7829   6   6   0.1006   0.2024   0.2524   0.0360  -0.1193  -0.0329   0.00    0.0
2021/10/01 00:17:12.000   28 35 34.10864  -17 55 01.61896    73.7914   6   6   0.1001   0.2002   0.2513   0.0353  -0.1181  -0.0325   0.00    0.0
2021/10/01 00:17:42.000   28 35 34.10859  -17 55 01.61903    73.7953   6   6   0.0994   0.1980   0.2496   0.0346  -0.1169  -0.0321   0.00    0.0
2021/10/01 00:18:12.000   28 35 34.10848  -17 55 01.61863    73.7905   6   6   0.0983   0.1955   0.2469   0.0341  -0.1155  -0.0316   0.00    0.0
2021/10/01 00:18:42.000   28 35 34.10856  -17 55 01.61799    73.7661   6   6   0.0962   0.1923   0.2414   0.0339  -0.1136  -0.0307   0.00    0.0
2021/10/01 00:19:12.000   28 35 34.10944  -17 55 01.61725    73.6966   6   6   0.0907   0.1865   0.2277   0.0344  -0.1103  -0.0277   0.00    0.0
2021/10/01 00:19:42.000   28 35 34.11082  -17 55 01.61544    73.6256   6   6   0.0774   0.1744   0.1977   0.0350  -0.1052  -0.0170   0.00    0.0
2021/10/01 00:20:12.000   28 35 34.11089  -17 55 01.61491    73.6037   6   6   0.0749   0.1705   0.1912   0.0346  -0.1029  -0.0162   0.00    0.0
2021/10/01 00:20:42.000   28 35 34.11092  -17 55 01.61487    73.5941   6   6   0.0740   0.1684   0.1889   0.0341  -0.1017  -0.0160   0.00    0.0
2021/10/01 00:21:12.000   28 35 34.11096  -17 55 01.61495    73.5918   6   6   0.0735   0.1669   0.1876   0.0337  -0.1008  -0.0157   0.00    0.0
2021/10/01 00:21:42.000   28 35 34.11093  -17 55 01.61521    73.5965   6   6   0.0732   0.1655   0.1868   0.0333  -0.1000  -0.0155   0.00    0.0
2021/10/01 00:22:12.000   28 35 34.11088  -17 55 01.61495    73.5931   6   6   0.0729   0.1643   0.1862   0.0329  -0.0993  -0.0153   0.00    0.0
2021/10/01 00:22:42.000   28 35 34.11097  -17 55 01.61494    73.5883   6   6   0.0725   0.1629   0.1853   0.0325  -0.0985  -0.0150   0.00    0.0
2021/10/01 00:23:12.000   28 35 34.11121  -17 55 01.61508    73.5773   6   6   0.0719   0.1614   0.1837   0.0321  -0.0977  -0.0147   0.00    0.0
2021/10/01 00:23:42.000   28 35 34.11168  -17 55 01.61538    73.5634   6   6   0.0708   0.1593   0.1808   0.0317  -0.0965  -0.0142   0.00    0.0
2021/10/01 00:24:12.000   28 35 34.11244  -17 55 01.61556    73.5456   6   6   0.0676   0.1553   0.1731   0.0312  -0.0945  -0.0122   0.00    0.0
2021/10/01 00:24:42.000   28 35 34.11288  -17 55 01.61452    73.5324   6   6   0.0595   0.1466   0.1547   0.0301  -0.0909   0.0084   0.00    0.0
2021/10/01 00:25:12.000   28 35 34.11339  -17 55 01.61465    73.5256   6   6   0.0578   0.1438   0.1506   0.0295  -0.0893   0.0087   0.00    0.0
2021/10/01 00:25:42.000   28 35 34.11347  -17 55 01.61445    73.5189   6   6   0.0572   0.1424   0.1491   0.0292  -0.0885   0.0088   0.00    0.0
2021/10/01 00:26:12.000   28 35 34.11349  -17 55 01.61464    73.5203   6   6   0.0569   0.1414   0.1483   0.0289  -0.0879   0.0089   0.00    0.0
2021/10/01 00:26:42.000   28 35 34.11347  -17 55 01.61455    73.5198   6   6   0.0567   0.1405   0.1478   0.0287  -0.0874   0.0091   0.00    0.0
2021/10/01 00:27:12.000   28 35 34.11344  -17 55 01.61461    73.5212   6   6   0.0566   0.1397   0.1474   0.0284  -0.0869   0.0093   0.00    0.0
2021/10/01 00:27:42.000   28 35 34.11346  -17 55 01.61483    73.5227   6   6   0.0563   0.1389   0.1468   0.0282  -0.0864   0.0094   0.00    0.0
2021/10/01 00:28:12.000   28 35 34.11346  -17 55 01.61495    73.5211   6   6   0.0560   0.1378   0.1459   0.0279  -0.0858   0.0097   0.00    0.0
2021/10/01 00:28:42.000   28 35 34.11338  -17 55 01.61458    73.5252   6   6   0.0553   0.1364   0.1441   0.0275  -0.0851   0.0101   0.00    0.0
2021/10/01 00:29:12.000   28 35 34.11329  -17 55 01.61432    73.5484   6   6   0.0533   0.1336   0.1393   0.0269  -0.0837   0.0115   0.00    0.0
2021/10/01 00:29:42.000   28 35 34.11341  -17 55 01.61312    73.5306   6   6   0.0479   0.1274   0.1272   0.0254  -0.0811   0.0159   0.00    0.0
2021/10/01 00:30:12.000   28 35 34.11388  -17 55 01.61331    73.5295   6   6   0.0467   0.1253   0.1244   0.0249  -0.0801   0.0160   0.00    0.0
2021/10/01 00:30:42.000   28 35 34.11400  -17 55 01.61331    73.5313   6   6   0.0463   0.1243   0.1234   0.0246  -0.0795   0.0160   0.00    0.0
2021/10/01 00:31:12.000   28 35 34.11400  -17 55 01.61340    73.5332   6   6   0.0461   0.1236   0.1229   0.0244  -0.0791   0.0161   0.00    0.0
2021/10/01 00:31:42.000   28 35 34.11398  -17 55 01.61358    73.5369   6   6   0.0460   0.1230   0.1226   0.0242  -0.0787   0.0161   0.00    0.0
2021/10/01 00:32:12.000   28 35 34.11397  -17 55 01.61370    73.5399   6   6   0.0459   0.1225   0.1223   0.0241  -0.0784   0.0161   0.00    0.0
2021/10/01 00:32:42.000   28 35 34.11396  -17 55 01.61375    73.5433   6   6   0.0457   0.1218   0.1219   0.0239  -0.0780   0.0162   0.00    0.0
2021/10/01 00:33:12.000   28 35 34.11396  -17 55 01.61373    73.5461   6   6   0.0455   0.1211   0.1213   0.0237  -0.0776   0.0163   0.00    0.0
2021/10/01 00:33:42.000   28 35 34.11383  -17 55 01.61350    73.5488   6   6   0.0450   0.1201   0.1202   0.0234  -0.0771   0.0164   0.00    0.0
2021/10/01 00:34:12.000   28 35 34.11383  -17 55 01.61322    73.5463   6   6   0.0437   0.1181   0.1172   0.0228  -0.0762   0.0169   0.00    0.0
2021/10/01 00:34:42.000   28 35 34.11387  -17 55 01.61191    73.5244   6   6   0.0399   0.1135   0.1090   0.0211  -0.0743   0.0189   0.00    0.0
2021/10/01 00:35:12.000   28 35 34.11381  -17 55 01.61166    73.5241   6   6   0.0391   0.1120   0.1071   0.0206  -0.0735   0.0190   0.00    0.0
2021/10/01 00:35:42.000   28 35 34.11386  -17 55 01.61169    73.5272   6   6   0.0388   0.1112   0.1065   0.0204  -0.0731   0.0190   0.00    0.0
2021/10/01 00:36:12.000   28 35 34.11388  -17 55 01.61188    73.5301   6   6   0.0387   0.1107   0.1061   0.0202  -0.0728   0.0190   0.00    0.0
2021/10/01 00:36:42.000   28 35 34.11390  -17 55 01.61186    73.5300   6   6   0.0386   0.1102   0.1058   0.0201  -0.0726   0.0190   0.00    0.0
2021/10/01 00:37:12.000   28 35 34.11390  -17 55 01.61191    73.5315   6   6   0.0385   0.1098   0.1056   0.0200  -0.0723   0.0190   0.00    0.0
2021/10/01 00:37:42.000   28 35 34.11391  -17 55 01.61183    73.5334   6   6   0.0384   0.1094   0.1054   0.0199  -0.0721   0.0190   0.00    0.0
2021/10/01 00:38:12.000   28 35 34.11390  -17 55 01.61181    73.5347   6   6   0.0383   0.1089   0.1050   0.0197  -0.0718   0.0190   0.00    0.0
2021/10/01 00:38:42.000   28 35 34.11389  -17 55 01.61161    73.5298   6   6   0.0379   0.1081   0.1042   0.0194  -0.0714   0.0191   0.00    0.0
2021/10/01 00:39:12.000   28 35 34.11389  -17 55 01.61120    73.5135   6   6   0.0370   0.1066   0.1022   0.0187  -0.0708   0.0193   0.00    0.0
2021/10/01 00:39:42.000   28 35 34.11396  -17 55 01.61057    73.4979   6   6   0.0343   0.1032   0.0966   0.0169  -0.0694   0.0205   0.00    0.0
2021/10/01 00:40:12.000   28 35 34.11407  -17 55 01.61042    73.4954   6   6   0.0337   0.1020   0.0953   0.0163  -0.0689   0.0205   0.00    0.0
2021/10/01 00:40:42.000   28 35 34.11407  -17 55 01.61042    73.4975   6   6   0.0335   0.1014   0.0948   0.0161  -0.0686   0.0205   0.00    0.0
2021/10/01 00:41:12.000   28 35 34.11405  -17 55 01.61034    73.4983   6   6   0.0334   0.1010   0.0945   0.0160  -0.0684   0.0205   0.00    0.0
2021/10/01 00:41:42.000   28 35 34.11402  -17 55 01.61041    73.4996   6   6   0.0333   0.1007   0.0944   0.0159  -0.0682   0.0205   0.00    0.0
2021/10/01 00:42:12.000   28 35 34.11400  -17 55 01.61043    73.4995   6   6   0.0333   0.1004   0.0942   0.0158  -0.0680   0.0206   0.00    0.0
2021/10/01 00:42:42.000   28 35 34.11400  -17 55 01.61029    73.4966   6   6   0.0332   0.1000   0.0940   0.0157  -0.0678   0.0206   0.00    0.0
2021/10/01 00:43:12.000   28 35 34.11402  -17 55 01.61018    73.4935   6   6   0.0331   0.0996   0.0937   0.0155  -0.0676   0.0206   0.00    0.0
2021/10/01 00:43:42.000   28 35 34.11405  -17 55 01.61009    73.4904   6   6   0.0329   0.0990   0.0932   0.0152  -0.0673   0.0206   0.00    0.0
2021/10/01 00:44:12.000   28 35 34.11410  -17 55 01.61020    73.4914   6   6   0.0322   0.0979   0.0918   0.0145  -0.0669   0.0209   0.00    0.0
2021/10/01 00:44:42.000   28 35 34.11417  -17 55 01.60991    73.4814   6   6   0.0302   0.0953   0.0879   0.0124  -0.0660   0.0219   0.00    0.0
2021/10/01 00:45:12.000   28 35 34.11406  -17 55 01.60987    73.4797   6   6   0.0297   0.0944   0.0869   0.0118  -0.0656   0.0219   0.00    0.0
2021/10/01 00:45:42.000   28 35 34.11405  -17 55 01.60987    73.4757   6   6   0.0296   0.0940   0.0866   0.0115  -0.0654   0.0219   0.00    0.0
2021/10/01 00:46:12.000   28 35 34.11404  -17 55 01.60987    73.4738   6   6   0.0295   0.0937   0.0864   0.0114  -0.0652   0.0219   0.00    0.0
2021/10/01 00:46:42.000   28 35 34.11404  -17 55 01.60993    73.4734   6   6   0.0294   0.0934   0.0863   0.0113  -0.0650   0.0219   0.00    0.0
2021/10/01 00:47:12.000   28 35 34.11403  -17 55 01.60986    73.4719   6   6   0.0294   0.0931   0.0861   0.0112  -0.0649   0.0219   0.00    0.0
2021/10/01 00:47:42.000   28 35 34.11401  -17 55 01.60983    73.4709   6   6   0.0293   0.0929   0.0860   0.0111  -0.0647   0.0219   0.00    0.0
2021/10/01 00:48:12.000   28 35 34.11399  -17 55 01.60982    73.4701   6   6   0.0293   0.0926   0.0858   0.0110  -0.0646   0.0220   0.00    0.0
2021/10/01 00:48:42.000   28 35 34.11395  -17 55 01.60972    73.4669   6   6   0.0291   0.0921   0.0854   0.0107  -0.0644   0.0220   0.00    0.0
2021/10/01 00:49:12.000   28 35 34.11378  -17 55 01.60957    73.4638   6   6   0.0286   0.0912   0.0845   0.0097  -0.0641   0.0222   0.00    0.0
2021/10/01 00:49:42.000   28 35 34.11392  -17 55 01.60912    73.4519   6   6   0.0271   0.0892   0.0818   0.0065  -0.0635   0.0230   0.00    0.0
2021/10/01 00:50:12.000   28 35 34.11394  -17 55 01.60893    73.4471   6   6   0.0268   0.0885   0.0811   0.0054  -0.0632   0.0231   0.00    0.0
2021/10/01 00:50:42.000   28 35 34.11392  -17 55 01.60883    73.4452   6   6   0.0266   0.0881   0.0809   0.0050  -0.0630   0.0231   0.00    0.0
2021/10/01 00:51:12.000   28 35 34.11390  -17 55 01.60881    73.4447   6   6   0.0266   0.0879   0.0807   0.0047  -0.0629   0.0231   0.00    0.0
2021/10/01 00:51:42.000   28 35 34.11387  -17 55 01.60882    73.4452   6   6   0.0265   0.0876   0.0806   0.0046  -0.0628   0.0231   0.00    0.0
2021/10/01 00:52:12.000   28 35 34.11386  -17 55 01.60883    73.4452   6   6   0.0265   0.0874   0.0805   0.0045  -0.0626   0.0231   0.00    0.0
2021/10/01 00:52:42.000   28 35 34.11384  -17 55 01.60884    73.4451   6   6   0.0265   0.0872   0.0804   0.0043  -0.0625   0.0231   0.00    0.0
2021/10/01 00:53:12.000   28 35 34.11383  -17 55 01.60884    73.4448   6   6   0.0264   0.0870   0.0803   0.0040  -0.0624   0.0231   0.00    0.0
2021/10/01 00:53:42.000   28 35 34.11386  -17 55 01.60884    73.4420   6   6   0.0263   0.0866   0.0800   0.0032  -0.0622   0.0232   0.00    0.0
2021/10/01 00:54:12.000   28 35 34.11384  -17 55 01.60880    73.4400   6   6   0.0259   0.0859   0.0794  -0.0025  -0.0620   0.0234   0.00    0.0
2021/10/01 00:54:42.000   28 35 34.11387  -17 55 01.60856    73.4310   6   6   0.0248   0.0843   0.0776  -0.0074  -0.0616   0.0241   0.00    0.0
2021/10/01 00:55:12.000   28 35 34.11392  -17 55 01.60841    73.4233   6   6   0.0245   0.0837   0.0771  -0.0081  -0.0614   0.0242   0.00    0.0
2021/10/01 00:55:42.000   28 35 34.11395  -17 55 01.60836    73.4203   6   6   0.0244   0.0834   0.0770  -0.0084  -0.0613   0.0242   0.00    0.0
2021/10/01 00:56:12.000   28 35 34.11398  -17 55 01.60831    73.4186   6   6   0.0244   0.0832   0.0769  -0.0085  -0.0612   0.0242   0.00    0.0
2021/10/01 00:56:42.000   28 35 34.11398  -17 55 01.60834    73.4188   6   6   0.0244   0.0830   0.0768  -0.0085  -0.0611   0.0242   0.00    0.0
2021/10/01 00:57:12.000   28 35 34.11397  -17 55 01.60831    73.4183   6   6   0.0244   0.0828   0.0767  -0.0085  -0.0610   0.0242   0.00    0.0
2021/10/01 00:57:42.000   28 35 34.11397  -17 55 01.60831    73.4188   6   6   0.0243   0.0826   0.0766  -0.0086  -0.0609   0.0243   0.00    0.0
2021/10/01 00:58:12.000   28 35 34.11397  -17 55 01.60816    73.4169   6   6   0.0243   0.0824   0.0765  -0.0087  -0.0608   0.0243   0.00    0.0
2021/10/01 00:58:42.000   28 35 34.11396  -17 55 01.60803    73.4153   6   6   0.0242   0.0821   0.0763  -0.0090  -0.0606   0.0243   0.00    0.0
2021/10/01 00:59:12.000   28 35 34.11400  -17 55 01.60785    73.4109   6   6   0.0239   0.0815   0.0759  -0.0098  -0.0605   0.0245   0.00    0.0
2021/10/01 00:59:42.000   28 35 34.11403  -17 55 01.60757    73.4055   6   6   0.0231   0.0801   0.0747  -0.0118  -0.0602   0.0252   0.00    0.0
2021/10/01 01:00:12.000   28 35 34.11409  -17 55 01.60743    73.4005   6   6   0.0229   0.0796   0.0744  -0.0122  -0.0600   0.0253   0.00    0.0
2021/10/01 01:00:42.000   28 35 34.11409  -17 55 01.60743    73.4004   6   6   0.0228   0.0793   0.0743  -0.0124  -0.0599   0.0254   0.00    0.0
2021/10/01 01:01:12.000   28 35 34.11408  -17 55 01.60742    73.4004   6   6   0.0228   0.0791   0.0742  -0.0124  -0.0598   0.0254   0.00    0.0
2021/10/01 01:01:42.000   28 35 34.11408  -17 55 01.60747    73.4015   6   6   0.0228   0.0790   0.0741  -0.0124  -0.0597   0.0254   0.00    0.0
2021/10/01 01:02:12.000   28 35 34.11407  -17 55 01.60742    73.4007   6   6   0.0228   0.0788   0.0741  -0.0124  -0.0596   0.0254   0.00    0.0
2021/10/01 01:02:42.000   28 35 34.11406  -17 55 01.60739    73.4005   6   6   0.0227   0.0787   0.0740  -0.0125  -0.0595   0.0254   0.00    0.0
2021/10/01 01:03:12.000   28 35 34.11406  -17 55 01.60738    73.4002   6   6   0.0227   0.0785   0.0739  -0.0125  -0.0594   0.0254   0.00    0.0
2021/10/01 01:03:42.000   28 35 34.11406  -17 55 01.60730    73.3991   6   6   0.0226   0.0782   0.0738  -0.0127  -0.0593   0.0254   0.00    0.0
2021/10/01 01:04:12.000   28 35 34.11409  -17 55 01.60713    73.3975   6   6   0.0224   0.0776   0.0735  -0.0132  -0.0592   0.0256   0.00    0.0
2021/10/01 01:04:42.000   28 35 34.11414  -17 55 01.60676    73.3950   6   6   0.0219   0.0763   0.0727  -0.0145  -0.0588   0.0263   0.00    0.0
2021/10/01 01:05:12.000   28 35 34.11419  -17 55 01.60667    73.3912   6   6   0.0217   0.0758   0.0724  -0.0148  -0.0587   0.0264   0.00    0.0
2021/10/01 01:05:42.000   28 35 34.11422  -17 55 01.60660    73.3887   6   6   0.0217   0.0755   0.0723  -0.0149  -0.0586   0.0264   0.00    0.0
2021/10/01 01:06:12.000   28 35 34.11422  -17 55 01.60660    73.3886   6   6   0.0216   0.0754   0.0723  -0.0149  -0.0585   0.0264   0.00    0.0
2021/10/01 01:06:42.000   28 35 34.11422  -17 55 01.60666    73.3895   6   6   0.0216   0.0752   0.0722  -0.0149  -0.0584   0.0264   0.00    0.0
2021/10/01 01:07:12.000   28 35 34.11422  -17 55 01.60667    73.3899   6   6   0.0216   0.0751   0.0722  -0.0149  -0.0583   0.0264   0.00    0.0
2021/10/01 01:07:42.000   28 35 34.11421  -17 55 01.60666    73.3902   6   6   0.0216   0.0750   0.0721  -0.0149  -0.0582   0.0264   0.00    0.0
2021/10/01 01:08:12.000   28 35 34.11421  -17 55 01.60665    73.3907   6   6   0.0216   0.0748   0.0720  -0.0150  -0.0581   0.0265   0.00    0.0
2021/10/01 01:08:42.000   28 35 34.11420  -17 55 01.60658    73.3901   6   6   0.0215   0.0745   0.0719  -0.0151  -0.0580   0.0265   0.00    0.0
2021/10/01 01:09:12.000   28 35 34.11423  -17 55 01.60656    73.3878   6   6   0.0214   0.0739   0.0717  -0.0154  -0.0577   0.0267   0.00    0.0
2021/10/01 01:09:42.000   28 35 34.11425  -17 55 01.60656    73.3874   6   6   0.0210   0.0725   0.0710  -0.0163  -0.0572   0.0272   0.00    0.0
2021/10/01 01:10:12.000   28 35 34.11420  -17 55 01.60669    73.3935   6   6   0.0209   0.0720   0.0708  -0.0165  -0.0570   0.0273   0.00    0.0
2021/10/01 01:10:42.000   28 35 34.11419  -17 55 01.60670    73.3941   6   6   0.0208   0.0717   0.0707  -0.0165  -0.0568   0.0273   0.00    0.0
2021/10/01 01:11:12.000   28 35 34.11418  -17 55 01.60672    73.3948   6   6   0.0208   0.0716   0.0706  -0.0165  -0.0567   0.0273   0.00    0.0
2021/10/01 01:11:42.000   28 35 34.11417  -17 55 01.60673    73.3950   6   6   0.0208   0.0714   0.0705  -0.0165  -0.0566   0.0273   0.00    0.0
2021/10/01 01:12:12.000   28 35 34.11416  -17 55 01.60674    73.3952   6   6   0.0208   0.0713   0.0705  -0.0165  -0.0566   0.0273   0.00    0.0
2021/10/01 01:12:42.000   28 35 34.11415  -17 55 01.60674    73.3957   6   6   0.0208   0.0712   0.0704  -0.0165  -0.0565   0.0273   0.00    0.0
2021/10/01 01:13:12.000   28 35 34.11414  -17 55 01.60671    73.3959   6   6   0.0207   0.0710   0.0703  -0.0165  -0.0564   0.0273   0.00    0.0
2021/10/01 01:13:42.000   28 35 34.11413  -17 55 01.60660    73.3948   6   6   0.0207   0.0708   0.0702  -0.0165  -0.0562   0.0273   0.00    0.0
2021/10/01 01:14:12.000   28 35 34.11417  -17 55 01.60643    73.3916   6   7   0.0206   0.0701   0.0699  -0.0167  -0.0558   0.0274   0.00    0.0
2021/10/01 01:14:42.000   28 35 34.11422  -17 55 01.60621    73.3868   6   7   0.0203   0.0683   0.0691  -0.0171  -0.0548   0.0277   0.00    0.0
2021/10/01 01:15:12.000   28 35 34.11426  -17 55 01.60611    73.3835   6   7   0.0202   0.0678   0.0688  -0.0172  -0.0545   0.0278   0.00    0.0
2021/10/01 01:15:42.000   28 35 34.11426  -17 55 01.60608    73.3824   6   7   0.0201   0.0675   0.0687  -0.0172  -0.0543   0.0278   0.00    0.0
2021/10/01 01:16:12.000   28 35 34.11426  -17 55 01.60608    73.3827   6   7   0.0201   0.0673   0.0686  -0.0172  -0.0542   0.0278   0.00    0.0
2021/10/01 01:16:42.000   28 35 34.11425  -17 55 01.60609    73.3827   6   7   0.0201   0.0672   0.0685  -0.0171  -0.0541   0.0278   0.00    0.0
2021/10/01 01:17:12.000   28 35 34.11425  -17 55 01.60609    73.3826   6   7   0.0201   0.0671   0.0684  -0.0171  -0.0540   0.0277   0.00    0.0
2021/10/01 01:17:42.000   28 35 34.11424  -17 55 01.60605    73.3815   6   7   0.0201   0.0669   0.0683  -0.0171  -0.0538   0.0277   0.00    0.0
2021/10/01 01:18:12.000   28 35 34.11425  -17 55 01.60607    73.3811   6   7   0.0201   0.0667   0.0682  -0.0170  -0.0537   0.0277   0.00    0.0
2021/10/01 01:18:42.000   28 35 34.11426  -17 55 01.60605    73.3806   6   7   0.0200   0.0664   0.0680  -0.0170  -0.0534   0.0277   0.00    0.0
2021/10/01 01:19:12.000   28 35 34.11428  -17 55 01.60587    73.3739   6   7   0.0199   0.0656   0.0674  -0.0169  -0.0528   0.0276   0.00    0.0
2021/10/01 01:19:42.000   28 35 34.11432  -17 55 01.60568    73.3706   6   7   0.0195   0.0636   0.0661  -0.0169  -0.0512   0.0275   0.00    0.0
2021/10/01 01:20:12.000   28 35 34.11429  -17 55 01.60549    73.3649   6   7   0.0194   0.0629   0.0657  -0.0168  -0.0507   0.0275   0.00    0.0
2021/10/01 01:20:42.000   28 35 34.11428  -17 55 01.60542    73.3621   6   7   0.0194   0.0627   0.0655  -0.0167  -0.0504   0.0274   0.00    0.0
2021/10/01 01:21:12.000   28 35 34.11426  -17 55 01.60538    73.3612   6   7   0.0194   0.0625   0.0653  -0.0167  -0.0503   0.0274   0.00    0.0
2021/10/01 01:21:42.000   28 35 34.11426  -17 55 01.60537    73.3606   6   7   0.0194   0.0623   0.0652  -0.0166  -0.0502   0.0274   0.00    0.0
2021/10/01 01:22:12.000   28 35 34.11425  -17 55 01.60534    73.3595   6   7   0.0194   0.0622   0.0652  -0.0166  -0.0501   0.0273   0.00    0.0
2021/10/01 01:22:42.000   28 35 34.11424  -17 55 01.60526    73.3575   6   7   0.0193   0.0621   0.0650  -0.0165  -0.0499   0.0273   0.00    0.0
2021/10/01 01:23:12.000   28 35 34.11424  -17 55 01.60524    73.3565   6   7   0.0193   0.0619   0.0649  -0.0165  -0.0497   0.0272   0.00    0.0
2021/10/01 01:23:42.000   28 35 34.11428  -17 55 01.60519    73.3549   6   7   0.0193   0.0615   0.0645  -0.0163  -0.0494   0.0271   0.00    0.0
2021/10/01 01:24:12.000   28 35 34.11436  -17 55 01.60509    73.3506   6   7   0.0191   0.0607   0.0637  -0.0161  -0.0485   0.0269   0.00    0.0
2021/10/01 01:24:42.000   28 35 34.11442  -17 55 01.60511    73.3531   6   7   0.0187   0.0584   0.0618  -0.0155  -0.0464   0.0264   0.00    0.0
2021/10/01 01:25:12.000   28 35 34.11440  -17 55 01.60508    73.3534   6   7   0.0185   0.0577   0.0611  -0.0153  -0.0457   0.0262   0.00    0.0
2021/10/01 01:25:42.000   28 35 34.11438  -17 55 01.60504    73.3523   6   7   0.0185   0.0575   0.0609  -0.0152  -0.0454   0.0261   0.00    0.0
2021/10/01 01:26:12.000   28 35 34.11437  -17 55 01.60504    73.3526   6   7   0.0185   0.0573   0.0607  -0.0151  -0.0452   0.0261   0.00    0.0
2021/10/01 01:26:42.000   28 35 34.11436  -17 55 01.60500    73.3513   6   7   0.0185   0.0572   0.0606  -0.0151  -0.0451   0.0260   0.00    0.0
2021/10/01 01:27:12.000   28 35 34.11436  -17 55 01.60498    73.3506   6   7   0.0184   0.0571   0.0605  -0.0150  -0.0450   0.0260   0.00    0.0
2021/10/01 01:27:42.000   28 35 34.11435  -17 55 01.60492    73.3490   6   7   0.0184   0.0569   0.0603  -0.0149  -0.0448   0.0259   0.00    0.0
2021/10/01 01:28:12.000   28 35 34.11434  -17 55 01.60490    73.3475   6   7   0.0184   0.0567   0.0601  -0.0148  -0.0446   0.0259   0.00    0.0
2021/10/01 01:28:42.000   28 35 34.11434  -17 55 01.60490    73.3481   6   7   0.0183   0.0564   0.0597  -0.0147  -0.0442   0.0257   0.00    0.0
2021/10/01 01:29:12.000   28 35 34.11433  -17 55 01.60490    73.3502   6   7   0.0181   0.0555   0.0586  -0.0142  -0.0431   0.0253   0.00    0.0
2021/10/01 01:29:42.000   28 35 34.11438  -17 55 01.60477    73.3492   6   7   0.0176   0.0532   0.0564  -0.0133  -0.0407   0.0245   0.00    0.0
2021/10/01 01:30:12.000   28 35 34.11438  -17 55 01.60471    73.3451   6   7   0.0175   0.0526   0.0556  -0.0130  -0.0399   0.0242   0.00    0.0
2021/10/01 01:30:42.000   28 35 34.11437  -17 55 01.60470    73.3444   6   7   0.0174   0.0523   0.0552  -0.0128  -0.0396   0.0241   0.00    0.0
2021/10/01 01:31:12.000   28 35 34.11436  -17 55 01.60471    73.3445   6   7   0.0174   0.0521   0.0550  -0.0127  -0.0394   0.0240   0.00    0.0
2021/10/01 01:31:42.000   28 35 34.11436  -17 55 01.60471    73.3446   6   8   0.0173   0.0520   0.0549  -0.0127  -0.0393   0.0239   0.00    0.0
2021/10/01 01:32:12.000   28 35 34.11437  -17 55 01.60470    73.3448   6   8   0.0173   0.0519   0.0548  -0.0126  -0.0392   0.0239   0.00    0.0
2021/10/01 01:32:42.000   28 35 34.11437  -17 55 01.60469    73.3452   6   8   0.0173   0.0518   0.0547  -0.0126  -0.0390   0.0238   0.00    0.0
2021/10/01 01:33:12.000   28 35 34.11438  -17 55 01.60470    73.3459   6   8   0.0173   0.0516   0.0544  -0.0124  -0.0388   0.0237   0.00    0.0
2021/10/01 01:33:42.000   28 35 34.11441  -17 55 01.60469    73.3461   6   8   0.0172   0.0513   0.0540  -0.0122  -0.0383   0.0235   0.00    0.0
2021/10/01 01:34:12.000   28 35 34.11448  -17 55 01.60470    73.3484   6   8   0.0170   0.0505   0.0528  -0.0117  -0.0373   0.0231   0.00    0.0
2021/10/01 01:34:42.000   28 35 34.11453  -17 55 01.60468    73.3517   6   8   0.0164   0.0483   0.0505  -0.0106  -0.0348   0.0221   0.00    0.0
2021/10/01 01:35:12.000   28 35 34.11455  -17 55 01.60470    73.3535   6   8   0.0162   0.0477   0.0496  -0.0102  -0.0340   0.0217   0.00    0.0
2021/10/01 01:35:42.000   28 35 34.11455  -17 55 01.60466    73.3512   6   8   0.0162   0.0474   0.0493  -0.0100  -0.0337   0.0216   0.00    0.0
2021/10/01 01:36:12.000   28 35 34.11454  -17 55 01.60464    73.3501   6   8   0.0161   0.0473   0.0491  -0.0099  -0.0335   0.0215   0.00    0.0
2021/10/01 01:36:42.000   28 35 34.11454  -17 55 01.60461    73.3490   6   8   0.0161   0.0472   0.0490  -0.0098  -0.0334   0.0214   0.00    0.0
2021/10/01 01:37:12.000   28 35 34.11454  -17 55 01.60460    73.3486   6   8   0.0161   0.0471   0.0489  -0.0098  -0.0333   0.0214   0.00    0.0
2021/10/01 01:37:42.000   28 35 34.11454  -17 55 01.60458    73.3482   6   8   0.0161   0.0470   0.0487  -0.0097  -0.0332   0.0213   0.00    0.0
2021/10/01 01:38:12.000   28 35 34.11454  -17 55 01.60455    73.3474   6   8   0.0160   0.0469   0.0485  -0.0096  -0.0330   0.0212   0.00    0.0
2021/10/01 01:38:42.000   28 35 34.11456  -17 55 01.60449    73.3470   6   8   0.0160   0.0466   0.0480  -0.0094  -0.0326   0.0210   0.00    0.0
2021/10/01 01:39:12.000   28 35 34.11458  -17 55 01.60440    73.3457   6   8   0.0157   0.0459   0.0469  -0.0088  -0.0316   0.0205   0.00    0.0
2021/10/01 01:39:42.000   28 35 34.11463  -17 55 01.60445    73.3528   6   8   0.0152   0.0439   0.0447  -0.0077  -0.0294   0.0195   0.00    0.0
2021/10/01 01:40:12.000   28 35 34.11467  -17 55 01.60447    73.3558   6   8   0.0150   0.0434   0.0439  -0.0072  -0.0287   0.0191   0.00    0.0
2021/10/01 01:40:42.000   28 35 34.11467  -17 55 01.60444    73.3563   6   8   0.0149   0.0432   0.0435  -0.0071  -0.0284   0.0190   0.00    0.0
2021/10/01 01:41:12.000   28 35 34.11467  -17 55 01.60440    73.3559   6   6   0.0149   0.0431   0.0435  -0.0070  -0.0283   0.0189   0.00    0.0
2021/10/01 01:41:42.000   28 35 34.11467  -17 55 01.60439    73.3562   6   6   0.0149   0.0431   0.0434  -0.0070  -0.0283   0.0189   0.00    0.0
2021/10/01 01:42:12.000   28 35 34.11467  -17 55 01.60439    73.3564   6   6   0.0149   0.0430   0.0434  -0.0070  -0.0282   0.0189   0.00    0.0
2021/10/01 01:42:42.000   28 35 34.11466  -17 55 01.60437    73.3563   6   6   0.0149   0.0430   0.0433  -0.0069  -0.0282   0.0189   0.00    0.0
2021/10/01 01:43:12.000   28 35 34.11466  -17 55 01.60437    73.3565   6   6   0.0149   0.0429   0.0433  -0.0069  -0.0281   0.0188   0.00    0.0
2021/10/01 01:43:42.000   28 35 34.11467  -17 55 01.60438    73.3565   6   6   0.0148   0.0427   0.0431  -0.0068  -0.0279   0.0188   0.00    0.0
2021/10/01 01:44:12.000   28 35 34.11469  -17 55 01.60436    73.3555   6   6   0.0147   0.0422   0.0428  -0.0066  -0.0275   0.0186   0.00    0.0
2021/10/01 01:44:42.000   28 35 34.11471  -17 55 01.60428    73.3553   6   6   0.0142   0.0406   0.0417  -0.0059  -0.0262   0.0180   0.00    0.0
2021/10/01 01:45:12.000   28 35 34.11472  -17 55 01.60424    73.3558   6   6   0.0141   0.0403   0.0414  -0.0057  -0.0259   0.0178   0.00    0.0
2021/10/01 01:45:42.000   28 35 34.11472  -17 55 01.60422    73.3561   6   6   0.0141   0.0401   0.0413  -0.0057  -0.0257   0.0178   0.00    0.0
2021/10/01 01:46:12.000   28 35 34.11472  -17 55 01.60419    73.3563   6   6   0.0141   0.0400   0.0413  -0.0056  -0.0257   0.0177   0.00    0.0
2021/10/01 01:46:42.000   28 35 34.11472  -17 55 01.60416    73.3561   6   6   0.0140   0.0400   0.0412  -0.0056  -0.0256   0.0177   0.00    0.0
2021/10/01 01:47:12.000   28 35 34.11472  -17 55 01.60415    73.3558   6   6   0.0140   0.0399   0.0412  -0.0056  -0.0256   0.0177   0.00    0.0
2021/10/01 01:47:42.000   28 35 34.11472  -17 55 01.60413    73.3557   6   6   0.0140   0.0399   0.0412  -0.0056  -0.0255   0.0177   0.00    0.0
2021/10/01 01:48:12.000   28 35 34.11472  -17 55 01.60411    73.3556   6   6   0.0140   0.0398   0.0411  -0.0055  -0.0255   0.0176   0.00    0.0
2021/10/01 01:48:42.000   28 35 34.11472  -17 55 01.60410    73.3559   6   6   0.0140   0.0396   0.0410  -0.0054  -0.0253   0.0176   0.00    0.0
2021/10/01 01:49:12.000   28 35 34.11472  -17 55 01.60405    73.3554   6   6   0.0138   0.0392   0.0406  -0.0052  -0.0249   0.0174   0.00    0.0
2021/10/01 01:49:42.000   28 35 34.11475  -17 55 01.60395    73.3560   6   6   0.0134   0.0377   0.0396  -0.0045  -0.0237   0.0167   0.00    0.0
2021/10/01 01:50:12.000   28 35 34.11473  -17 55 01.60391    73.3559   6   6   0.0133   0.0374   0.0394  -0.0042  -0.0235   0.0165   0.00    0.0
2021/10/01 01:50:42.000   28 35 34.11472  -17 55 01.60389    73.3559   6   6   0.0132   0.0372   0.0393  -0.0042  -0.0233   0.0165   0.00    0.0
2021/10/01 01:51:12.000   28 35 34.11472  -17 55 01.60388    73.3562   6   6   0.0132   0.0372   0.0392  -0.0041  -0.0233   0.0165   0.00    0.0
2021/10/01 01:51:42.000   28 35 34.11471  -17 55 01.60387    73.3561   6   6   0.0132   0.0371   0.0392  -0.0041  -0.0232   0.0164   0.00    0.0
2021/10/01 01:52:12.000   28 35 34.11471  -17 55 01.60384    73.3558   6   6   0.0132   0.0371   0.0392  -0.0041  -0.0232   0.0164   0.00    0.0
2021/10/01 01:52:42.000   28 35 34.11470  -17 55 01.60384    73.3557   6   6   0.0132   0.0370   0.0392  -0.0041  -0.0232   0.0164   0.00    0.0
2021/10/01 01:53:12.000   28 35 34.11469  -17 55 01.60384    73.3554   6   6   0.0131   0.0369   0.0391  -0.0040  -0.0231   0.0164   0.00    0.0
2021/10/01 01:53:42.000   28 35 34.11467  -17 55 01.60381    73.3548   6   6   0.0131   0.0368   0.0390  -0.0039  -0.0230   0.0163   0.00    0.0
2021/10/01 01:54:12.000   28 35 34.11467  -17 55 01.60373    73.3541   6   6   0.0130   0.0364   0.0387  -0.0037  -0.0227   0.0161   0.00    0.0
2021/10/01 01:54:42.000   28 35 34.11470  -17 55 01.60360    73.3549   6   6   0.0126   0.0350   0.0378  -0.0029  -0.0217   0.0155   0.00    0.0
2021/10/01 01:55:12.000   28 35 34.11470  -17 55 01.60357    73.3551   6   6   0.0125   0.0347   0.0376  -0.0027  -0.0214   0.0153   0.00    0.0
2021/10/01 01:55:42.000   28 35 34.11470  -17 55 01.60356    73.3551   6   6   0.0124   0.0346   0.0375  -0.0026  -0.0214   0.0153   0.00    0.0
2021/10/01 01:56:12.000   28 35 34.11470  -17 55 01.60354    73.3549   6   6   0.0124   0.0345   0.0375  -0.0026  -0.0213   0.0152   0.00    0.0
2021/10/01 01:56:42.000   28 35 34.11470  -17 55 01.60354    73.3549   6   6   0.0124   0.0345   0.0375  -0.0025  -0.0213   0.0152   0.00    0.0
2021/10/01 01:57:12.000   28 35 34.11471  -17 55 01.60353    73.3550   6   6   0.0124   0.0345   0.0375  -0.0025  -0.0213   0.0152   0.00    0.0
2021/10/01 01:57:42.000   28 35 34.11471  -17 55 01.60351    73.3551   6   6   0.0124   0.0344   0.0374  -0.0025  -0.0212   0.0152   0.00    0.0
2021/10/01 01:58:12.000   28 35 34.11473  -17 55 01.60348    73.3554   6   6   0.0124   0.0344   0.0374  -0.0024  -0.0212   0.0152   0.00    0.0
2021/10/01 01:58:42.000   28 35 34.11474  -17 55 01.60346    73.3554   6   6   0.0123   0.0342   0.0373  -0.0023  -0.0211   0.0151   0.00    0.0
2021/10/01 01:59:12.000   28 35 34.11474  -17 55 01.60344    73.3557   6   6   0.0122   0.0339   0.0371  -0.0020  -0.0208   0.0149   0.00    0.0
2021/10/01 01:59:42.000   28 35 34.11477  -17 55 01.60340    73.3582   6   6   0.0118   0.0326   0.0363  -0.0004  -0.0200   0.0143   0.00    0.0
2021/10/01 02:00:12.000   28 35 34.11478  -17 55 01.60336    73.3587   6   6   0.0117   0.0324   0.0361   0.0009  -0.0198   0.0141   0.00    0.0
2021/10/01 02:00:42.000   28 35 34.11478  -17 55 01.60334    73.3589   6   6   0.0117   0.0323   0.0361   0.0011  -0.0197   0.0141   0.00    0.0
2021/10/01 02:01:12.000   28 35 34.11478  -17 55 01.60332    73.3589   6   6   0.0117   0.0322   0.0360   0.0011  -0.0197   0.0141   0.00    0.0
2021/10/01 02:01:42.000   28 35 34.11478  -17 55 01.60330    73.3589   6   6   0.0117   0.0322   0.0360   0.0012  -0.0197   0.0140   0.00    0.0
2021/10/01 02:02:12.000   28 35 34.11479  -17 55 01.60327    73.3588   6   6   0.0117   0.0321   0.0360   0.0012  -0.0196   0.0140   0.00    0.0
2021/10/01 02:02:42.000   28 35 34.11479  -17 55 01.60322    73.3586   6   6   0.0117   0.0321   0.0360   0.0013  -0.0196   0.0140   0.00    0.0
2021/10/01 02:03:12.000   28 35 34.11479  -17 55 01.60321    73.3585   6   6   0.0116   0.0320   0.0359   0.0013  -0.0196   0.0140   0.00    0.0
2021/10/01 02:03:42.000   28 35 34.11479  -17 55 01.60318    73.3585   6   6   0.0116   0.0319   0.0358   0.0015  -0.0195   0.0139   0.00    0.0
2021/10/01 02:04:12.000   28 35 34.11478  -17 55 01.60315    73.3581   6   6   0.0115   0.0316   0.0356   0.0018  -0.0193   0.0137   0.00    0.0
2021/10/01 02:04:42.000   28 35 34.11479  -17 55 01.60310    73.3593   6   6   0.0111   0.0305   0.0350   0.0025  -0.0186   0.0131   0.00    0.0
2021/10/01 02:05:12.000   28 35 34.11481  -17 55 01.60305    73.3599   6   6   0.0111   0.0302   0.0348   0.0027  -0.0184   0.0130   0.00    0.0
2021/10/01 02:05:42.000   28 35 34.11481  -17 55 01.60302    73.3600   6   6   0.0110   0.0302   0.0347   0.0027  -0.0184   0.0129   0.00    0.0
2021/10/01 02:06:12.000   28 35 34.11481  -17 55 01.60300    73.3600   6   6   0.0110   0.0301   0.0347   0.0027  -0.0183   0.0129   0.00    0.0
2021/10/01 02:06:42.000   28 35 34.11482  -17 55 01.60298    73.3601   6   6   0.0110   0.0301   0.0347   0.0028  -0.0183   0.0129   0.00    0.0
2021/10/01 02:07:12.000   28 35 34.11481  -17 55 01.60298    73.3600   6   6   0.0110   0.0300   0.0347   0.0028  -0.0183   0.0129   0.00    0.0
2021/10/01 02:07:42.000   28 35 34.11481  -17 55 01.60297    73.3599   6   6   0.0110   0.0300   0.0347   0.0028  -0.0183   0.0129   0.00    0.0
2021/10/01 02:08:12.000   28 35 34.11480  -17 55 01.60297    73.3598   6   6   0.0110   0.0300   0.0346   0.0028  -0.0182   0.0128   0.00    0.0
2021/10/01 02:08:42.000   28 35 34.11480  -17 55 01.60296    73.3598   6   6   0.0109   0.0299   0.0345   0.0029  -0.0182   0.0128   0.00    0.0
2021/10/01 02:09:12.000   28 35 34.11480  -17 55 01.60293    73.3596   6   6   0.0108   0.0296   0.0344   0.0030  -0.0180   0.0126   0.00    0.0
2021/10/01 02:09:42.000   28 35 34.11482  -17 55 01.60290    73.3607   6   6   0.0105   0.0286   0.0338   0.0034  -0.0174   0.0120   0.00    0.0
2021/10/01 02:10:12.000   28 35 34.11482  -17 55 01.60285    73.3593   6   6   0.0105   0.0284   0.0336   0.0035  -0.0173   0.0119   0.00    0.0
2021/10/01 02:10:42.000   28 35 34.11482  -17 55 01.60283    73.3594   6   6   0.0104   0.0283   0.0335   0.0035  -0.0172   0.0118   0.00    0.0
2021/10/01 02:11:12.000   28 35 34.11483  -17 55 01.60281    73.3596   6   6   0.0104   0.0282   0.0335   0.0035  -0.0172   0.0118   0.00    0.0
2021/10/01 02:11:42.000   28 35 34.11483  -17 55 01.60279    73.3595   6   6   0.0104   0.0282   0.0335   0.0035  -0.0172   0.0118   0.00    0.0
2021/10/01 02:12:12.000   28 35 34.11483  -17 55 01.60277    73.3594   6   6   0.0104   0.0282   0.0335   0.0035  -0.0172   0.0118   0.00    0.0
2021/10/01 02:12:42.000   28 35 34.11483  -17 55 01.60276    73.3591   6   6   0.0104   0.0282   0.0335   0.0035  -0.0171   0.0117   0.00    0.0
2021/10/01 02:13:12.000   28 35 34.11483  -17 55 01.60275    73.3587   6   6   0.0104   0.0281   0.0334   0.0035  -0.0171   0.0117   0.00    0.0
2021/10/01 02:13:42.000   28 35 34.11484  -17 55 01.60272    73.3585   6   6   0.0104   0.0280   0.0334   0.0036  -0.0171   0.0117   0.00    0.0
2021/10/01 02:14:12.000   28 35 34.11484  -17 55 01.60267    73.3576   6   6   0.0103   0.0278   0.0332   0.0037  -0.0169   0.0115   0.00    0.0
2021/10/01 02:14:42.000   28 35 34.11486  -17 55 01.60264    73.3597   6   6   0.0100   0.0269   0.0326   0.0039  -0.0164   0.0109   0.00    0.0
2021/10/01 02:15:12.000   28 35 34.11488  -17 55 01.60260    73.3612   6   6   0.0099   0.0267   0.0324   0.0040  -0.0163   0.0108   0.00    0.0
2021/10/01 02:15:42.000   28 35 34.11489  -17 55 01.60257    73.3610   6   6   0.0099   0.0266   0.0324   0.0040  -0.0163   0.0107   0.00    0.0
2021/10/01 02:16:12.000   28 35 34.11489  -17 55 01.60254    73.3604   6   6   0.0099   0.0266   0.0324   0.0040  -0.0162   0.0107   0.00    0.0
2021/10/01 02:16:42.000   28 35 34.11489  -17 55 01.60252    73.3599   6   6   0.0099   0.0265   0.0323   0.0040  -0.0162   0.0107   0.00    0.0
2021/10/01 02:17:12.000   28 35 34.11489  -17 55 01.60250    73.3595   6   6   0.0099   0.0265   0.0323   0.0040  -0.0162   0.0107   0.00    0.0
2021/10/01 02:17:42.000   28 35 34.11489  -17 55 01.60249    73.3593   6   6   0.0099   0.0265   0.0323   0.0040  -0.0162   0.0107   0.00    0.0
2021/10/01 02:18:12.000   28 35 34.11489  -17 55 01.60246    73.3592   6   6   0.0099   0.0265   0.0323   0.0040  -0.0162   0.0106   0.00    0.0
2021/10/01 02:18:42.000   28 35 34.11489  -17 55 01.60243    73.3589   6   6   0.0098   0.0264   0.0322   0.0041  -0.0161   0.0106   0.00    0.0
2021/10/01 02:19:12.000   28 35 34.11491  -17 55 01.60237    73.3591   6   6   0.0098   0.0261   0.0320   0.0041  -0.0160   0.0104   0.00    0.0
2021/10/01 02:19:42.000   28 35 34.11491  -17 55 01.60230    73.3595   6   6   0.0095   0.0253   0.0315   0.0043  -0.0156   0.0099   0.00    0.0
2021/10/01 02:20:12.000   28 35 34.11490  -17 55 01.60226    73.3581   6   6   0.0094   0.0252   0.0313   0.0044  -0.0155   0.0097   0.00    0.0
2021/10/01 02:20:42.000   28 35 34.11490  -17 55 01.60224    73.3572   6   6   0.0094   0.0251   0.0312   0.0044  -0.0154   0.0097   0.00    0.0
2021/10/01 02:21:12.000   28 35 34.11490  -17 55 01.60223    73.3568   6   6   0.0094   0.0251   0.0312   0.0044  -0.0154   0.0097   0.00    0.0
2021/10/01 02:21:42.000   28 35 34.11490  -17 55 01.60223    73.3568   6   5   0.0094   0.0250   0.0312   0.0044  -0.0154   0.0096   0.00    0.0
2021/10/01 02:22:12.000   28 35 34.11490  -17 55 01.60222    73.3568   6   5   0.0094   0.0250   0.0312   0.0044  -0.0154   0.0096   0.00    0.0
2021/10/01 02:22:42.000   28 35 34.11490  -17 55 01.60222    73.3568   6   5   0.0094   0.0250   0.0312   0.0044  -0.0154   0.0096   0.00    0.0
2021/10/01 02:23:12.000   28 35 34.11490  -17 55 01.60223    73.3569   6   5   0.0094   0.0250   0.0312   0.0044  -0.0153   0.0096   0.00    0.0
2021/10/01 02:23:42.000   28 35 34.11489  -17 55 01.60226    73.3572   6   5   0.0094   0.0249   0.0311   0.0044  -0.0153   0.0096   0.00    0.0
2021/10/01 02:24:12.000   28 35 34.11488  -17 55 01.60232    73.3574   6   5   0.0093   0.0247   0.0310   0.0045  -0.0152   0.0095   0.00    0.0
2021/10/01 02:24:42.000   28 35 34.11489  -17 55 01.60237    73.3593   6   5   0.0091   0.0240   0.0307   0.0046  -0.0149   0.0091   0.00    0.0
2021/10/01 02:25:12.000   28 35 34.11490  -17 55 01.60240    73.3603   6   5   0.0091   0.0238   0.0307   0.0046  -0.0149   0.0090   0.00    0.0
2021/10/01 02:25:42.000   28 35 34.11490  -17 55 01.60241    73.3607   6   5   0.0091   0.0238   0.0306   0.0046  -0.0148   0.0089   0.00    0.0
2021/10/01 02:26:12.000   28 35 34.11489  -17 55 01.60240    73.3605   6   5   0.0090   0.0237   0.0306   0.0046  -0.0148   0.0089   0.00    0.0
2021/10/01 02:26:42.000   28 35 34.11489  -17 55 01.60239    73.3605   6   5   0.0090   0.0237   0.0306   0.0046  -0.0148   0.0089   0.00    0.0
2021/10/01 02:27:12.000   28 35 34.11490  -17 55 01.60238    73.3605   6   5   0.0090   0.0237   0.0306   0.0046  -0.0148   0.0089   0.00    0.0
2021/10/01 02:27:42.000   28 35 34.11490  -17 55 01.60236    73.3605   6   5   0.0090   0.0237   0.0306   0.0046  -0.0148   0.0089   0.00    0.0
2021/10/01 02:28:12.000   28 35 34.11490  -17 55 01.60235    73.3603   6   5   0.0090   0.0237   0.0306   0.0046  -0.0148   0.0089   0.00    0.0
2021/10/01 02:28:42.000   28 35 34.11489  -17 55 01.60235    73.3600   6   5   0.0090   0.0236   0.0306   0.0046  -0.0148   0.0088   0.00    0.0
2021/10/01 02:29:12.000   28 35 34.11487  -17 55 01.60238    73.3597   6   5   0.0090   0.0234   0.0305   0.0047  -0.0147   0.0087   0.00    0.0
2021/10/01 02:29:42.000   28 35 34.11488  -17 55 01.60238    73.3607   6   5   0.0088   0.0228   0.0302   0.0047  -0.0145   0.0083   0.00    0.0
2021/10/01 02:30:12.000   28 35 34.11490  -17 55 01.60232    73.3611   6   5   0.0087   0.0227   0.0302   0.0047  -0.0144   0.0082   0.00    0.0
2021/10/01 02:30:42.000   28 35 34.11491  -17 55 01.60230    73.3612   6   5   0.0087   0.0226   0.0301   0.0047  -0.0144   0.0082   0.00    0.0
2021/10/01 02:31:12.000   28 35 34.11491  -17 55 01.60229    73.3613   6   5   0.0087   0.0226   0.0301   0.0047  -0.0144   0.0082   0.00    0.0
2021/10/01 02:31:42.000   28 35 34.11491  -17 55 01.60229    73.3612   6   5   0.0087   0.0226   0.0301   0.0048  -0.0144   0.0082   0.00    0.0
2021/10/01 02:32:12.000   28 35 34.11491  -17 55 01.60228    73.3611   6   5   0.0087   0.0225   0.0301   0.0048  -0.0144   0.0082   0.00    0.0
2021/10/01 02:32:42.000   28 35 34.11490  -17 55 01.60228    73.3610   6   5   0.0087   0.0225   0.0301   0.0048  -0.0144   0.0082   0.00    0.0
2021/10/01 02:33:12.000   28 35 34.11490  -17 55 01.60228    73.3609   6   5   0.0087   0.0225   0.0301   0.0048  -0.0144   0.0081   0.00    0.0
2021/10/01 02:33:42.000   28 35 34.11490  -17 55 01.60228    73.3611   6   5   0.0087   0.0224   0.0301   0.0048  -0.0143   0.0081   0.00    0.0
2021/10/01 02:34:12.000   28 35 34.11491  -17 55 01.60229    73.3625   6   5   0.0086   0.0223   0.0300   0.0048  -0.0143   0.0080   0.00    0.0
2021/10/01 02:34:42.000   28 35 34.11491  -17 55 01.60230    73.3631   6   5   0.0084   0.0217   0.0298   0.0048  -0.0141   0.0076   0.00    0.0
2021/10/01 02:35:12.000   28 35 34.11491  -17 55 01.60228    73.3626   6   5   0.0084   0.0216   0.0297   0.0049  -0.0141   0.0075   0.00    0.0
2021/10/01 02:35:42.000   28 35 34.11491  -17 55 01.60228    73.3628   6   5   0.0084   0.0216   0.0297   0.0049  -0.0141   0.0075   0.00    0.0
2021/10/01 02:36:12.000   28 35 34.11491  -17 55 01.60227    73.3627   6   5   0.0084   0.0215   0.0297   0.0049  -0.0141   0.0075   0.00    0.0
2021/10/01 02:36:42.000   28 35 34.11490  -17 55 01.60227    73.3626   6   5   0.0084   0.0215   0.0297   0.0049  -0.0141   0.0075   0.00    0.0
2021/10/01 02:37:12.000   28 35 34.11490  -17 55 01.60227    73.3626   6   5   0.0084   0.0215   0.0297   0.0049  -0.0141   0.0075   0.00    0.0
2021/10/01 02:37:42.000   28 35 34.11490  -17 55 01.60227    73.3626   6   5   0.0084   0.0215   0.0297   0.0049  -0.0141   0.0075   0.00    0.0
2021/10/01 02:38:12.000   28 35 34.11490  -17 55 01.60225    73.3624   6   5   0.0084   0.0215   0.0297   0.0049  -0.0141   0.0074   0.00    0.0
2021/10/01 02:38:42.000   28 35 34.11490  -17 55 01.60224    73.3620   6   5   0.0083   0.0214   0.0296   0.0049  -0.0141   0.0074   0.00    0.0
2021/10/01 02:39:12.000   28 35 34.11489  -17 55 01.60223    73.3616   6   5   0.0083   0.0213   0.0296   0.0049  -0.0140   0.0073   0.00    0.0
2021/10/01 02:39:42.000   28 35 34.11489  -17 55 01.60217    73.3613   6   5   0.0081   0.0208   0.0293   0.0049  -0.0139   0.0069   0.00    0.0
2021/10/01 02:40:12.000   28 35 34.11487  -17 55 01.60220    73.3603   6   5   0.0081   0.0207   0.0293   0.0050  -0.0139   0.0068   0.00    0.0
2021/10/01 02:40:42.000   28 35 34.11487  -17 55 01.60220    73.3601   6   5   0.0081   0.0207   0.0293   0.0050  -0.0139   0.0068   0.00    0.0
2021/10/01 02:41:12.000   28 35 34.11487  -17 55 01.60221    73.3602   6   5   0.0081   0.0206   0.0293   0.0050  -0.0139   0.0068   0.00    0.0
2021/10/01 02:41:42.000   28 35 34.11486  -17 55 01.60221    73.3601   6   5   0.0081   0.0206   0.0293   0.0050  -0.0139   0.0068   0.00    0.0
2021/10/01 02:42:12.000   28 35 34.11486  -17 55 01.60220    73.3601   6   5   0.0081   0.0206   0.0293   0.0050  -0.0139   0.0068   0.00    0.0
2021/10/01 02:42:42.000   28 35 34.11487  -17 55 01.60219    73.3602   6   5   0.0081   0.0206   0.0293   0.0050  -0.0139   0.0068   0.00    0.0
2021/10/01 02:43:12.000   28 35 34.11487  -17 55 01.60218    73.3602   6   5   0.0081   0.0206   0.0292   0.0050  -0.0139   0.0067   0.00    0.0
2021/10/01 02:43:42.000   28 35 34.11487  -17 55 01.60218    73.3602   6   5   0.0081   0.0205   0.0292   0.0050  -0.0139   0.0067   0.00    0.0
2021/10/01 02:44:12.000   28 35 34.11486  -17 55 01.60220    73.3602   6   5   0.0080   0.0204   0.0292   0.0050  -0.0138   0.0066   0.00    0.0
2021/10/01 02:44:42.000   28 35 34.11487  -17 55 01.60218    73.3612   6   5   0.0079   0.0200   0.0290   0.0050  -0.0138   0.0062   0.00    0.0
2021/10/01 02:45:12.000   28 35 34.11487  -17 55 01.60220    73.3610   6   5   0.0078   0.0199   0.0289   0.0050  -0.0138   0.0061   0.00    0.0
2021/10/01 02:45:42.000   28 35 34.11486  -17 55 01.60220    73.3608   6   5   0.0078   0.0199   0.0289   0.0050  -0.0138   0.0061   0.00    0.0
2021/10/01 02:46:12.000   28 35 34.11486  -17 55 01.60221    73.3607   6   5   0.0078   0.0199   0.0289   0.0050  -0.0138   0.0061   0.00    0.0
2021/10/01 02:46:42.000   28 35 34.11486  -17 55 01.60221    73.3607   6   5   0.0078   0.0198   0.0289   0.0050  -0.0138   0.0061   0.00    0.0
2021/10/01 02:47:12.000   28 35 34.11486  -17 55 01.60220    73.3607   6   5   0.0078   0.0198   0.0289   0.0050  -0.0138   0.0060   0.00    0.0
2021/10/01 02:47:42.000   28 35 34.11486  -17 55 01.60220    73.3607   6   5   0.0078   0.0198   0.0289   0.0050  -0.0138   0.0060   0.00    0.0
2021/10/01 02:48:12.000   28 35 34.11486  -17 55 01.60220    73.3608   6   5   0.0078   0.0198   0.0289   0.0050  -0.0138   0.0060   0.00    0.0
2021/10/01 02:48:42.000   28 35 34.11486  -17 55 01.60221    73.3608   6   5   0.0078   0.0198   0.0289   0.0050  -0.0137   0.0060   0.00    0.0
2021/10/01 02:49:12.000   28 35 34.11485  -17 55 01.60222    73.3605   6   5   0.0078   0.0197   0.0288   0.0051  -0.0137   0.0059   0.00    0.0
2021/10/01 02:49:42.000   28 35 34.11485  -17 55 01.60222    73.3608   6   5   0.0076   0.0193   0.0286   0.0051  -0.0137   0.0055   0.00    0.0
2021/10/01 02:50:12.000   28 35 34.11485  -17 55 01.60223    73.3608   6   5   0.0076   0.0192   0.0286   0.0051  -0.0137   0.0054   0.00    0.0
2021/10/01 02:50:42.000   28 35 34.11485  -17 55 01.60223    73.3610   6   5   0.0076   0.0192   0.0285   0.0051  -0.0137   0.0053   0.00    0.0
2021/10/01 02:51:12.000   28 35 34.11485  -17 55 01.60223    73.3610   6   5   0.0076   0.0192   0.0285   0.0051  -0.0137   0.0053   0.00    0.0
2021/10/01 02:51:42.000   28 35 34.11485  -17 55 01.60222    73.3607   6   5   0.0076   0.0192   0.0285   0.0051  -0.0137   0.0053   0.00    0.0
2021/10/01 02:52:12.000   28 35 34.11485  -17 55 01.60222    73.3605   6   5   0.0076   0.0192   0.0285   0.0051  -0.0137   0.0053   0.00    0.0
2021/10/01 02:52:42.000   28 35 34.11485  -17 55 01.60221    73.3603   6   5   0.0076   0.0192   0.0285   0.0051  -0.0137   0.0053   0.00    0.0
2021/10/01 02:53:12.000   28 35 34.11485  -17 55 01.60221    73.3600   6   5   0.0076   0.0191   0.0285   0.0051  -0.0137   0.0053   0.00    0.0
2021/10/01 02:53:42.000   28 35 34.11484  -17 55 01.60221    73.3595   6   5   0.0076   0.0191   0.0285   0.0051  -0.0137   0.0052   0.00    0.0
2021/10/01 02:54:12.000   28 35 34.11482  -17 55 01.60222    73.3582   6   5   0.0075   0.0190   0.0284   0.0051  -0.0137   0.0051   0.00    0.0
2021/10/01 02:54:42.000   28 35 34.11482  -17 55 01.60219    73.3580   6   5   0.0074   0.0187   0.0282   0.0052  -0.0137   0.0047   0.00    0.0
2021/10/01 02:55:12.000   28 35 34.11478  -17 55 01.60223    73.3548   6   5   0.0074   0.0186   0.0282   0.0052  -0.0137   0.0046   0.00    0.0
2021/10/01 02:55:42.000   28 35 34.11476  -17 55 01.60224    73.3534   6   5   0.0074   0.0186   0.0282   0.0052  -0.0137   0.0046   0.00    0.0
2021/10/01 02:56:12.000   28 35 34.11475  -17 55 01.60224    73.3526   6   5   0.0074   0.0186   0.0282   0.0052  -0.0137   0.0045   0.00    0.0
2021/10/01 02:56:42.000   28 35 34.11475  -17 55 01.60223    73.3522   6   5   0.0074   0.0186   0.0282   0.0052  -0.0137   0.0045   0.00    0.0
2021/10/01 02:57:12.000   28 35 34.11474  -17 55 01.60223    73.3520   6   5   0.0074   0.0186   0.0282   0.0052  -0.0137   0.0045   0.00    0.0
2021/10/01 02:57:42.000   28 35 34.11474  -17 55 01.60222    73.3518   6   5   0.0074   0.0186   0.0282   0.0052  -0.0137   0.0045   0.00    0.0
2021/10/01 02:58:12.000   28 35 34.11474  -17 55 01.60223    73.3515   6   5   0.0073   0.0186   0.0281   0.0052  -0.0137   0.0045   0.00    0.0
2021/10/01 02:58:42.000   28 35 34.11473  -17 55 01.60223    73.3510   6   5   0.0073   0.0185   0.0281   0.0052  -0.0137   0.0045   0.00    0.0
2021/10/01 02:59:12.000   28 35 34.11473  -17 55 01.60225    73.3507   6   5   0.0073   0.0185   0.0281   0.0052  -0.0137   0.0043   0.00    0.0
2021/10/01 02:59:42.000   28 35 34.11474  -17 55 01.60222    73.3514   6   6   0.0072   0.0182   0.0279   0.0052  -0.0138   0.0039   0.00    0.0
2021/10/01 03:00:12.000   28 35 34.11475  -17 55 01.60216    73.3521   6   6   0.0072   0.0181   0.0278   0.0052  -0.0138   0.0038   0.00    0.0
2021/10/01 03:00:42.000   28 35 34.11476  -17 55 01.60212    73.3525   6   6   0.0072   0.0181   0.0278   0.0052  -0.0138   0.0037   0.00    0.0
2021/10/01 03:01:12.000   28 35 34.11476  -17 55 01.60211    73.3526   6   6   0.0072   0.0181   0.0278   0.0052  -0.0138   0.0037   0.00    0.0
2021/10/01 03:01:42.000   28 35 34.11476  -17 55 01.60211    73.3525   6   6   0.0072   0.0181   0.0278   0.0052  -0.0138   0.0037   0.00    0.0
2021/10/01 03:02:12.000   28 35 34.11476  -17 55 01.60210    73.3523   6   6   0.0072   0.0181   0.0278   0.0052  -0.0138   0.0037   0.00    0.0
2021/10/01 03:02:42.000   28 35 34.11476  -17 55 01.60210    73.3519   6   6   0.0072   0.0181   0.0278   0.0052  -0.0138   0.0037   0.00    0.0
2021/10/01 03:03:12.000   28 35 34.11475  -17 55 01.60211    73.3517   6   6   0.0072   0.0181   0.0278   0.0052  -0.0138   0.0037   0.00    0.0
2021/10/01 03:03:42.000   28 35 34.11475  -17 55 01.60212    73.3513   6   6   0.0071   0.0180   0.0278   0.0052  -0.0138   0.0036   0.00    0.0
2021/10/01 03:04:12.000   28 35 34.11474  -17 55 01.60212    73.3503   6   6   0.0071   0.0180   0.0277   0.0053  -0.0138   0.0035   0.00    0.0
2021/10/01 03:04:42.000   28 35 34.11476  -17 55 01.60212    73.3516   6   6   0.0070   0.0178   0.0275   0.0053  -0.0138   0.0030   0.00    0.0
2021/10/01 03:05:12.000   28 35 34.11476  -17 55 01.60212    73.3517   6   6   0.0070   0.0177   0.0275   0.0053  -0.0138   0.0028   0.00    0.0
2021/10/01 03:05:42.000   28 35 34.11477  -17 55 01.60211    73.3517   6   6   0.0070   0.0177   0.0275   0.0053  -0.0138   0.0028   0.00    0.0
2021/10/01 03:06:12.000   28 35 34.11477  -17 55 01.60209    73.3517   6   6   0.0070   0.0177   0.0275   0.0053  -0.0138   0.0028   0.00    0.0
2021/10/01 03:06:42.000   28 35 34.11477  -17 55 01.60208    73.3516   6   6   0.0070   0.0177   0.0275   0.0053  -0.0138   0.0028   0.00    0.0
2021/10/01 03:07:12.000   28 35 34.11477  -17 55 01.60208    73.3516   6   6   0.0070   0.0177   0.0275   0.0053  -0.0138   0.0027   0.00    0.0
2021/10/01 03:07:42.000   28 35 34.11477  -17 55 01.60207    73.3515   6   6   0.0070   0.0177   0.0275   0.0053  -0.0138   0.0027   0.00    0.0
2021/10/01 03:08:12.000   28 35 34.11477  -17 55 01.60206    73.3514   6   6   0.0070   0.0177   0.0274   0.0053  -0.0138   0.0027   0.00    0.0
2021/10/01 03:08:42.000   28 35 34.11477  -17 55 01.60205    73.3513   6   6   0.0070   0.0176   0.0274   0.0053  -0.0138   0.0027   0.00    0.0
2021/10/01 03:09:12.000   28 35 34.11478  -17 55 01.60203    73.3521   6   7   0.0069   0.0176   0.0274   0.0053  -0.0138   0.0025   0.00    0.0
2021/10/01 03:09:42.000   28 35 34.11479  -17 55 01.60205    73.3529   6   7   0.0069   0.0174   0.0272   0.0054  -0.0139   0.0018   0.00    0.0
2021/10/01 03:10:12.000   28 35 34.11480  -17 55 01.60206    73.3533   6   7   0.0068   0.0174   0.0271   0.0054  -0.0139   0.0016   0.00    0.0
2021/10/01 03:10:42.000   28 35 34.11480  -17 55 01.60205    73.3531   6   7   0.0068   0.0173   0.0271   0.0054  -0.0139   0.0015   0.00    0.0
2021/10/01 03:11:12.000   28 35 34.11480  -17 55 01.60205    73.3528   6   7   0.0068   0.0173   0.0271   0.0054  -0.0139   0.0015   0.00    0.0
2021/10/01 03:11:42.000   28 35 34.11480  -17 55 01.60204    73.3527   6   7   0.0068   0.0173   0.0271   0.0054  -0.0139   0.0015   0.00    0.0
2021/10/01 03:12:12.000   28 35 34.11480  -17 55 01.60203    73.3526   6   7   0.0068   0.0173   0.0271   0.0054  -0.0139   0.0015   0.00    0.0
2021/10/01 03:12:42.000   28 35 34.11480  -17 55 01.60202    73.3525   6   7   0.0068   0.0173   0.0271   0.0054  -0.0139   0.0014   0.00    0.0
2021/10/01 03:13:12.000   28 35 34.11481  -17 55 01.60201    73.3527   6   7   0.0068   0.0173   0.0271   0.0054  -0.0139   0.0014   0.00    0.0
2021/10/01 03:13:42.000   28 35 34.11481  -17 55 01.60202    73.3525   6   7   0.0068   0.0173   0.0271   0.0054  -0.0139   0.0013   0.00    0.0
2021/10/01 03:14:12.000   28 35 34.11480  -17 55 01.60201    73.3520   6   7   0.0068   0.0172   0.0270   0.0054  -0.0139   0.0010   0.00    0.0
2021/10/01 03:14:42.000   28 35 34.11481  -17 55 01.60202    73.3529   6   7   0.0067   0.0171   0.0268   0.0054  -0.0140  -0.0013   0.00    0.0
2021/10/01 03:15:12.000   28 35 34.11481  -17 55 01.60202    73.3528   6   7   0.0067   0.0171   0.0268   0.0054  -0.0140  -0.0015   0.00    0.0
2021/10/01 03:15:42.000   28 35 34.11481  -17 55 01.60202    73.3526   6   7   0.0067   0.0170   0.0267   0.0054  -0.0140  -0.0015   0.00    0.0
2021/10/01 03:16:12.000   28 35 34.11481  -17 55 01.60201    73.3525   6   7   0.0067   0.0170   0.0267   0.0054  -0.0140  -0.0016   0.00    0.0
2021/10/01 03:16:42.000   28 35 34.11482  -17 55 01.60201    73.3524   6   7   0.0067   0.0170   0.0267   0.0054  -0.0140  -0.0016   0.00    0.0
2021/10/01 03:17:12.000   28 35 34.11482  -17 55 01.60201    73.3524   6   7   0.0067   0.0170   0.0267   0.0054  -0.0140  -0.0016   0.00    0.0
2021/10/01 03:17:42.000   28 35 34.11482  -17 55 01.60200    73.3525   6   7   0.0067   0.0170   0.0267   0.0054  -0.0140  -0.0016   0.00    0.0
2021/10/01 03:18:12.000   28 35 34.11482  -17 55 01.60200    73.3525   6   7   0.0067   0.0170   0.0267   0.0054  -0.0140  -0.0017   0.00    0.0
2021/10/01 03:18:42.000   28 35 34.11482  -17 55 01.60200    73.3526   6   7   0.0067   0.0170   0.0267   0.0054  -0.0140  -0.0017   0.00    0.0
2021/10/01 03:19:12.000   28 35 34.11481  -17 55 01.60200    73.3529   6   7   0.0066   0.0170   0.0266   0.0055  -0.0140  -0.0019   0.00    0.0
2021/10/01 03:19:42.000   28 35 34.11481  -17 55 01.60198    73.3537   6   7   0.0066   0.0168   0.0264   0.0055  -0.0140  -0.0024   0.00    0.0
2021/10/01 03:20:12.000   28 35 34.11482  -17 55 01.60198    73.3542   6   7   0.0066   0.0168   0.0264   0.0055  -0.0140  -0.0025   0.00    0.0
2021/10/01 03:20:42.000   28 35 34.11482  -17 55 01.60197    73.3545   6   7   0.0066   0.0168   0.0264   0.0055  -0.0141  -0.0025   0.00    0.0
2021/10/01 03:21:12.000   28 35 34.11482  -17 55 01.60196    73.3546   6   7   0.0066   0.0168   0.0264   0.0055  -0.0141  -0.0026   0.00    0.0
2021/10/01 03:21:42.000   28 35 34.11482  -17 55 01.60196    73.3544   6   7   0.0066   0.0168   0.0264   0.0055  -0.0141  -0.0026   0.00    0.0
2021/10/01 03:22:12.000   28 35 34.11482  -17 55 01.60196    73.3542   6   7   0.0065   0.0168   0.0264   0.0055  -0.0141  -0.0026   0.00    0.0
2021/10/01 03:22:42.000   28 35 34.11482  -17 55 01.60196    73.3539   6   7   0.0065   0.0168   0.0263   0.0055  -0.0141  -0.0026   0.00    0.0
2021/10/01 03:23:12.000   28 35 34.11482  -17 55 01.60195    73.3536   6   7   0.0065   0.0168   0.0263   0.0055  -0.0141  -0.0026   0.00    0.0
