% program   : RTKLIB ver.2.4.2
% inp file  : C:\IPNA\data\OBS\CVBB3160.o
% inp file  : C:\IPNA\data\NAV\CVBB3160.n
% inp file  : C:\IPNA\data\SP3\CVBB3160.sp3
% inp file  : C:\IPNA\data\CLOCK\CVBB3160.clk
% obs start : 2021/11/12 09:46:42.0 UTC (week2183 467220.0s)
% obs end   : 2021/11/12 18:59:42.0 UTC (week2183 500400.0s)
% pos mode  : ppp-static
% solution  : forward
% elev mask : 15.0 deg
% dynamics  : off
% tidecorr  : on
% tropo opt : est ztd
% ephemeris : precise
% antenna1  :                       ( 0.0000  0.0000  0.0000)
%
% (lat/lon/height=WGS84/ellipsoidal,Q=1:fix,2:float,3:sbas,4:dgps,5:single,6:ppp,ns=# of satellites)
%  UTC                     latitude(d'")   longitude(d'")  height(m)   Q  ns   sdn(m)   sde(m)   sdu(m)  sdne(m)  sdeu(m)  sdue(m) age(s)  ratio
2021/11/12 09:46:42.003   28 35 34.14354  -17 55 01.56732    73.9920   6   8   1.1368   1.5560   3.1585  -0.1248  -0.6315  -0.5540   0.00    0.0
2021/11/12 09:47:12.000   28 35 34.13889  -17 55 01.57614    74.0313   6   9   0.8138   1.0960   2.1694  -0.1720  -0.3811  -0.5684   0.00    0.0
2021/11/12 09:47:42.000   28 35 34.14074  -17 55 01.58065    73.6154   6   9   0.6680   0.8934   1.7581  -0.1588  -0.2898  -0.5004   0.00    0.0
2021/11/12 09:48:12.000   28 35 34.13879  -17 55 01.58334    73.7467   6   9   0.5790   0.7726   1.5111  -0.1441  -0.2407  -0.4459   0.00    0.0
2021/11/12 09:48:42.000   28 35 34.13336  -17 55 01.58138    73.6049   6   9   0.5164   0.6902   1.3332  -0.1313  -0.2094  -0.4012   0.00    0.0
2021/11/12 09:49:12.000   28 35 34.12954  -17 55 01.58319    73.3673   6   9   0.4675   0.6291   1.1848  -0.1202  -0.1871  -0.3608   0.00    0.0
2021/11/12 09:49:42.000   28 35 34.12698  -17 55 01.57923    73.3497   6   9   0.4260   0.5815   1.0516  -0.1104  -0.1704  -0.3213   0.00    0.0
2021/11/12 09:50:12.000   28 35 34.12615  -17 55 01.57843    73.5301   6   9   0.3970   0.5434   0.9786  -0.1026  -0.1570  -0.3000   0.00    0.0
2021/11/12 09:50:42.000   28 35 34.12698  -17 55 01.57703    73.5786   6   9   0.3737   0.5118   0.9258  -0.0960  -0.1465  -0.2841   0.00    0.0
2021/11/12 09:51:12.000   28 35 34.12694  -17 55 01.57634    73.6745   6   9   0.3542   0.4852   0.8835  -0.0903  -0.1379  -0.2709   0.00    0.0
2021/11/12 09:51:42.000   28 35 34.12728  -17 55 01.57573    73.7353   6   9   0.3375   0.4623   0.8483  -0.0851  -0.1307  -0.2597   0.00    0.0
2021/11/12 09:52:12.000   28 35 34.12624  -17 55 01.57618    73.7648   6   9   0.3230   0.4424   0.8182  -0.0805  -0.1247  -0.2500   0.00    0.0
2021/11/12 09:52:42.000   28 35 34.12523  -17 55 01.57656    73.8368   6   9   0.3089   0.4246   0.7842  -0.0761  -0.1191  -0.2385   0.00    0.0
2021/11/12 09:53:12.000   28 35 34.12604  -17 55 01.57742    73.7960   6   9   0.2940   0.4087   0.7413  -0.0718  -0.1135  -0.2230   0.00    0.0
2021/11/12 09:53:42.000   28 35 34.12432  -17 55 01.57584    73.7748   6   9   0.2753   0.3939   0.6798  -0.0671  -0.1080  -0.1984   0.00    0.0
2021/11/12 09:54:12.000   28 35 34.12227  -17 55 01.57659    73.5894   6   9   0.2444   0.3794   0.5814  -0.0606  -0.1059  -0.1516   0.00    0.0
2021/11/12 09:54:42.000   28 35 34.11926  -17 55 01.57669    73.3476   6   9   0.1983   0.3635   0.4627  -0.0545  -0.1120  -0.0819   0.00    0.0
2021/11/12 09:55:12.000   28 35 34.11946  -17 55 01.57507    73.3292   6   9   0.1888   0.3524   0.4422  -0.0516  -0.1088  -0.0740   0.00    0.0
2021/11/12 09:55:42.000   28 35 34.11934  -17 55 01.57497    73.3012   6   9   0.1839   0.3428   0.4335  -0.0496  -0.1056  -0.0722   0.00    0.0
2021/11/12 09:56:12.000   28 35 34.11917  -17 55 01.57436    73.2650   6   9   0.1802   0.3340   0.4279  -0.0477  -0.1028  -0.0718   0.00    0.0
2021/11/12 09:56:42.000   28 35 34.11930  -17 55 01.57501    73.2689   6   9   0.1770   0.3259   0.4236  -0.0460  -0.1003  -0.0719   0.00    0.0
2021/11/12 09:57:12.000   28 35 34.11945  -17 55 01.57638    73.2935   6   9   0.1742   0.3184   0.4200  -0.0444  -0.0980  -0.0721   0.00    0.0
2021/11/12 09:57:42.000   28 35 34.11936  -17 55 01.57659    73.3193   6   9   0.1710   0.3113   0.4149  -0.0427  -0.0957  -0.0715   0.00    0.0
2021/11/12 09:58:12.000   28 35 34.11935  -17 55 01.57677    73.3416   6   9   0.1669   0.3045   0.4067  -0.0411  -0.0934  -0.0693   0.00    0.0
2021/11/12 09:58:42.000   28 35 34.11913  -17 55 01.57692    73.3923   6   9   0.1604   0.2976   0.3913  -0.0393  -0.0906  -0.0632   0.00    0.0
2021/11/12 09:59:12.000   28 35 34.11873  -17 55 01.57747    73.4591   6   9   0.1466   0.2898   0.3556  -0.0369  -0.0872  -0.0445   0.00    0.0
2021/11/12 09:59:42.000   28 35 34.11790  -17 55 01.57635    73.3873   6   9   0.1202   0.2784   0.2920  -0.0358  -0.0854   0.0312   0.00    0.0
2021/11/12 10:00:12.000   28 35 34.11827  -17 55 01.57630    73.4150   6   9   0.1152   0.2723   0.2799  -0.0344  -0.0827   0.0321   0.00    0.0
2021/11/12 10:00:42.000   28 35 34.11831  -17 55 01.57617    73.4430   6   9   0.1131   0.2674   0.2755  -0.0333  -0.0809   0.0314   0.00    0.0
2021/11/12 10:01:12.000   28 35 34.11814  -17 55 01.57518    73.4582   6   9   0.1117   0.2629   0.2729  -0.0324  -0.0794   0.0305   0.00    0.0
2021/11/12 10:01:42.000   28 35 34.11820  -17 55 01.57418    73.4707   6   9   0.1107   0.2587   0.2712  -0.0315  -0.0781   0.0295   0.00    0.0
2021/11/12 10:02:12.000   28 35 34.11825  -17 55 01.57341    73.4807   6   9   0.1098   0.2548   0.2698  -0.0307  -0.0769   0.0285   0.00    0.0
2021/11/12 10:02:42.000   28 35 34.11818  -17 55 01.57322    73.4885   6   9   0.1086   0.2509   0.2677  -0.0298  -0.0756   0.0276   0.00    0.0
2021/11/12 10:03:12.000   28 35 34.11798  -17 55 01.57266    73.4935   6   9   0.1070   0.2470   0.2644  -0.0289  -0.0740   0.0271   0.00    0.0
2021/11/12 10:03:42.000   28 35 34.11751  -17 55 01.57203    73.4762   6   9   0.1042   0.2429   0.2577  -0.0281  -0.0718   0.0273   0.00    0.0
2021/11/12 10:04:12.000   28 35 34.11677  -17 55 01.57242    73.4170   6   9   0.0974   0.2374   0.2408  -0.0270  -0.0678   0.0298   0.00    0.0
2021/11/12 10:04:42.000   28 35 34.11617  -17 55 01.57362    73.3988   6   9   0.0824   0.2277   0.2048  -0.0263  -0.0611   0.0366   0.00    0.0
2021/11/12 10:05:12.000   28 35 34.11641  -17 55 01.57381    73.4221   6   9   0.0794   0.2235   0.1975  -0.0255  -0.0587   0.0356   0.00    0.0
2021/11/12 10:05:42.000   28 35 34.11646  -17 55 01.57331    73.4323   6   9   0.0783   0.2204   0.1949  -0.0249  -0.0574   0.0350   0.00    0.0
2021/11/12 10:06:12.000   28 35 34.11658  -17 55 01.57295    73.4426   6   9   0.0776   0.2177   0.1935  -0.0243  -0.0565   0.0345   0.00    0.0
2021/11/12 10:06:42.000   28 35 34.11670  -17 55 01.57281    73.4500   6   9   0.0772   0.2152   0.1926  -0.0238  -0.0558   0.0341   0.00    0.0
2021/11/12 10:07:12.000   28 35 34.11680  -17 55 01.57257    73.4598   6   9   0.0768   0.2128   0.1919  -0.0232  -0.0551   0.0337   0.00    0.0
2021/11/12 10:07:42.000   28 35 34.11686  -17 55 01.57227    73.4655   6   9   0.0762   0.2104   0.1909  -0.0227  -0.0544   0.0333   0.00    0.0
2021/11/12 10:08:12.000   28 35 34.11690  -17 55 01.57266    73.4724   6   9   0.0754   0.2079   0.1891  -0.0222  -0.0533   0.0329   0.00    0.0
2021/11/12 10:08:42.000   28 35 34.11694  -17 55 01.57325    73.4882   6   9   0.0739   0.2051   0.1855  -0.0216  -0.0514   0.0323   0.00    0.0
2021/11/12 10:09:12.000   28 35 34.11669  -17 55 01.57437    73.4935   6   9   0.0700   0.2008   0.1760  -0.0207  -0.0471   0.0318   0.00    0.0
2021/11/12 10:09:42.000   28 35 34.11642  -17 55 01.57573    73.4842   6   9   0.0609   0.1922   0.1537  -0.0194  -0.0376   0.0322   0.00    0.0
2021/11/12 10:10:12.000   28 35 34.11647  -17 55 01.57488    73.4580   6   9   0.0589   0.1889   0.1489  -0.0188  -0.0350   0.0312   0.00    0.0
2021/11/12 10:10:42.000   28 35 34.11649  -17 55 01.57433    73.4520   6   9   0.0582   0.1868   0.1473  -0.0184  -0.0340   0.0308   0.00    0.0
2021/11/12 10:11:12.000   28 35 34.11653  -17 55 01.57445    73.4507   6   9   0.0578   0.1850   0.1464  -0.0181  -0.0334   0.0304   0.00    0.0
2021/11/12 10:11:42.000   28 35 34.11658  -17 55 01.57431    73.4504   6   9   0.0576   0.1833   0.1459  -0.0177  -0.0329   0.0302   0.00    0.0
2021/11/12 10:12:12.000   28 35 34.11662  -17 55 01.57439    73.4514   6   9   0.0574   0.1818   0.1455  -0.0174  -0.0326   0.0300   0.00    0.0
2021/11/12 10:12:42.000   28 35 34.11659  -17 55 01.57400    73.4506   6   9   0.0571   0.1802   0.1448  -0.0171  -0.0321   0.0297   0.00    0.0
2021/11/12 10:13:12.000   28 35 34.11650  -17 55 01.57340    73.4455   6   9   0.0566   0.1785   0.1438  -0.0167  -0.0313   0.0294   0.00    0.0
2021/11/12 10:13:42.000   28 35 34.11641  -17 55 01.57327    73.4416   6   9   0.0557   0.1764   0.1416  -0.0163  -0.0296   0.0288   0.00    0.0
2021/11/12 10:14:12.000   28 35 34.11629  -17 55 01.57317    73.4461   6   9   0.0534   0.1730   0.1357  -0.0156  -0.0247   0.0277   0.00    0.0
2021/11/12 10:14:42.000   28 35 34.11590  -17 55 01.57366    73.4477   6   9   0.0474   0.1654   0.1209  -0.0138  -0.0018   0.0268   0.00    0.0
2021/11/12 10:15:12.000   28 35 34.11587  -17 55 01.57378    73.4540   6   9   0.0461   0.1628   0.1176  -0.0135   0.0102   0.0259   0.00    0.0
2021/11/12 10:15:42.000   28 35 34.11587  -17 55 01.57350    73.4635   6   9   0.0456   0.1613   0.1164  -0.0132   0.0116   0.0255   0.00    0.0
2021/11/12 10:16:12.000   28 35 34.11588  -17 55 01.57340    73.4700   6   9   0.0454   0.1600   0.1158  -0.0130   0.0121   0.0252   0.00    0.0
2021/11/12 10:16:42.000   28 35 34.11591  -17 55 01.57310    73.4760   6   9   0.0452   0.1589   0.1155  -0.0128   0.0122   0.0251   0.00    0.0
2021/11/12 10:17:12.000   28 35 34.11594  -17 55 01.57272    73.4809   6   9   0.0451   0.1578   0.1152  -0.0125   0.0123   0.0249   0.00    0.0
2021/11/12 10:17:42.000   28 35 34.11595  -17 55 01.57265    73.4863   6   9   0.0449   0.1567   0.1148  -0.0123   0.0125   0.0248   0.00    0.0
2021/11/12 10:18:12.000   28 35 34.11593  -17 55 01.57307    73.4919   6   9   0.0446   0.1555   0.1140  -0.0121   0.0133   0.0245   0.00    0.0
2021/11/12 10:18:42.000   28 35 34.11584  -17 55 01.57297    73.4953   6   9   0.0440   0.1539   0.1125  -0.0118   0.0151   0.0240   0.00    0.0
2021/11/12 10:19:12.000   28 35 34.11582  -17 55 01.57319    73.5098   6   9   0.0425   0.1511   0.1085  -0.0113   0.0197   0.0229   0.00    0.0
2021/11/12 10:19:42.000   28 35 34.11559  -17 55 01.57416    73.5129   6   9   0.0384   0.1445   0.0980  -0.0094   0.0285   0.0217   0.00    0.0
2021/11/12 10:20:12.000   28 35 34.11542  -17 55 01.57377    73.5166   6   9   0.0374   0.1423   0.0955  -0.0091   0.0294   0.0210   0.00    0.0
2021/11/12 10:20:42.000   28 35 34.11542  -17 55 01.57342    73.5234   6   9   0.0371   0.1411   0.0947  -0.0090   0.0295   0.0206   0.00    0.0
2021/11/12 10:21:12.000   28 35 34.11544  -17 55 01.57312    73.5299   6   9   0.0369   0.1402   0.0942  -0.0088   0.0294   0.0204   0.00    0.0
2021/11/12 10:21:42.000   28 35 34.11543  -17 55 01.57280    73.5324   6   9   0.0368   0.1394   0.0939  -0.0087   0.0293   0.0203   0.00    0.0
2021/11/12 10:22:12.000   28 35 34.11543  -17 55 01.57258    73.5333   6   9   0.0367   0.1386   0.0937  -0.0085   0.0292   0.0202   0.00    0.0
2021/11/12 10:22:42.000   28 35 34.11544  -17 55 01.57249    73.5328   6   9   0.0366   0.1378   0.0934  -0.0084   0.0291   0.0201   0.00    0.0
2021/11/12 10:23:12.000   28 35 34.11542  -17 55 01.57261    73.5299   6   9   0.0364   0.1369   0.0928  -0.0082   0.0291   0.0198   0.00    0.0
2021/11/12 10:23:42.000   28 35 34.11536  -17 55 01.57269    73.5260   6   9   0.0360   0.1356   0.0917  -0.0080   0.0293   0.0194   0.00    0.0
2021/11/12 10:24:12.000   28 35 34.11523  -17 55 01.57257    73.5143   6   9   0.0349   0.1332   0.0886  -0.0077   0.0305   0.0186   0.00    0.0
2021/11/12 10:24:42.000   28 35 34.11524  -17 55 01.57394    73.5086   6   9   0.0319   0.1275   0.0810  -0.0053   0.0345   0.0176   0.00    0.0
2021/11/12 10:25:12.000   28 35 34.11522  -17 55 01.57398    73.5059   6   9   0.0312   0.1256   0.0790  -0.0052   0.0346   0.0170   0.00    0.0
2021/11/12 10:25:42.000   28 35 34.11522  -17 55 01.57392    73.5063   6   9   0.0310   0.1247   0.0783  -0.0052   0.0345   0.0167   0.00    0.0
2021/11/12 10:26:12.000   28 35 34.11523  -17 55 01.57399    73.5083   6   9   0.0309   0.1240   0.0780  -0.0051   0.0343   0.0165   0.00    0.0
2021/11/12 10:26:42.000   28 35 34.11523  -17 55 01.57369    73.5107   6   9   0.0308   0.1234   0.0777  -0.0050   0.0342   0.0164   0.00    0.0
2021/11/12 10:27:12.000   28 35 34.11522  -17 55 01.57327    73.5132   6   9   0.0307   0.1228   0.0775  -0.0049   0.0340   0.0163   0.00    0.0
2021/11/12 10:27:42.000   28 35 34.11521  -17 55 01.57302    73.5148   6   9   0.0306   0.1222   0.0773  -0.0047   0.0338   0.0162   0.00    0.0
2021/11/12 10:28:12.000   28 35 34.11520  -17 55 01.57287    73.5155   6   9   0.0305   0.1215   0.0768  -0.0047   0.0337   0.0160   0.00    0.0
2021/11/12 10:28:42.000   28 35 34.11519  -17 55 01.57312    73.5142   6   9   0.0302   0.1204   0.0759  -0.0046   0.0336   0.0156   0.00    0.0
2021/11/12 10:29:12.000   28 35 34.11521  -17 55 01.57353    73.5102   6   8   0.0294   0.1184   0.0741  -0.0035   0.0343   0.0155   0.00    0.0
2021/11/12 10:29:42.000   28 35 34.11535  -17 55 01.57477    73.5007   6   8   0.0273   0.1134   0.0693   0.0046   0.0370   0.0155   0.00    0.0
2021/11/12 10:30:12.000   28 35 34.11529  -17 55 01.57494    73.4959   6   8   0.0268   0.1119   0.0680   0.0050   0.0371   0.0153   0.00    0.0
2021/11/12 10:30:42.000   28 35 34.11526  -17 55 01.57497    73.4937   6   8   0.0266   0.1111   0.0676   0.0051   0.0370   0.0152   0.00    0.0
2021/11/12 10:31:12.000   28 35 34.11525  -17 55 01.57491    73.4930   6   8   0.0265   0.1106   0.0674   0.0052   0.0369   0.0152   0.00    0.0
2021/11/12 10:31:42.000   28 35 34.11525  -17 55 01.57486    73.4935   6   8   0.0265   0.1101   0.0672   0.0053   0.0368   0.0151   0.00    0.0
2021/11/12 10:32:12.000   28 35 34.11525  -17 55 01.57474    73.4943   6   8   0.0264   0.1097   0.0671   0.0054   0.0367   0.0151   0.00    0.0
2021/11/12 10:32:42.000   28 35 34.11527  -17 55 01.57476    73.4946   6   8   0.0264   0.1093   0.0670   0.0055   0.0366   0.0151   0.00    0.0
2021/11/12 10:33:12.000   28 35 34.11529  -17 55 01.57471    73.4963   6   8   0.0263   0.1087   0.0668   0.0056   0.0365   0.0150   0.00    0.0
2021/11/12 10:33:42.000   28 35 34.11534  -17 55 01.57478    73.4988   6   8   0.0261   0.1079   0.0663   0.0058   0.0366   0.0149   0.00    0.0
2021/11/12 10:34:12.000   28 35 34.11536  -17 55 01.57516    73.4930   6   8   0.0255   0.1063   0.0652   0.0062   0.0372   0.0148   0.00    0.0
2021/11/12 10:34:42.000   28 35 34.11544  -17 55 01.57686    73.4919   6   8   0.0238   0.1020   0.0621   0.0078   0.0392   0.0146   0.00    0.0
2021/11/12 10:35:12.000   28 35 34.11549  -17 55 01.57700    73.4910   6   7   0.0234   0.1008   0.0613   0.0079   0.0393   0.0145   0.00    0.0
2021/11/12 10:35:42.000   28 35 34.11550  -17 55 01.57688    73.4926   6   7   0.0233   0.1002   0.0611   0.0080   0.0393   0.0144   0.00    0.0
2021/11/12 10:36:12.000   28 35 34.11551  -17 55 01.57674    73.4940   6   7   0.0233   0.0997   0.0609   0.0080   0.0392   0.0144   0.00    0.0
2021/11/12 10:36:42.000   28 35 34.11550  -17 55 01.57665    73.4954   6   7   0.0232   0.0994   0.0608   0.0081   0.0392   0.0144   0.00    0.0
2021/11/12 10:37:12.000   28 35 34.11550  -17 55 01.57659    73.4968   6   7   0.0232   0.0991   0.0608   0.0081   0.0391   0.0144   0.00    0.0
2021/11/12 10:37:42.000   28 35 34.11550  -17 55 01.57658    73.4983   6   7   0.0231   0.0987   0.0607   0.0081   0.0390   0.0144   0.00    0.0
2021/11/12 10:38:12.000   28 35 34.11549  -17 55 01.57673    73.4988   6   7   0.0231   0.0983   0.0605   0.0082   0.0390   0.0143   0.00    0.0
2021/11/12 10:38:42.000   28 35 34.11545  -17 55 01.57719    73.4982   6   7   0.0229   0.0976   0.0602   0.0082   0.0390   0.0143   0.00    0.0
2021/11/12 10:39:12.000   28 35 34.11545  -17 55 01.57804    73.5074   6   7   0.0225   0.0962   0.0595   0.0084   0.0393   0.0141   0.00    0.0
2021/11/12 10:39:42.000   28 35 34.11533  -17 55 01.57983    73.5204   6   7   0.0211   0.0926   0.0573   0.0094   0.0406   0.0140   0.00    0.0
2021/11/12 10:40:12.000   28 35 34.11525  -17 55 01.58017    73.5204   6   7   0.0208   0.0915   0.0568   0.0095   0.0407   0.0139   0.00    0.0
2021/11/12 10:40:42.000   28 35 34.11524  -17 55 01.57999    73.5209   6   7   0.0207   0.0910   0.0566   0.0095   0.0407   0.0139   0.00    0.0
2021/11/12 10:41:12.000   28 35 34.11525  -17 55 01.57979    73.5224   6   7   0.0206   0.0906   0.0565   0.0095   0.0406   0.0139   0.00    0.0
2021/11/12 10:41:42.000   28 35 34.11525  -17 55 01.57959    73.5238   6   7   0.0206   0.0904   0.0565   0.0095   0.0405   0.0139   0.00    0.0
2021/11/12 10:42:12.000   28 35 34.11525  -17 55 01.57941    73.5252   6   7   0.0206   0.0901   0.0564   0.0095   0.0405   0.0139   0.00    0.0
2021/11/12 10:42:42.000   28 35 34.11526  -17 55 01.57927    73.5262   6   7   0.0206   0.0898   0.0563   0.0096   0.0404   0.0138   0.00    0.0
2021/11/12 10:43:12.000   28 35 34.11528  -17 55 01.57911    73.5274   6   7   0.0205   0.0895   0.0562   0.0096   0.0403   0.0138   0.00    0.0
2021/11/12 10:43:42.000   28 35 34.11530  -17 55 01.57889    73.5282   6   7   0.0204   0.0889   0.0560   0.0096   0.0403   0.0138   0.00    0.0
2021/11/12 10:44:12.000   28 35 34.11533  -17 55 01.57866    73.5276   6   7   0.0200   0.0877   0.0555   0.0097   0.0405   0.0137   0.00    0.0
2021/11/12 10:44:42.000   28 35 34.11545  -17 55 01.57989    73.5303   6   7   0.0189   0.0845   0.0541   0.0104   0.0414   0.0136   0.00    0.0
2021/11/12 10:45:12.000   28 35 34.11547  -17 55 01.58027    73.5321   6   7   0.0187   0.0836   0.0537   0.0104   0.0414   0.0135   0.00    0.0
2021/11/12 10:45:42.000   28 35 34.11548  -17 55 01.58032    73.5342   6   7   0.0186   0.0832   0.0536   0.0104   0.0414   0.0135   0.00    0.0
2021/11/12 10:46:12.000   28 35 34.11549  -17 55 01.58035    73.5355   6   7   0.0185   0.0829   0.0535   0.0104   0.0413   0.0135   0.00    0.0
2021/11/12 10:46:42.000   28 35 34.11549  -17 55 01.58027    73.5363   6   7   0.0185   0.0827   0.0535   0.0104   0.0412   0.0135   0.00    0.0
2021/11/12 10:47:12.000   28 35 34.11550  -17 55 01.58022    73.5370   6   7   0.0185   0.0825   0.0534   0.0104   0.0412   0.0135   0.00    0.0
2021/11/12 10:47:42.000   28 35 34.11550  -17 55 01.58015    73.5378   6   7   0.0185   0.0823   0.0534   0.0104   0.0411   0.0134   0.00    0.0
2021/11/12 10:48:12.000   28 35 34.11550  -17 55 01.58005    73.5384   6   7   0.0184   0.0820   0.0533   0.0104   0.0411   0.0134   0.00    0.0
2021/11/12 10:48:42.000   28 35 34.11551  -17 55 01.58031    73.5366   6   7   0.0183   0.0815   0.0532   0.0105   0.0410   0.0134   0.00    0.0
2021/11/12 10:49:12.000   28 35 34.11554  -17 55 01.58086    73.5340   6   7   0.0180   0.0805   0.0528   0.0105   0.0411   0.0133   0.00    0.0
2021/11/12 10:49:42.000   28 35 34.11561  -17 55 01.58226    73.5307   6   7   0.0172   0.0776   0.0518   0.0109   0.0416   0.0132   0.00    0.0
2021/11/12 10:50:12.000   28 35 34.11565  -17 55 01.58267    73.5303   6   7   0.0169   0.0768   0.0516   0.0109   0.0416   0.0132   0.00    0.0
2021/11/12 10:50:42.000   28 35 34.11566  -17 55 01.58286    73.5317   6   7   0.0169   0.0764   0.0515   0.0109   0.0415   0.0132   0.00    0.0
2021/11/12 10:51:12.000   28 35 34.11567  -17 55 01.58294    73.5324   6   7   0.0168   0.0762   0.0514   0.0109   0.0415   0.0131   0.00    0.0
2021/11/12 10:51:42.000   28 35 34.11568  -17 55 01.58286    73.5337   6   7   0.0168   0.0760   0.0514   0.0109   0.0414   0.0131   0.00    0.0
2021/11/12 10:52:12.000   28 35 34.11567  -17 55 01.58275    73.5351   6   7   0.0168   0.0759   0.0513   0.0109   0.0414   0.0131   0.00    0.0
2021/11/12 10:52:42.000   28 35 34.11567  -17 55 01.58264    73.5370   6   7   0.0168   0.0757   0.0513   0.0109   0.0413   0.0131   0.00    0.0
2021/11/12 10:53:12.000   28 35 34.11567  -17 55 01.58264    73.5390   6   8   0.0167   0.0754   0.0512   0.0109   0.0412   0.0131   0.00    0.0
2021/11/12 10:53:42.000   28 35 34.11565  -17 55 01.58275    73.5410   6   8   0.0167   0.0750   0.0511   0.0109   0.0412   0.0131   0.00    0.0
2021/11/12 10:54:12.000   28 35 34.11561  -17 55 01.58332    73.5416   6   8   0.0164   0.0740   0.0509   0.0109   0.0411   0.0130   0.00    0.0
2021/11/12 10:54:42.000   28 35 34.11558  -17 55 01.58468    73.5425   6   8   0.0157   0.0713   0.0501   0.0111   0.0412   0.0129   0.00    0.0
2021/11/12 10:55:12.000   28 35 34.11556  -17 55 01.58529    73.5394   6   8   0.0155   0.0706   0.0499   0.0111   0.0411   0.0128   0.00    0.0
2021/11/12 10:55:42.000   28 35 34.11554  -17 55 01.58548    73.5384   6   8   0.0154   0.0703   0.0498   0.0111   0.0410   0.0128   0.00    0.0
2021/11/12 10:56:12.000   28 35 34.11554  -17 55 01.58538    73.5396   6   8   0.0154   0.0700   0.0497   0.0110   0.0410   0.0128   0.00    0.0
2021/11/12 10:56:42.000   28 35 34.11554  -17 55 01.58528    73.5410   6   8   0.0154   0.0699   0.0497   0.0110   0.0409   0.0128   0.00    0.0
2021/11/12 10:57:12.000   28 35 34.11554  -17 55 01.58525    73.5414   6   8   0.0154   0.0697   0.0497   0.0110   0.0408   0.0128   0.00    0.0
2021/11/12 10:57:42.000   28 35 34.11553  -17 55 01.58517    73.5423   6   8   0.0153   0.0696   0.0496   0.0110   0.0408   0.0128   0.00    0.0
2021/11/12 10:58:12.000   28 35 34.11553  -17 55 01.58509    73.5432   6   8   0.0153   0.0693   0.0495   0.0110   0.0407   0.0128   0.00    0.0
2021/11/12 10:58:42.000   28 35 34.11552  -17 55 01.58515    73.5429   6   8   0.0152   0.0689   0.0494   0.0110   0.0406   0.0127   0.00    0.0
2021/11/12 10:59:12.000   28 35 34.11549  -17 55 01.58556    73.5413   6   8   0.0150   0.0680   0.0491   0.0109   0.0403   0.0126   0.00    0.0
2021/11/12 10:59:42.000   28 35 34.11548  -17 55 01.58718    73.5351   6   8   0.0144   0.0653   0.0482   0.0108   0.0398   0.0124   0.00    0.0
2021/11/12 11:00:12.000   28 35 34.11549  -17 55 01.58781    73.5334   6   8   0.0142   0.0645   0.0479   0.0108   0.0395   0.0123   0.00    0.0
2021/11/12 11:00:42.000   28 35 34.11549  -17 55 01.58808    73.5327   6   8   0.0142   0.0642   0.0478   0.0107   0.0394   0.0123   0.00    0.0
2021/11/12 11:01:12.000   28 35 34.11550  -17 55 01.58814    73.5332   6   8   0.0141   0.0640   0.0477   0.0107   0.0393   0.0122   0.00    0.0
2021/11/12 11:01:42.000   28 35 34.11550  -17 55 01.58814    73.5340   6   8   0.0141   0.0639   0.0476   0.0107   0.0393   0.0122   0.00    0.0
2021/11/12 11:02:12.000   28 35 34.11551  -17 55 01.58812    73.5348   6   8   0.0141   0.0638   0.0476   0.0107   0.0392   0.0122   0.00    0.0
2021/11/12 11:02:42.000   28 35 34.11551  -17 55 01.58804    73.5362   6   8   0.0141   0.0636   0.0476   0.0107   0.0391   0.0122   0.00    0.0
2021/11/12 11:03:12.000   28 35 34.11551  -17 55 01.58802    73.5369   6   8   0.0141   0.0634   0.0475   0.0106   0.0390   0.0122   0.00    0.0
2021/11/12 11:03:42.000   28 35 34.11553  -17 55 01.58811    73.5368   6   8   0.0140   0.0630   0.0473   0.0106   0.0388   0.0121   0.00    0.0
2021/11/12 11:04:12.000   28 35 34.11554  -17 55 01.58855    73.5343   6   8   0.0138   0.0620   0.0468   0.0104   0.0383   0.0120   0.00    0.0
2021/11/12 11:04:42.000   28 35 34.11551  -17 55 01.59004    73.5232   6   8   0.0133   0.0593   0.0456   0.0101   0.0372   0.0116   0.00    0.0
2021/11/12 11:05:12.000   28 35 34.11550  -17 55 01.59046    73.5192   6   8   0.0131   0.0585   0.0452   0.0100   0.0368   0.0114   0.00    0.0
2021/11/12 11:05:42.000   28 35 34.11550  -17 55 01.59059    73.5182   6   8   0.0131   0.0582   0.0451   0.0100   0.0366   0.0114   0.00    0.0
2021/11/12 11:06:12.000   28 35 34.11551  -17 55 01.59056    73.5188   6   8   0.0131   0.0580   0.0450   0.0100   0.0365   0.0114   0.00    0.0
2021/11/12 11:06:42.000   28 35 34.11551  -17 55 01.59055    73.5193   6   8   0.0130   0.0579   0.0449   0.0099   0.0364   0.0114   0.00    0.0
2021/11/12 11:07:12.000   28 35 34.11551  -17 55 01.59051    73.5199   6   8   0.0130   0.0578   0.0449   0.0099   0.0363   0.0113   0.00    0.0
2021/11/12 11:07:42.000   28 35 34.11552  -17 55 01.59045    73.5205   6   8   0.0130   0.0576   0.0448   0.0099   0.0363   0.0113   0.00    0.0
2021/11/12 11:08:12.000   28 35 34.11552  -17 55 01.59043    73.5205   6   8   0.0130   0.0574   0.0447   0.0099   0.0361   0.0113   0.00    0.0
2021/11/12 11:08:42.000   28 35 34.11553  -17 55 01.59058    73.5179   6   8   0.0129   0.0570   0.0445   0.0098   0.0358   0.0112   0.00    0.0
2021/11/12 11:09:12.000   28 35 34.11554  -17 55 01.59099    73.5130   6   8   0.0128   0.0561   0.0439   0.0096   0.0352   0.0110   0.00    0.0
2021/11/12 11:09:42.000   28 35 34.11555  -17 55 01.59209    73.5022   6   8   0.0123   0.0534   0.0424   0.0092   0.0337   0.0105   0.00    0.0
2021/11/12 11:10:12.000   28 35 34.11555  -17 55 01.59238    73.4993   6   8   0.0122   0.0526   0.0419   0.0090   0.0332   0.0104   0.00    0.0
2021/11/12 11:10:42.000   28 35 34.11554  -17 55 01.59244    73.4999   6   8   0.0121   0.0524   0.0417   0.0090   0.0330   0.0103   0.00    0.0
2021/11/12 11:11:12.000   28 35 34.11554  -17 55 01.59243    73.5009   6   8   0.0121   0.0522   0.0416   0.0090   0.0329   0.0103   0.00    0.0
2021/11/12 11:11:42.000   28 35 34.11554  -17 55 01.59241    73.5014   6   8   0.0121   0.0521   0.0416   0.0089   0.0328   0.0103   0.00    0.0
2021/11/12 11:12:12.000   28 35 34.11554  -17 55 01.59241    73.5016   6   8   0.0121   0.0520   0.0415   0.0089   0.0327   0.0102   0.00    0.0
2021/11/12 11:12:42.000   28 35 34.11553  -17 55 01.59243    73.5016   6   8   0.0121   0.0519   0.0415   0.0089   0.0326   0.0102   0.00    0.0
2021/11/12 11:13:12.000   28 35 34.11553  -17 55 01.59244    73.5020   6   8   0.0120   0.0517   0.0414   0.0089   0.0325   0.0102   0.00    0.0
2021/11/12 11:13:42.000   28 35 34.11554  -17 55 01.59260    73.5008   6   7   0.0120   0.0514   0.0413   0.0088   0.0323   0.0101   0.00    0.0
2021/11/12 11:14:12.000   28 35 34.11553  -17 55 01.59297    73.4965   6   7   0.0119   0.0505   0.0408   0.0086   0.0318   0.0099   0.00    0.0
2021/11/12 11:14:42.000   28 35 34.11548  -17 55 01.59390    73.4873   6   7   0.0114   0.0481   0.0396   0.0082   0.0303   0.0094   0.00    0.0
2021/11/12 11:15:12.000   28 35 34.11548  -17 55 01.59403    73.4860   6   7   0.0113   0.0474   0.0392   0.0080   0.0299   0.0092   0.00    0.0
2021/11/12 11:15:42.000   28 35 34.11547  -17 55 01.59399    73.4862   6   7   0.0113   0.0472   0.0391   0.0080   0.0297   0.0092   0.00    0.0
2021/11/12 11:16:12.000   28 35 34.11547  -17 55 01.59401    73.4860   6   8   0.0113   0.0470   0.0391   0.0079   0.0296   0.0091   0.00    0.0
2021/11/12 11:16:42.000   28 35 34.11548  -17 55 01.59399    73.4861   6   8   0.0112   0.0469   0.0390   0.0079   0.0296   0.0091   0.00    0.0
2021/11/12 11:17:12.000   28 35 34.11548  -17 55 01.59397    73.4864   6   8   0.0112   0.0469   0.0390   0.0079   0.0295   0.0091   0.00    0.0
2021/11/12 11:17:42.000   28 35 34.11548  -17 55 01.59393    73.4866   6   8   0.0112   0.0468   0.0389   0.0079   0.0295   0.0091   0.00    0.0
2021/11/12 11:18:12.000   28 35 34.11548  -17 55 01.59396    73.4859   6   8   0.0112   0.0466   0.0389   0.0079   0.0293   0.0091   0.00    0.0
2021/11/12 11:18:42.000   28 35 34.11550  -17 55 01.59409    73.4841   6   8   0.0112   0.0463   0.0387   0.0078   0.0291   0.0090   0.00    0.0
2021/11/12 11:19:12.000   28 35 34.11552  -17 55 01.59448    73.4788   6   8   0.0110   0.0456   0.0383   0.0076   0.0286   0.0088   0.00    0.0
2021/11/12 11:19:42.000   28 35 34.11549  -17 55 01.59542    73.4673   6   8   0.0107   0.0433   0.0372   0.0072   0.0271   0.0083   0.00    0.0
2021/11/12 11:20:12.000   28 35 34.11549  -17 55 01.59563    73.4634   6   8   0.0106   0.0428   0.0369   0.0071   0.0267   0.0082   0.00    0.0
2021/11/12 11:20:42.000   28 35 34.11549  -17 55 01.59564    73.4631   6   8   0.0105   0.0425   0.0368   0.0071   0.0266   0.0081   0.00    0.0
2021/11/12 11:21:12.000   28 35 34.11549  -17 55 01.59563    73.4629   6   8   0.0105   0.0424   0.0367   0.0070   0.0265   0.0081   0.00    0.0
2021/11/12 11:21:42.000   28 35 34.11549  -17 55 01.59558    73.4634   6   8   0.0105   0.0423   0.0367   0.0070   0.0264   0.0081   0.00    0.0
2021/11/12 11:22:12.000   28 35 34.11549  -17 55 01.59554    73.4639   6   8   0.0105   0.0423   0.0366   0.0070   0.0264   0.0081   0.00    0.0
2021/11/12 11:22:42.000   28 35 34.11549  -17 55 01.59553    73.4638   6   8   0.0105   0.0422   0.0366   0.0070   0.0263   0.0080   0.00    0.0
2021/11/12 11:23:12.000   28 35 34.11549  -17 55 01.59555    73.4633   6   8   0.0105   0.0421   0.0365   0.0070   0.0262   0.0080   0.00    0.0
2021/11/12 11:23:42.000   28 35 34.11550  -17 55 01.59559    73.4622   6   8   0.0104   0.0418   0.0364   0.0069   0.0260   0.0079   0.00    0.0
2021/11/12 11:24:12.000   28 35 34.11551  -17 55 01.59588    73.4573   6   8   0.0103   0.0411   0.0360   0.0068   0.0255   0.0078   0.00    0.0
2021/11/12 11:24:42.000   28 35 34.11550  -17 55 01.59631    73.4514   6   8   0.0100   0.0391   0.0350   0.0064   0.0240   0.0072   0.00    0.0
2021/11/12 11:25:12.000   28 35 34.11548  -17 55 01.59635    73.4500   6   8   0.0099   0.0386   0.0347   0.0063   0.0237   0.0071   0.00    0.0
2021/11/12 11:25:42.000   28 35 34.11547  -17 55 01.59633    73.4496   6   8   0.0099   0.0385   0.0346   0.0063   0.0235   0.0070   0.00    0.0
2021/11/12 11:26:12.000   28 35 34.11547  -17 55 01.59628    73.4499   6   8   0.0099   0.0384   0.0345   0.0063   0.0234   0.0070   0.00    0.0
2021/11/12 11:26:42.000   28 35 34.11547  -17 55 01.59627    73.4501   6   8   0.0099   0.0383   0.0345   0.0062   0.0234   0.0070   0.00    0.0
2021/11/12 11:27:12.000   28 35 34.11546  -17 55 01.59625    73.4502   6   8   0.0099   0.0382   0.0345   0.0062   0.0234   0.0070   0.00    0.0
2021/11/12 11:27:42.000   28 35 34.11547  -17 55 01.59624    73.4498   6   8   0.0099   0.0382   0.0344   0.0062   0.0233   0.0070   0.00    0.0
2021/11/12 11:28:12.000   28 35 34.11547  -17 55 01.59629    73.4480   6   8   0.0098   0.0380   0.0344   0.0062   0.0232   0.0070   0.00    0.0
2021/11/12 11:28:42.000   28 35 34.11546  -17 55 01.59626    73.4469   6   8   0.0098   0.0378   0.0343   0.0062   0.0230   0.0069   0.00    0.0
2021/11/12 11:29:12.000   28 35 34.11545  -17 55 01.59625    73.4452   6   8   0.0097   0.0373   0.0339   0.0060   0.0226   0.0067   0.00    0.0
2021/11/12 11:29:42.000   28 35 34.11543  -17 55 01.59681    73.4375   6   8   0.0094   0.0355   0.0330   0.0057   0.0212   0.0062   0.00    0.0
2021/11/12 11:30:12.000   28 35 34.11543  -17 55 01.59687    73.4357   6   8   0.0093   0.0351   0.0327   0.0057   0.0208   0.0061   0.00    0.0
2021/11/12 11:30:42.000   28 35 34.11543  -17 55 01.59690    73.4345   6   8   0.0093   0.0349   0.0326   0.0056   0.0207   0.0061   0.00    0.0
2021/11/12 11:31:12.000   28 35 34.11543  -17 55 01.59693    73.4340   6   8   0.0093   0.0348   0.0326   0.0056   0.0206   0.0060   0.00    0.0
2021/11/12 11:31:42.000   28 35 34.11543  -17 55 01.59696    73.4335   6   8   0.0093   0.0348   0.0326   0.0056   0.0206   0.0060   0.00    0.0
2021/11/12 11:32:12.000   28 35 34.11543  -17 55 01.59696    73.4332   6   8   0.0093   0.0347   0.0325   0.0056   0.0206   0.0060   0.00    0.0
2021/11/12 11:32:42.000   28 35 34.11543  -17 55 01.59700    73.4326   6   8   0.0093   0.0347   0.0325   0.0056   0.0205   0.0060   0.00    0.0
2021/11/12 11:33:12.000   28 35 34.11543  -17 55 01.59703    73.4314   6   8   0.0093   0.0346   0.0325   0.0056   0.0204   0.0060   0.00    0.0
2021/11/12 11:33:42.000   28 35 34.11543  -17 55 01.59704    73.4306   6   8   0.0092   0.0344   0.0324   0.0055   0.0203   0.0059   0.00    0.0
2021/11/12 11:34:12.000   28 35 34.11544  -17 55 01.59704    73.4304   6   8   0.0092   0.0339   0.0321   0.0055   0.0199   0.0057   0.00    0.0
2021/11/12 11:34:42.000   28 35 34.11544  -17 55 01.59747    73.4273   6   8   0.0089   0.0324   0.0312   0.0053   0.0186   0.0053   0.00    0.0
2021/11/12 11:35:12.000   28 35 34.11544  -17 55 01.59753    73.4255   6   8   0.0088   0.0321   0.0310   0.0052   0.0183   0.0052   0.00    0.0
2021/11/12 11:35:42.000   28 35 34.11543  -17 55 01.59754    73.4254   6   8   0.0088   0.0319   0.0309   0.0052   0.0182   0.0052   0.00    0.0
2021/11/12 11:36:12.000   28 35 34.11542  -17 55 01.59753    73.4258   6   8   0.0088   0.0319   0.0309   0.0052   0.0181   0.0051   0.00    0.0
2021/11/12 11:36:42.000   28 35 34.11542  -17 55 01.59753    73.4256   6   8   0.0088   0.0318   0.0309   0.0052   0.0181   0.0051   0.00    0.0
2021/11/12 11:37:12.000   28 35 34.11542  -17 55 01.59753    73.4256   6   8   0.0088   0.0318   0.0308   0.0052   0.0180   0.0051   0.00    0.0
2021/11/12 11:37:42.000   28 35 34.11542  -17 55 01.59752    73.4256   6   8   0.0088   0.0317   0.0308   0.0052   0.0180   0.0051   0.00    0.0
2021/11/12 11:38:12.000   28 35 34.11542  -17 55 01.59754    73.4254   6   8   0.0088   0.0316   0.0308   0.0051   0.0179   0.0051   0.00    0.0
2021/11/12 11:38:42.000   28 35 34.11542  -17 55 01.59758    73.4246   6   8   0.0087   0.0315   0.0307   0.0051   0.0178   0.0050   0.00    0.0
2021/11/12 11:39:12.000   28 35 34.11542  -17 55 01.59764    73.4226   6   8   0.0087   0.0311   0.0304   0.0050   0.0174   0.0048   0.00    0.0
2021/11/12 11:39:42.000   28 35 34.11542  -17 55 01.59826    73.4153   6   8   0.0084   0.0298   0.0297   0.0049   0.0162   0.0045   0.00    0.0
2021/11/12 11:40:12.000   28 35 34.11543  -17 55 01.59847    73.4126   6   8   0.0084   0.0295   0.0295   0.0049   0.0159   0.0043   0.00    0.0
2021/11/12 11:40:42.000   28 35 34.11543  -17 55 01.59856    73.4116   6   8   0.0084   0.0294   0.0294   0.0048   0.0158   0.0043   0.00    0.0
2021/11/12 11:41:12.000   28 35 34.11543  -17 55 01.59862    73.4109   6   8   0.0084   0.0293   0.0294   0.0048   0.0157   0.0042   0.00    0.0
2021/11/12 11:41:42.000   28 35 34.11542  -17 55 01.59864    73.4105   6   8   0.0084   0.0293   0.0294   0.0048   0.0157   0.0042   0.00    0.0
2021/11/12 11:42:12.000   28 35 34.11542  -17 55 01.59865    73.4104   6   8   0.0083   0.0292   0.0293   0.0048   0.0157   0.0042   0.00    0.0
2021/11/12 11:42:42.000   28 35 34.11542  -17 55 01.59866    73.4102   6   8   0.0083   0.0292   0.0293   0.0048   0.0156   0.0042   0.00    0.0
2021/11/12 11:43:12.000   28 35 34.11541  -17 55 01.59869    73.4101   6   8   0.0083   0.0291   0.0293   0.0048   0.0156   0.0042   0.00    0.0
2021/11/12 11:43:42.000   28 35 34.11540  -17 55 01.59871    73.4094   6   8   0.0083   0.0290   0.0292   0.0048   0.0154   0.0041   0.00    0.0
2021/11/12 11:44:12.000   28 35 34.11540  -17 55 01.59872    73.4097   6   8   0.0082   0.0286   0.0290   0.0047   0.0151   0.0040   0.00    0.0
2021/11/12 11:44:42.000   28 35 34.11540  -17 55 01.59897    73.4080   6   8   0.0080   0.0275   0.0283   0.0046   0.0140   0.0036   0.00    0.0
2021/11/12 11:45:12.000   28 35 34.11539  -17 55 01.59903    73.4068   6   8   0.0080   0.0273   0.0281   0.0046   0.0137   0.0034   0.00    0.0
2021/11/12 11:45:42.000   28 35 34.11539  -17 55 01.59905    73.4065   6   8   0.0080   0.0272   0.0281   0.0046   0.0136   0.0034   0.00    0.0
2021/11/12 11:46:12.000   28 35 34.11538  -17 55 01.59904    73.4065   6   8   0.0080   0.0271   0.0280   0.0046   0.0135   0.0034   0.00    0.0
2021/11/12 11:46:42.000   28 35 34.11538  -17 55 01.59904    73.4064   6   8   0.0080   0.0271   0.0280   0.0046   0.0135   0.0033   0.00    0.0
2021/11/12 11:47:12.000   28 35 34.11538  -17 55 01.59906    73.4061   6   8   0.0080   0.0271   0.0280   0.0046   0.0135   0.0033   0.00    0.0
2021/11/12 11:47:42.000   28 35 34.11537  -17 55 01.59907    73.4058   6   8   0.0079   0.0270   0.0280   0.0046   0.0134   0.0033   0.00    0.0
2021/11/12 11:48:12.000   28 35 34.11537  -17 55 01.59909    73.4053   6   8   0.0079   0.0270   0.0279   0.0045   0.0134   0.0033   0.00    0.0
2021/11/12 11:48:42.000   28 35 34.11537  -17 55 01.59913    73.4045   6   8   0.0079   0.0269   0.0279   0.0045   0.0133   0.0032   0.00    0.0
2021/11/12 11:49:12.000   28 35 34.11537  -17 55 01.59921    73.4024   6   8   0.0079   0.0266   0.0276   0.0045   0.0129   0.0031   0.00    0.0
2021/11/12 11:49:42.000   28 35 34.11537  -17 55 01.59941    73.4006   6   8   0.0077   0.0256   0.0270   0.0044   0.0119   0.0027   0.00    0.0
2021/11/12 11:50:12.000   28 35 34.11538  -17 55 01.59949    73.3988   6   8   0.0076   0.0254   0.0269   0.0044   0.0116   0.0025   0.00    0.0
2021/11/12 11:50:42.000   28 35 34.11539  -17 55 01.59956    73.3977   6   8   0.0076   0.0253   0.0268   0.0044   0.0115   0.0025   0.00    0.0
2021/11/12 11:51:12.000   28 35 34.11539  -17 55 01.59959    73.3969   6   8   0.0076   0.0253   0.0268   0.0044   0.0114   0.0024   0.00    0.0
2021/11/12 11:51:42.000   28 35 34.11539  -17 55 01.59958    73.3966   6   8   0.0076   0.0252   0.0268   0.0044   0.0114   0.0024   0.00    0.0
2021/11/12 11:52:12.000   28 35 34.11539  -17 55 01.59958    73.3964   6   8   0.0076   0.0252   0.0268   0.0044   0.0114   0.0024   0.00    0.0
2021/11/12 11:52:42.000   28 35 34.11539  -17 55 01.59958    73.3962   6   8   0.0076   0.0252   0.0267   0.0044   0.0114   0.0024   0.00    0.0
2021/11/12 11:53:12.000   28 35 34.11539  -17 55 01.59959    73.3961   6   8   0.0076   0.0251   0.0267   0.0044   0.0113   0.0024   0.00    0.0
2021/11/12 11:53:42.000   28 35 34.11539  -17 55 01.59961    73.3964   6   8   0.0076   0.0250   0.0266   0.0043   0.0112   0.0023   0.00    0.0
2021/11/12 11:54:12.000   28 35 34.11540  -17 55 01.59963    73.3955   6   8   0.0075   0.0248   0.0264   0.0043   0.0109   0.0021   0.00    0.0
2021/11/12 11:54:42.000   28 35 34.11541  -17 55 01.59989    73.3919   6   8   0.0073   0.0240   0.0259   0.0043   0.0099   0.0017   0.00    0.0
2021/11/12 11:55:12.000   28 35 34.11540  -17 55 01.59993    73.3916   6   8   0.0073   0.0238   0.0257   0.0043   0.0096   0.0015   0.00    0.0
2021/11/12 11:55:42.000   28 35 34.11540  -17 55 01.59995    73.3914   6   8   0.0073   0.0237   0.0257   0.0043   0.0095   0.0014   0.00    0.0
2021/11/12 11:56:12.000   28 35 34.11540  -17 55 01.59996    73.3912   6   8   0.0073   0.0237   0.0256   0.0042   0.0095   0.0013   0.00    0.0
2021/11/12 11:56:42.000   28 35 34.11540  -17 55 01.59995    73.3913   6   8   0.0073   0.0237   0.0256   0.0042   0.0094   0.0013   0.00    0.0
2021/11/12 11:57:12.000   28 35 34.11540  -17 55 01.59993    73.3914   6   8   0.0073   0.0236   0.0256   0.0042   0.0094   0.0013   0.00    0.0
2021/11/12 11:57:42.000   28 35 34.11540  -17 55 01.59991    73.3914   6   8   0.0073   0.0236   0.0256   0.0042   0.0094   0.0013   0.00    0.0
2021/11/12 11:58:12.000   28 35 34.11540  -17 55 01.59989    73.3913   6   8   0.0073   0.0236   0.0255   0.0042   0.0093   0.0012   0.00    0.0
2021/11/12 11:58:42.000   28 35 34.11540  -17 55 01.59989    73.3905   6   8   0.0072   0.0235   0.0255   0.0042   0.0092   0.0011   0.00    0.0
2021/11/12 11:59:12.000   28 35 34.11542  -17 55 01.59996    73.3877   6   8   0.0072   0.0233   0.0253   0.0042   0.0089   0.0008   0.00    0.0
2021/11/12 11:59:42.000   28 35 34.11542  -17 55 01.60011    73.3862   6   8   0.0070   0.0226   0.0248   0.0042   0.0079  -0.0008   0.00    0.0
2021/11/12 12:00:12.000   28 35 34.11541  -17 55 01.60010    73.3856   6   8   0.0070   0.0224   0.0246   0.0042   0.0076  -0.0010   0.00    0.0
2021/11/12 12:00:42.000   28 35 34.11541  -17 55 01.60010    73.3854   6   8   0.0070   0.0223   0.0245   0.0042   0.0075  -0.0011   0.00    0.0
2021/11/12 12:01:12.000   28 35 34.11541  -17 55 01.60011    73.3850   6   8   0.0070   0.0223   0.0245   0.0041   0.0075  -0.0011   0.00    0.0
2021/11/12 12:01:42.000   28 35 34.11541  -17 55 01.60012    73.3848   6   8   0.0070   0.0223   0.0245   0.0041   0.0075  -0.0012   0.00    0.0
2021/11/12 12:02:12.000   28 35 34.11541  -17 55 01.60011    73.3848   6   8   0.0070   0.0223   0.0245   0.0041   0.0074  -0.0012   0.00    0.0
2021/11/12 12:02:42.000   28 35 34.11541  -17 55 01.60012    73.3848   6   8   0.0070   0.0223   0.0245   0.0041   0.0074  -0.0012   0.00    0.0
2021/11/12 12:03:12.000   28 35 34.11541  -17 55 01.60013    73.3847   6   7   0.0070   0.0222   0.0244   0.0041   0.0074  -0.0012   0.00    0.0
2021/11/12 12:03:42.000   28 35 34.11541  -17 55 01.60013    73.3844   6   7   0.0070   0.0222   0.0244   0.0041   0.0073  -0.0013   0.00    0.0
2021/11/12 12:04:12.000   28 35 34.11542  -17 55 01.60007    73.3853   6   7   0.0069   0.0220   0.0243   0.0041   0.0070  -0.0015   0.00    0.0
2021/11/12 12:04:42.000   28 35 34.11540  -17 55 01.60012    73.3867   6   7   0.0068   0.0214   0.0239   0.0041   0.0062  -0.0017   0.00    0.0
2021/11/12 12:05:12.000   28 35 34.11539  -17 55 01.60020    73.3858   6   7   0.0067   0.0212   0.0238   0.0041   0.0059  -0.0018   0.00    0.0
2021/11/12 12:05:42.000   28 35 34.11539  -17 55 01.60021    73.3852   6   7   0.0067   0.0212   0.0238   0.0041   0.0058  -0.0018   0.00    0.0
2021/11/12 12:06:12.000   28 35 34.11539  -17 55 01.60021    73.3848   6   7   0.0067   0.0212   0.0238   0.0041   0.0058  -0.0019   0.00    0.0
2021/11/12 12:06:42.000   28 35 34.11539  -17 55 01.60022    73.3845   6   7   0.0067   0.0212   0.0238   0.0041   0.0058  -0.0019   0.00    0.0
2021/11/12 12:07:12.000   28 35 34.11539  -17 55 01.60022    73.3843   6   7   0.0067   0.0211   0.0238   0.0041   0.0058  -0.0019   0.00    0.0
2021/11/12 12:07:42.000   28 35 34.11539  -17 55 01.60023    73.3841   6   7   0.0067   0.0211   0.0238   0.0041   0.0057  -0.0019   0.00    0.0
2021/11/12 12:08:12.000   28 35 34.11539  -17 55 01.60023    73.3838   6   7   0.0067   0.0211   0.0237   0.0041   0.0057  -0.0019   0.00    0.0
2021/11/12 12:08:42.000   28 35 34.11538  -17 55 01.60025    73.3832   6   7   0.0067   0.0210   0.0237   0.0041   0.0056  -0.0019   0.00    0.0
2021/11/12 12:09:12.000   28 35 34.11537  -17 55 01.60028    73.3826   6   7   0.0067   0.0209   0.0236   0.0041   0.0053  -0.0020   0.00    0.0
2021/11/12 12:09:42.000   28 35 34.11534  -17 55 01.60036    73.3828   6   7   0.0065   0.0204   0.0233   0.0041   0.0043  -0.0022   0.00    0.0
2021/11/12 12:10:12.000   28 35 34.11531  -17 55 01.60034    73.3838   6   7   0.0065   0.0202   0.0232   0.0041   0.0040  -0.0022   0.00    0.0
2021/11/12 12:10:42.000   28 35 34.11530  -17 55 01.60036    73.3841   6   7   0.0065   0.0202   0.0232   0.0041   0.0039  -0.0023   0.00    0.0
2021/11/12 12:11:12.000   28 35 34.11529  -17 55 01.60036    73.3842   6   7   0.0065   0.0202   0.0232   0.0040   0.0039  -0.0023   0.00    0.0
2021/11/12 12:11:42.000   28 35 34.11529  -17 55 01.60035    73.3842   6   7   0.0065   0.0201   0.0232   0.0040   0.0038  -0.0023   0.00    0.0
2021/11/12 12:12:12.000   28 35 34.11529  -17 55 01.60035    73.3842   6   7   0.0065   0.0201   0.0232   0.0040   0.0038  -0.0023   0.00    0.0
2021/11/12 12:12:42.000   28 35 34.11529  -17 55 01.60034    73.3842   6   7   0.0065   0.0201   0.0232   0.0040   0.0038  -0.0023   0.00    0.0
2021/11/12 12:13:12.000   28 35 34.11529  -17 55 01.60033    73.3843   6   7   0.0065   0.0201   0.0231   0.0040   0.0037  -0.0023   0.00    0.0
2021/11/12 12:13:42.000   28 35 34.11529  -17 55 01.60030    73.3844   6   7   0.0065   0.0201   0.0231   0.0040   0.0036  -0.0023   0.00    0.0
2021/11/12 12:14:12.000   28 35 34.11528  -17 55 01.60024    73.3855   6   7   0.0064   0.0199   0.0230   0.0040   0.0032  -0.0024   0.00    0.0
2021/11/12 12:14:42.000   28 35 34.11526  -17 55 01.60026    73.3857   6   7   0.0063   0.0195   0.0228   0.0040   0.0016  -0.0025   0.00    0.0
2021/11/12 12:15:12.000   28 35 34.11526  -17 55 01.60027    73.3855   6   7   0.0063   0.0193   0.0227   0.0040   0.0008  -0.0025   0.00    0.0
2021/11/12 12:15:42.000   28 35 34.11526  -17 55 01.60028    73.3854   6   7   0.0063   0.0193   0.0227   0.0040  -0.0003  -0.0026   0.00    0.0
2021/11/12 12:16:12.000   28 35 34.11526  -17 55 01.60027    73.3854   6   7   0.0063   0.0193   0.0227   0.0040  -0.0006  -0.0026   0.00    0.0
2021/11/12 12:16:42.000   28 35 34.11526  -17 55 01.60027    73.3854   6   7   0.0063   0.0193   0.0227   0.0040  -0.0008  -0.0026   0.00    0.0
2021/11/12 12:17:12.000   28 35 34.11526  -17 55 01.60027    73.3854   6   7   0.0063   0.0193   0.0227   0.0040  -0.0009  -0.0026   0.00    0.0
2021/11/12 12:17:42.000   28 35 34.11526  -17 55 01.60028    73.3853   6   7   0.0063   0.0193   0.0226   0.0040  -0.0010  -0.0026   0.00    0.0
2021/11/12 12:18:12.000   28 35 34.11525  -17 55 01.60029    73.3854   6   7   0.0063   0.0192   0.0226   0.0040  -0.0012  -0.0026   0.00    0.0
2021/11/12 12:18:42.000   28 35 34.11525  -17 55 01.60032    73.3855   6   7   0.0062   0.0192   0.0226   0.0040  -0.0015  -0.0026   0.00    0.0
2021/11/12 12:19:12.000   28 35 34.11524  -17 55 01.60037    73.3852   6   7   0.0062   0.0191   0.0225   0.0040  -0.0021  -0.0027   0.00    0.0
2021/11/12 12:19:42.000   28 35 34.11525  -17 55 01.60044    73.3843   6   7   0.0061   0.0187   0.0223   0.0040  -0.0033  -0.0027   0.00    0.0
2021/11/12 12:20:12.000   28 35 34.11526  -17 55 01.60036    73.3846   6   7   0.0061   0.0186   0.0223   0.0040  -0.0035  -0.0028   0.00    0.0
2021/11/12 12:20:42.000   28 35 34.11526  -17 55 01.60033    73.3848   6   7   0.0061   0.0185   0.0222   0.0040  -0.0036  -0.0028   0.00    0.0
2021/11/12 12:21:12.000   28 35 34.11526  -17 55 01.60032    73.3849   6   7   0.0061   0.0185   0.0222   0.0040  -0.0037  -0.0028   0.00    0.0
2021/11/12 12:21:42.000   28 35 34.11526  -17 55 01.60030    73.3851   6   7   0.0061   0.0185   0.0222   0.0040  -0.0037  -0.0028   0.00    0.0
2021/11/12 12:22:12.000   28 35 34.11526  -17 55 01.60030    73.3851   6   7   0.0061   0.0185   0.0222   0.0040  -0.0037  -0.0028   0.00    0.0
2021/11/12 12:22:42.000   28 35 34.11526  -17 55 01.60029    73.3851   6   7   0.0061   0.0185   0.0222   0.0040  -0.0037  -0.0028   0.00    0.0
2021/11/12 12:23:12.000   28 35 34.11526  -17 55 01.60029    73.3849   6   7   0.0061   0.0185   0.0222   0.0040  -0.0038  -0.0028   0.00    0.0
2021/11/12 12:23:42.000   28 35 34.11526  -17 55 01.60028    73.3850   6   7   0.0060   0.0184   0.0222   0.0040  -0.0038  -0.0028   0.00    0.0
2021/11/12 12:24:12.000   28 35 34.11526  -17 55 01.60026    73.3855   6   7   0.0060   0.0183   0.0221   0.0040  -0.0041  -0.0029   0.00    0.0
2021/11/12 12:24:42.000   28 35 34.11524  -17 55 01.60032    73.3849   6   7   0.0059   0.0180   0.0220   0.0040  -0.0047  -0.0029   0.00    0.0
2021/11/12 12:25:12.000   28 35 34.11524  -17 55 01.60035    73.3849   6   7   0.0059   0.0179   0.0219   0.0040  -0.0048  -0.0029   0.00    0.0
2021/11/12 12:25:42.000   28 35 34.11524  -17 55 01.60034    73.3853   6   7   0.0059   0.0179   0.0219   0.0040  -0.0049  -0.0029   0.00    0.0
2021/11/12 12:26:12.000   28 35 34.11523  -17 55 01.60033    73.3853   6   7   0.0059   0.0179   0.0219   0.0040  -0.0049  -0.0029   0.00    0.0
2021/11/12 12:26:42.000   28 35 34.11523  -17 55 01.60033    73.3854   6   7   0.0059   0.0179   0.0219   0.0040  -0.0049  -0.0029   0.00    0.0
2021/11/12 12:27:12.000   28 35 34.11523  -17 55 01.60033    73.3855   6   7   0.0059   0.0179   0.0219   0.0040  -0.0049  -0.0030   0.00    0.0
2021/11/12 12:27:42.000   28 35 34.11523  -17 55 01.60033    73.3856   6   7   0.0059   0.0178   0.0219   0.0040  -0.0049  -0.0030   0.00    0.0
2021/11/12 12:28:12.000   28 35 34.11523  -17 55 01.60034    73.3859   6   7   0.0059   0.0178   0.0219   0.0039  -0.0050  -0.0030   0.00    0.0
2021/11/12 12:28:42.000   28 35 34.11523  -17 55 01.60035    73.3862   6   7   0.0059   0.0178   0.0219   0.0039  -0.0050  -0.0030   0.00    0.0
2021/11/12 12:29:12.000   28 35 34.11523  -17 55 01.60034    73.3871   6   7   0.0058   0.0177   0.0218   0.0039  -0.0052  -0.0030   0.00    0.0
2021/11/12 12:29:42.000   28 35 34.11522  -17 55 01.60036    73.3884   6   7   0.0057   0.0174   0.0217   0.0039  -0.0056  -0.0030   0.00    0.0
2021/11/12 12:30:12.000   28 35 34.11521  -17 55 01.60039    73.3883   6   7   0.0057   0.0173   0.0217   0.0039  -0.0057  -0.0030   0.00    0.0
2021/11/12 12:30:42.000   28 35 34.11521  -17 55 01.60041    73.3884   6   7   0.0057   0.0173   0.0216   0.0039  -0.0057  -0.0031   0.00    0.0
2021/11/12 12:31:12.000   28 35 34.11521  -17 55 01.60042    73.3886   6   7   0.0057   0.0173   0.0216   0.0039  -0.0057  -0.0031   0.00    0.0
2021/11/12 12:31:42.000   28 35 34.11521  -17 55 01.60042    73.3888   6   7   0.0057   0.0173   0.0216   0.0039  -0.0057  -0.0031   0.00    0.0
2021/11/12 12:32:12.000   28 35 34.11521  -17 55 01.60042    73.3888   6   7   0.0057   0.0173   0.0216   0.0039  -0.0057  -0.0031   0.00    0.0
2021/11/12 12:32:42.000   28 35 34.11521  -17 55 01.60042    73.3890   6   7   0.0057   0.0173   0.0216   0.0039  -0.0058  -0.0031   0.00    0.0
2021/11/12 12:33:12.000   28 35 34.11522  -17 55 01.60040    73.3895   6   7   0.0057   0.0173   0.0216   0.0039  -0.0058  -0.0031   0.00    0.0
2021/11/12 12:33:42.000   28 35 34.11523  -17 55 01.60037    73.3905   6   7   0.0057   0.0173   0.0216   0.0039  -0.0058  -0.0031   0.00    0.0
2021/11/12 12:34:12.000   28 35 34.11525  -17 55 01.60034    73.3931   6   7   0.0057   0.0172   0.0216   0.0039  -0.0059  -0.0031   0.00    0.0
2021/11/12 12:34:42.000   28 35 34.11530  -17 55 01.60029    73.3982   6   7   0.0056   0.0169   0.0215   0.0039  -0.0062  -0.0031   0.00    0.0
2021/11/12 12:35:12.000   28 35 34.11532  -17 55 01.60028    73.3994   6   7   0.0056   0.0169   0.0215   0.0039  -0.0063  -0.0031   0.00    0.0
2021/11/12 12:35:42.000   28 35 34.11533  -17 55 01.60028    73.3997   6   7   0.0056   0.0169   0.0215   0.0039  -0.0063  -0.0031   0.00    0.0
2021/11/12 12:36:12.000   28 35 34.11533  -17 55 01.60029    73.4000   6   8   0.0056   0.0168   0.0215   0.0039  -0.0063  -0.0031   0.00    0.0
2021/11/12 12:36:42.000   28 35 34.11533  -17 55 01.60029    73.4002   6   9   0.0056   0.0168   0.0215   0.0039  -0.0063  -0.0031   0.00    0.0
2021/11/12 12:37:12.000   28 35 34.11533  -17 55 01.60029    73.4002   6   9   0.0056   0.0168   0.0215   0.0039  -0.0063  -0.0031   0.00    0.0
2021/11/12 12:37:42.000   28 35 34.11533  -17 55 01.60029    73.4002   6   9   0.0056   0.0168   0.0215   0.0039  -0.0063  -0.0031   0.00    0.0
2021/11/12 12:38:12.000   28 35 34.11533  -17 55 01.60029    73.4003   6   9   0.0056   0.0168   0.0215   0.0039  -0.0064  -0.0031   0.00    0.0
2021/11/12 12:38:42.000   28 35 34.11533  -17 55 01.60030    73.4005   6   9   0.0055   0.0168   0.0214   0.0039  -0.0064  -0.0031   0.00    0.0
2021/11/12 12:39:12.000   28 35 34.11532  -17 55 01.60028    73.4009   6   9   0.0055   0.0167   0.0214   0.0039  -0.0064  -0.0031   0.00    0.0
2021/11/12 12:39:42.000   28 35 34.11531  -17 55 01.60031    73.4010   6   9   0.0055   0.0165   0.0214   0.0039  -0.0066  -0.0031   0.00    0.0
2021/11/12 12:40:12.000   28 35 34.11530  -17 55 01.60031    73.4013   6   9   0.0054   0.0165   0.0214   0.0040  -0.0067  -0.0031   0.00    0.0
2021/11/12 12:40:42.000   28 35 34.11530  -17 55 01.60031    73.4013   6   9   0.0054   0.0165   0.0214   0.0040  -0.0067  -0.0031   0.00    0.0
2021/11/12 12:41:12.000   28 35 34.11530  -17 55 01.60031    73.4012   6   9   0.0054   0.0165   0.0214   0.0040  -0.0067  -0.0031   0.00    0.0
2021/11/12 12:41:42.000   28 35 34.11530  -17 55 01.60031    73.4012   6   9   0.0054   0.0165   0.0214   0.0040  -0.0067  -0.0031   0.00    0.0
2021/11/12 12:42:12.000   28 35 34.11530  -17 55 01.60032    73.4012   6   9   0.0054   0.0165   0.0214   0.0040  -0.0067  -0.0031   0.00    0.0
2021/11/12 12:42:42.000   28 35 34.11530  -17 55 01.60031    73.4012   6   9   0.0054   0.0164   0.0214   0.0040  -0.0067  -0.0031   0.00    0.0
2021/11/12 12:43:12.000   28 35 34.11530  -17 55 01.60031    73.4012   6   9   0.0054   0.0164   0.0214   0.0040  -0.0067  -0.0031   0.00    0.0
2021/11/12 12:43:42.000   28 35 34.11530  -17 55 01.60030    73.4016   6   9   0.0054   0.0164   0.0214   0.0040  -0.0067  -0.0031   0.00    0.0
2021/11/12 12:44:12.000   28 35 34.11529  -17 55 01.60030    73.4020   6   9   0.0054   0.0164   0.0213   0.0040  -0.0068  -0.0031   0.00    0.0
2021/11/12 12:44:42.000   28 35 34.11527  -17 55 01.60032    73.4016   6   9   0.0053   0.0162   0.0213   0.0040  -0.0070  -0.0030   0.00    0.0
2021/11/12 12:45:12.000   28 35 34.11526  -17 55 01.60037    73.4015   6   9   0.0053   0.0162   0.0213   0.0040  -0.0070  -0.0030   0.00    0.0
2021/11/12 12:45:42.000   28 35 34.11526  -17 55 01.60038    73.4014   6   9   0.0053   0.0162   0.0213   0.0040  -0.0070  -0.0030   0.00    0.0
2021/11/12 12:46:12.000   28 35 34.11526  -17 55 01.60039    73.4013   6   9   0.0053   0.0161   0.0213   0.0040  -0.0070  -0.0030   0.00    0.0
2021/11/12 12:46:42.000   28 35 34.11526  -17 55 01.60039    73.4012   6   9   0.0053   0.0161   0.0213   0.0040  -0.0071  -0.0030   0.00    0.0
2021/11/12 12:47:12.000   28 35 34.11526  -17 55 01.60039    73.4011   6   9   0.0053   0.0161   0.0213   0.0040  -0.0071  -0.0030   0.00    0.0
2021/11/12 12:47:42.000   28 35 34.11526  -17 55 01.60040    73.4009   6   9   0.0053   0.0161   0.0213   0.0040  -0.0071  -0.0030   0.00    0.0
2021/11/12 12:48:12.000   28 35 34.11526  -17 55 01.60041    73.4005   6   9   0.0053   0.0161   0.0213   0.0040  -0.0071  -0.0030   0.00    0.0
2021/11/12 12:48:42.000   28 35 34.11526  -17 55 01.60044    73.4000   6   9   0.0053   0.0161   0.0212   0.0040  -0.0071  -0.0030   0.00    0.0
2021/11/12 12:49:12.000   28 35 34.11526  -17 55 01.60047    73.3993   6   9   0.0053   0.0161   0.0212   0.0040  -0.0071  -0.0030   0.00    0.0
2021/11/12 12:49:42.000   28 35 34.11525  -17 55 01.60044    73.3992   6   9   0.0052   0.0159   0.0212   0.0040  -0.0073  -0.0030   0.00    0.0
2021/11/12 12:50:12.000   28 35 34.11525  -17 55 01.60045    73.3986   6   9   0.0052   0.0159   0.0211   0.0040  -0.0073  -0.0030   0.00    0.0
2021/11/12 12:50:42.000   28 35 34.11525  -17 55 01.60045    73.3981   6   9   0.0052   0.0159   0.0211   0.0040  -0.0073  -0.0030   0.00    0.0
2021/11/12 12:51:12.000   28 35 34.11525  -17 55 01.60045    73.3979   6   9   0.0052   0.0159   0.0211   0.0040  -0.0074  -0.0030   0.00    0.0
2021/11/12 12:51:42.000   28 35 34.11525  -17 55 01.60045    73.3978   6   9   0.0052   0.0159   0.0211   0.0040  -0.0074  -0.0030   0.00    0.0
2021/11/12 12:52:12.000   28 35 34.11526  -17 55 01.60046    73.3977   6   9   0.0052   0.0159   0.0211   0.0040  -0.0074  -0.0030   0.00    0.0
2021/11/12 12:52:42.000   28 35 34.11526  -17 55 01.60046    73.3977   6   9   0.0052   0.0159   0.0211   0.0040  -0.0074  -0.0030   0.00    0.0
2021/11/12 12:53:12.000   28 35 34.11526  -17 55 01.60047    73.3976   6   9   0.0052   0.0159   0.0211   0.0040  -0.0074  -0.0030   0.00    0.0
2021/11/12 12:53:42.000   28 35 34.11525  -17 55 01.60049    73.3974   6   9   0.0052   0.0158   0.0211   0.0040  -0.0074  -0.0030   0.00    0.0
2021/11/12 12:54:12.000   28 35 34.11525  -17 55 01.60053    73.3969   6   9   0.0052   0.0158   0.0211   0.0040  -0.0074  -0.0030   0.00    0.0
2021/11/12 12:54:42.000   28 35 34.11524  -17 55 01.60054    73.3957   6   9   0.0051   0.0157   0.0210   0.0040  -0.0076  -0.0030   0.00    0.0
2021/11/12 12:55:12.000   28 35 34.11523  -17 55 01.60054    73.3949   6   9   0.0051   0.0157   0.0210   0.0040  -0.0076  -0.0030   0.00    0.0
2021/11/12 12:55:42.000   28 35 34.11523  -17 55 01.60055    73.3944   6   9   0.0051   0.0157   0.0210   0.0040  -0.0076  -0.0030   0.00    0.0
2021/11/12 12:56:12.000   28 35 34.11523  -17 55 01.60055    73.3942   6   9   0.0051   0.0157   0.0210   0.0040  -0.0076  -0.0030   0.00    0.0
2021/11/12 12:56:42.000   28 35 34.11523  -17 55 01.60056    73.3941   6   9   0.0051   0.0156   0.0210   0.0040  -0.0076  -0.0030   0.00    0.0
2021/11/12 12:57:12.000   28 35 34.11523  -17 55 01.60056    73.3940   6   9   0.0051   0.0156   0.0210   0.0040  -0.0076  -0.0030   0.00    0.0
2021/11/12 12:57:42.000   28 35 34.11523  -17 55 01.60057    73.3939   6   9   0.0051   0.0156   0.0210   0.0040  -0.0076  -0.0030   0.00    0.0
2021/11/12 12:58:12.000   28 35 34.11523  -17 55 01.60057    73.3939   6   9   0.0051   0.0156   0.0210   0.0040  -0.0076  -0.0030   0.00    0.0
2021/11/12 12:58:42.000   28 35 34.11522  -17 55 01.60058    73.3936   6   9   0.0051   0.0156   0.0210   0.0040  -0.0077  -0.0030   0.00    0.0
2021/11/12 12:59:12.000   28 35 34.11521  -17 55 01.60060    73.3925   6   9   0.0051   0.0156   0.0209   0.0040  -0.0077  -0.0030   0.00    0.0
2021/11/12 12:59:42.000   28 35 34.11521  -17 55 01.60057    73.3924   6   9   0.0050   0.0155   0.0208   0.0040  -0.0078  -0.0030   0.00    0.0
2021/11/12 13:00:12.000   28 35 34.11521  -17 55 01.60057    73.3925   6   9   0.0050   0.0155   0.0208   0.0040  -0.0079  -0.0030   0.00    0.0
2021/11/12 13:00:42.000   28 35 34.11521  -17 55 01.60057    73.3924   6   9   0.0050   0.0155   0.0208   0.0040  -0.0079  -0.0030   0.00    0.0
2021/11/12 13:01:12.000   28 35 34.11521  -17 55 01.60057    73.3922   6   9   0.0050   0.0155   0.0208   0.0040  -0.0079  -0.0030   0.00    0.0
2021/11/12 13:01:42.000   28 35 34.11521  -17 55 01.60057    73.3921   6   9   0.0050   0.0155   0.0208   0.0040  -0.0079  -0.0030   0.00    0.0
2021/11/12 13:02:12.000   28 35 34.11521  -17 55 01.60058    73.3919   6   9   0.0050   0.0155   0.0208   0.0040  -0.0079  -0.0030   0.00    0.0
2021/11/12 13:02:42.000   28 35 34.11521  -17 55 01.60059    73.3918   6   9   0.0050   0.0155   0.0208   0.0040  -0.0079  -0.0030   0.00    0.0
2021/11/12 13:03:12.000   28 35 34.11521  -17 55 01.60059    73.3915   6   9   0.0050   0.0155   0.0208   0.0040  -0.0079  -0.0030   0.00    0.0
2021/11/12 13:03:42.000   28 35 34.11521  -17 55 01.60060    73.3913   6   9   0.0050   0.0154   0.0207   0.0039  -0.0079  -0.0030   0.00    0.0
2021/11/12 13:04:12.000   28 35 34.11521  -17 55 01.60060    73.3917   6   9   0.0050   0.0154   0.0207   0.0039  -0.0079  -0.0030   0.00    0.0
2021/11/12 13:04:42.000   28 35 34.11521  -17 55 01.60058    73.3907   6   9   0.0049   0.0154   0.0206   0.0039  -0.0081  -0.0030   0.00    0.0
2021/11/12 13:05:12.000   28 35 34.11520  -17 55 01.60060    73.3891   6   9   0.0049   0.0153   0.0205   0.0039  -0.0081  -0.0030   0.00    0.0
2021/11/12 13:05:42.000   28 35 34.11520  -17 55 01.60061    73.3883   6   9   0.0049   0.0153   0.0205   0.0039  -0.0081  -0.0030   0.00    0.0
2021/11/12 13:06:12.000   28 35 34.11519  -17 55 01.60061    73.3881   6   9   0.0049   0.0153   0.0205   0.0039  -0.0081  -0.0030   0.00    0.0
2021/11/12 13:06:42.000   28 35 34.11519  -17 55 01.60062    73.3880   6   9   0.0049   0.0153   0.0205   0.0039  -0.0081  -0.0030   0.00    0.0
2021/11/12 13:07:12.000   28 35 34.11519  -17 55 01.60062    73.3880   6   9   0.0049   0.0153   0.0205   0.0039  -0.0081  -0.0030   0.00    0.0
2021/11/12 13:07:42.000   28 35 34.11519  -17 55 01.60063    73.3880   6   9   0.0049   0.0153   0.0205   0.0039  -0.0081  -0.0030   0.00    0.0
2021/11/12 13:08:12.000   28 35 34.11519  -17 55 01.60063    73.3879   6   8   0.0049   0.0153   0.0205   0.0039  -0.0081  -0.0030   0.00    0.0
2021/11/12 13:08:42.000   28 35 34.11520  -17 55 01.60065    73.3875   6   8   0.0049   0.0153   0.0205   0.0039  -0.0081  -0.0030   0.00    0.0
2021/11/12 13:09:12.000   28 35 34.11520  -17 55 01.60068    73.3868   6   8   0.0049   0.0153   0.0204   0.0039  -0.0081  -0.0030   0.00    0.0
2021/11/12 13:09:42.000   28 35 34.11520  -17 55 01.60068    73.3859   6   8   0.0049   0.0152   0.0203   0.0039  -0.0083  -0.0030   0.00    0.0
2021/11/12 13:10:12.000   28 35 34.11520  -17 55 01.60069    73.3855   6   8   0.0048   0.0152   0.0202   0.0039  -0.0083  -0.0030   0.00    0.0
