% program   : RTKLIB ver.2.4.2
% inp file  : C:\IPNA\data\OBS\CVBB2760.o
% inp file  : C:\IPNA\data\NAV\CVBB2760.n
% inp file  : C:\IPNA\data\SP3\CVBB2760.sp3
% inp file  : C:\IPNA\data\CLOCK\CVBB2760.clk
% obs start : 2021/10/02 23:59:42.0 UTC (week2178      0.0s)
% obs end   : 2021/10/03 23:59:12.0 UTC (week2178  86370.0s)
% pos mode  : ppp-static
% solution  : forward
% elev mask : 15.0 deg
% dynamics  : off
% tidecorr  : on
% tropo opt : est ztd
% ephemeris : precise
% antenna1  :                       ( 0.0000  0.0000  0.0000)
%
% (lat/lon/height=WGS84/ellipsoidal,Q=1:fix,2:float,3:sbas,4:dgps,5:single,6:ppp,ns=# of satellites)
%  UTC                     latitude(d'")   longitude(d'")  height(m)   Q  ns   sdn(m)   sde(m)   sdu(m)  sdne(m)  sdeu(m)  sdue(m) age(s)  ratio
2021/10/02 23:59:42.000   28 35 34.07255  -17 55 01.61442    75.0271   6   6   1.6482   1.5386   4.0349  -0.6794  -1.1450  -0.2711   0.00    0.0
2021/10/03 00:00:12.000   28 35 34.08763  -17 55 01.61624    74.4172   6   6   1.1460   1.0830   2.7716  -0.4653  -0.7814  -0.2767   0.00    0.0
2021/10/03 00:00:42.000   28 35 34.09368  -17 55 01.61407    73.7414   6   6   0.9271   0.8818   2.2343  -0.3728  -0.6250  -0.2595   0.00    0.0
2021/10/03 00:01:12.000   28 35 34.09363  -17 55 01.61413    74.1143   6   6   0.7980   0.7621   1.9228  -0.3186  -0.5333  -0.2443   0.00    0.0
2021/10/03 00:01:42.000   28 35 34.09190  -17 55 01.61162    74.1312   6   6   0.7106   0.6806   1.7146  -0.2819  -0.4714  -0.2320   0.00    0.0
2021/10/03 00:02:12.000   28 35 34.08856  -17 55 01.61178    74.3337   6   6   0.6465   0.6205   1.5636  -0.2550  -0.4261  -0.2222   0.00    0.0
2021/10/03 00:02:42.000   28 35 34.08872  -17 55 01.61321    74.6798   6   6   0.5920   0.5728   1.4243  -0.2310  -0.3858  -0.2189   0.00    0.0
2021/10/03 00:03:12.000   28 35 34.08716  -17 55 01.61138    74.5136   6   6   0.5404   0.5329   1.2781  -0.2068  -0.3462  -0.2189   0.00    0.0
2021/10/03 00:03:42.000   28 35 34.08850  -17 55 01.61089    74.2974   6   6   0.4832   0.4973   1.1014  -0.1771  -0.3036  -0.2162   0.00    0.0
2021/10/03 00:04:12.000   28 35 34.09408  -17 55 01.61038    73.8705   6   6   0.4045   0.4616   0.8689  -0.1318  -0.2583  -0.1939   0.00    0.0
2021/10/03 00:04:42.000   28 35 34.10124  -17 55 01.61042    73.3318   6   6   0.3115   0.4237   0.6469  -0.0729  -0.2278  -0.1437   0.00    0.0
2021/10/03 00:05:12.000   28 35 34.10001  -17 55 01.61125    73.3770   6   6   0.2937   0.4041   0.6146  -0.0655  -0.2173  -0.1343   0.00    0.0
2021/10/03 00:05:42.000   28 35 34.10021  -17 55 01.61309    73.3774   6   6   0.2844   0.3886   0.6003  -0.0649  -0.2099  -0.1290   0.00    0.0
2021/10/03 00:06:12.000   28 35 34.09966  -17 55 01.61445    73.3779   6   6   0.2774   0.3752   0.5907  -0.0655  -0.2036  -0.1250   0.00    0.0
2021/10/03 00:06:42.000   28 35 34.09877  -17 55 01.61356    73.3771   6   6   0.2716   0.3633   0.5830  -0.0663  -0.1981  -0.1216   0.00    0.0
2021/10/03 00:07:12.000   28 35 34.09815  -17 55 01.61356    73.3803   6   6   0.2664   0.3525   0.5766  -0.0670  -0.1931  -0.1186   0.00    0.0
2021/10/03 00:07:42.000   28 35 34.09793  -17 55 01.61362    73.4171   6   6   0.2604   0.3424   0.5678  -0.0665  -0.1882  -0.1153   0.00    0.0
2021/10/03 00:08:12.000   28 35 34.09806  -17 55 01.61293    73.3724   6   6   0.2526   0.3325   0.5543  -0.0643  -0.1833  -0.1106   0.00    0.0
2021/10/03 00:08:42.000   28 35 34.09971  -17 55 01.61305    73.2498   6   6   0.2403   0.3222   0.5300  -0.0582  -0.1780  -0.1023   0.00    0.0
2021/10/03 00:09:12.000   28 35 34.10440  -17 55 01.61393    73.2143   6   6   0.2155   0.3091   0.4795  -0.0408  -0.1722  -0.0807   0.00    0.0
2021/10/03 00:09:42.000   28 35 34.10762  -17 55 01.61280    73.2317   6   6   0.1725   0.2893   0.4019   0.0227  -0.1689  -0.0280   0.00    0.0
2021/10/03 00:10:12.000   28 35 34.10832  -17 55 01.61231    73.2120   6   6   0.1648   0.2809   0.3899   0.0253  -0.1657  -0.0088   0.00    0.0
2021/10/03 00:10:42.000   28 35 34.10881  -17 55 01.61226    73.2089   6   6   0.1615   0.2748   0.3853   0.0238  -0.1630   0.0131   0.00    0.0
2021/10/03 00:11:12.000   28 35 34.10861  -17 55 01.61222    73.2267   6   6   0.1594   0.2695   0.3826   0.0214  -0.1606   0.0178   0.00    0.0
2021/10/03 00:11:42.000   28 35 34.10844  -17 55 01.61262    73.2436   6   6   0.1578   0.2647   0.3805   0.0187  -0.1583   0.0204   0.00    0.0
2021/10/03 00:12:12.000   28 35 34.10821  -17 55 01.61231    73.2418   6   6   0.1564   0.2603   0.3789   0.0156  -0.1561   0.0222   0.00    0.0
2021/10/03 00:12:42.000   28 35 34.10786  -17 55 01.61280    73.2531   6   6   0.1546   0.2558   0.3765   0.0128  -0.1540   0.0243   0.00    0.0
2021/10/03 00:13:12.000   28 35 34.10738  -17 55 01.61273    73.2670   6   6   0.1521   0.2513   0.3725   0.0112  -0.1520   0.0275   0.00    0.0
2021/10/03 00:13:42.000   28 35 34.10700  -17 55 01.61292    73.2756   6   6   0.1475   0.2462   0.3647   0.0129  -0.1501   0.0330   0.00    0.0
2021/10/03 00:14:12.000   28 35 34.10744  -17 55 01.61247    73.2650   6   6   0.1370   0.2389   0.3455   0.0198  -0.1484   0.0439   0.00    0.0
2021/10/03 00:14:42.000   28 35 34.10927  -17 55 01.61165    73.2371   6   6   0.1149   0.2258   0.3052   0.0264  -0.1472   0.0575   0.00    0.0
2021/10/03 00:15:12.000   28 35 34.10964  -17 55 01.61202    73.2782   6   6   0.1106   0.2208   0.2973   0.0262  -0.1452   0.0581   0.00    0.0
2021/10/03 00:15:42.000   28 35 34.10974  -17 55 01.61196    73.2987   6   6   0.1090   0.2174   0.2942   0.0254  -0.1436   0.0581   0.00    0.0
2021/10/03 00:16:12.000   28 35 34.10974  -17 55 01.61232    73.3128   6   6   0.1080   0.2146   0.2924   0.0245  -0.1420   0.0580   0.00    0.0
2021/10/03 00:16:42.000   28 35 34.10977  -17 55 01.61250    73.3259   6   6   0.1073   0.2120   0.2911   0.0235  -0.1406   0.0580   0.00    0.0
2021/10/03 00:17:12.000   28 35 34.10977  -17 55 01.61240    73.3302   6   6   0.1067   0.2096   0.2900   0.0225  -0.1393   0.0579   0.00    0.0
2021/10/03 00:17:42.000   28 35 34.10980  -17 55 01.61293    73.3408   6   6   0.1059   0.2072   0.2885   0.0217  -0.1379   0.0579   0.00    0.0
2021/10/03 00:18:12.000   28 35 34.11006  -17 55 01.61357    73.3552   6   6   0.1047   0.2046   0.2860   0.0209  -0.1366   0.0578   0.00    0.0
2021/10/03 00:18:42.000   28 35 34.11053  -17 55 01.61364    73.3751   6   6   0.1025   0.2015   0.2811   0.0204  -0.1351   0.0578   0.00    0.0
2021/10/03 00:19:12.000   28 35 34.11116  -17 55 01.61393    73.3893   6   6   0.0970   0.1967   0.2689   0.0206  -0.1334   0.0583   0.00    0.0
2021/10/03 00:19:42.000   28 35 34.11170  -17 55 01.61275    73.3546   6   6   0.0840   0.1873   0.2413   0.0204  -0.1307   0.0592   0.00    0.0
2021/10/03 00:20:12.000   28 35 34.11213  -17 55 01.61286    73.3468   6   6   0.0814   0.1838   0.2351   0.0197  -0.1289   0.0584   0.00    0.0
2021/10/03 00:20:42.000   28 35 34.11220  -17 55 01.61293    73.3447   6   6   0.0804   0.1817   0.2327   0.0191  -0.1277   0.0581   0.00    0.0
2021/10/03 00:21:12.000   28 35 34.11215  -17 55 01.61318    73.3446   6   6   0.0798   0.1799   0.2314   0.0186  -0.1267   0.0578   0.00    0.0
2021/10/03 00:21:42.000   28 35 34.11217  -17 55 01.61318    73.3385   6   6   0.0795   0.1783   0.2304   0.0181  -0.1257   0.0577   0.00    0.0
2021/10/03 00:22:12.000   28 35 34.11213  -17 55 01.61330    73.3386   6   6   0.0792   0.1768   0.2297   0.0176  -0.1247   0.0576   0.00    0.0
2021/10/03 00:22:42.000   28 35 34.11209  -17 55 01.61343    73.3447   6   6   0.0787   0.1753   0.2286   0.0171  -0.1238   0.0574   0.00    0.0
2021/10/03 00:23:12.000   28 35 34.11218  -17 55 01.61374    73.3457   6   6   0.0781   0.1736   0.2269   0.0165  -0.1228   0.0571   0.00    0.0
2021/10/03 00:23:42.000   28 35 34.11229  -17 55 01.61374    73.3512   6   6   0.0768   0.1716   0.2238   0.0159  -0.1217   0.0568   0.00    0.0
2021/10/03 00:24:12.000   28 35 34.11223  -17 55 01.61348    73.3756   6   6   0.0736   0.1682   0.2159   0.0149  -0.1201   0.0561   0.00    0.0
2021/10/03 00:24:42.000   28 35 34.11232  -17 55 01.61230    73.3829   6   6   0.0656   0.1613   0.1972   0.0115  -0.1174   0.0551   0.00    0.0
2021/10/03 00:25:12.000   28 35 34.11299  -17 55 01.61220    73.3450   6   6   0.0638   0.1588   0.1928   0.0105  -0.1160   0.0543   0.00    0.0
2021/10/03 00:25:42.000   28 35 34.11329  -17 55 01.61217    73.3251   6   6   0.0632   0.1573   0.1911   0.0098  -0.1151   0.0540   0.00    0.0
2021/10/03 00:26:12.000   28 35 34.11329  -17 55 01.61226    73.3193   6   6   0.0628   0.1561   0.1901   0.0093  -0.1143   0.0538   0.00    0.0
2021/10/03 00:26:42.000   28 35 34.11325  -17 55 01.61226    73.3142   6   6   0.0626   0.1550   0.1894   0.0089  -0.1136   0.0537   0.00    0.0
2021/10/03 00:27:12.000   28 35 34.11325  -17 55 01.61211    73.3120   6   6   0.0624   0.1540   0.1889   0.0085  -0.1130   0.0536   0.00    0.0
2021/10/03 00:27:42.000   28 35 34.11325  -17 55 01.61229    73.3124   6   6   0.0622   0.1529   0.1882   0.0080  -0.1123   0.0534   0.00    0.0
2021/10/03 00:28:12.000   28 35 34.11326  -17 55 01.61225    73.3082   6   6   0.0618   0.1518   0.1871   0.0073  -0.1116   0.0532   0.00    0.0
2021/10/03 00:28:42.000   28 35 34.11334  -17 55 01.61212    73.3055   6   6   0.0610   0.1504   0.1850   0.0059  -0.1108   0.0529   0.00    0.0
2021/10/03 00:29:12.000   28 35 34.11334  -17 55 01.61161    73.3067   6   6   0.0590   0.1479   0.1800  -0.0022  -0.1097   0.0524   0.00    0.0
2021/10/03 00:29:42.000   28 35 34.11318  -17 55 01.61047    73.2999   6   6   0.0537   0.1429   0.1675  -0.0106  -0.1075   0.0515   0.00    0.0
2021/10/03 00:30:12.000   28 35 34.11311  -17 55 01.60994    73.2915   6   6   0.0525   0.1411   0.1645  -0.0116  -0.1065   0.0509   0.00    0.0
2021/10/03 00:30:42.000   28 35 34.11326  -17 55 01.60990    73.2906   6   6   0.0521   0.1400   0.1633  -0.0120  -0.1059   0.0507   0.00    0.0
2021/10/03 00:31:12.000   28 35 34.11338  -17 55 01.60994    73.2923   6   6   0.0519   0.1391   0.1626  -0.0122  -0.1053   0.0505   0.00    0.0
2021/10/03 00:31:42.000   28 35 34.11342  -17 55 01.61010    73.2974   6   6   0.0517   0.1383   0.1621  -0.0123  -0.1048   0.0504   0.00    0.0
2021/10/03 00:32:12.000   28 35 34.11342  -17 55 01.61044    73.3044   6   6   0.0516   0.1376   0.1617  -0.0124  -0.1043   0.0504   0.00    0.0
2021/10/03 00:32:42.000   28 35 34.11344  -17 55 01.61053    73.3075   6   6   0.0514   0.1369   0.1612  -0.0125  -0.1038   0.0503   0.00    0.0
2021/10/03 00:33:12.000   28 35 34.11344  -17 55 01.61046    73.3100   6   6   0.0512   0.1360   0.1605  -0.0128  -0.1033   0.0501   0.00    0.0
2021/10/03 00:33:42.000   28 35 34.11348  -17 55 01.61050    73.3189   6   6   0.0507   0.1350   0.1592  -0.0133  -0.1027   0.0500   0.00    0.0
2021/10/03 00:34:12.000   28 35 34.11346  -17 55 01.60996    73.3298   6   6   0.0493   0.1332   0.1560  -0.0146  -0.1020   0.0496   0.00    0.0
2021/10/03 00:34:42.000   28 35 34.11342  -17 55 01.60904    73.3466   6   6   0.0458   0.1295   0.1477  -0.0178  -0.1005   0.0492   0.00    0.0
2021/10/03 00:35:12.000   28 35 34.11349  -17 55 01.60879    73.3439   6   6   0.0449   0.1281   0.1457  -0.0184  -0.0998   0.0488   0.00    0.0
2021/10/03 00:35:42.000   28 35 34.11357  -17 55 01.60873    73.3398   6   6   0.0446   0.1273   0.1449  -0.0186  -0.0994   0.0487   0.00    0.0
2021/10/03 00:36:12.000   28 35 34.11357  -17 55 01.60891    73.3439   6   6   0.0444   0.1266   0.1444  -0.0186  -0.0989   0.0486   0.00    0.0
2021/10/03 00:36:42.000   28 35 34.11356  -17 55 01.60919    73.3477   6   6   0.0443   0.1261   0.1440  -0.0186  -0.0985   0.0485   0.00    0.0
2021/10/03 00:37:12.000   28 35 34.11357  -17 55 01.60943    73.3511   6   6   0.0443   0.1255   0.1437  -0.0186  -0.0981   0.0484   0.00    0.0
2021/10/03 00:37:42.000   28 35 34.11357  -17 55 01.60979    73.3574   6   6   0.0441   0.1249   0.1434  -0.0187  -0.0978   0.0484   0.00    0.0
2021/10/03 00:38:12.000   28 35 34.11356  -17 55 01.60970    73.3576   6   6   0.0440   0.1243   0.1429  -0.0188  -0.0974   0.0483   0.00    0.0
2021/10/03 00:38:42.000   28 35 34.11352  -17 55 01.60965    73.3625   6   6   0.0436   0.1235   0.1420  -0.0191  -0.0970   0.0482   0.00    0.0
2021/10/03 00:39:12.000   28 35 34.11354  -17 55 01.60953    73.3677   6   6   0.0427   0.1222   0.1400  -0.0200  -0.0965   0.0480   0.00    0.0
2021/10/03 00:39:42.000   28 35 34.11359  -17 55 01.60934    73.3653   6   6   0.0403   0.1194   0.1347  -0.0224  -0.0957   0.0480   0.00    0.0
2021/10/03 00:40:12.000   28 35 34.11366  -17 55 01.60943    73.3719   6   6   0.0397   0.1183   0.1334  -0.0229  -0.0953   0.0478   0.00    0.0
2021/10/03 00:40:42.000   28 35 34.11375  -17 55 01.60942    73.3694   6   6   0.0395   0.1177   0.1329  -0.0230  -0.0949   0.0477   0.00    0.0
2021/10/03 00:41:12.000   28 35 34.11379  -17 55 01.60938    73.3672   6   6   0.0394   0.1172   0.1325  -0.0230  -0.0946   0.0477   0.00    0.0
2021/10/03 00:41:42.000   28 35 34.11378  -17 55 01.60929    73.3647   6   6   0.0393   0.1167   0.1322  -0.0230  -0.0943   0.0476   0.00    0.0
2021/10/03 00:42:12.000   28 35 34.11376  -17 55 01.60908    73.3603   6   6   0.0392   0.1163   0.1320  -0.0230  -0.0939   0.0475   0.00    0.0
2021/10/03 00:42:42.000   28 35 34.11377  -17 55 01.60914    73.3607   6   6   0.0391   0.1158   0.1317  -0.0229  -0.0936   0.0475   0.00    0.0
2021/10/03 00:43:12.000   28 35 34.11377  -17 55 01.60924    73.3616   6   6   0.0390   0.1153   0.1313  -0.0230  -0.0933   0.0474   0.00    0.0
2021/10/03 00:43:42.000   28 35 34.11368  -17 55 01.60937    73.3708   6   6   0.0388   0.1147   0.1308  -0.0232  -0.0930   0.0474   0.00    0.0
2021/10/03 00:44:12.000   28 35 34.11347  -17 55 01.60950    73.3948   6   6   0.0382   0.1137   0.1296  -0.0239  -0.0927   0.0474   0.00    0.0
2021/10/03 00:44:42.000   28 35 34.11361  -17 55 01.60893    73.3907   6   6   0.0365   0.1115   0.1263  -0.0258  -0.0923   0.0478   0.00    0.0
2021/10/03 00:45:12.000   28 35 34.11366  -17 55 01.60887    73.3928   6   6   0.0361   0.1107   0.1254  -0.0262  -0.0921   0.0477   0.00    0.0
2021/10/03 00:45:42.000   28 35 34.11362  -17 55 01.60891    73.3968   6   6   0.0359   0.1102   0.1250  -0.0263  -0.0918   0.0477   0.00    0.0
2021/10/03 00:46:12.000   28 35 34.11361  -17 55 01.60893    73.3974   6   6   0.0359   0.1098   0.1248  -0.0263  -0.0915   0.0476   0.00    0.0
2021/10/03 00:46:42.000   28 35 34.11360  -17 55 01.60889    73.3958   6   6   0.0358   0.1094   0.1245  -0.0263  -0.0913   0.0476   0.00    0.0
2021/10/03 00:47:12.000   28 35 34.11359  -17 55 01.60884    73.3940   6   6   0.0358   0.1090   0.1243  -0.0262  -0.0910   0.0475   0.00    0.0
2021/10/03 00:47:42.000   28 35 34.11360  -17 55 01.60900    73.3967   6   6   0.0357   0.1087   0.1241  -0.0262  -0.0907   0.0475   0.00    0.0
2021/10/03 00:48:12.000   28 35 34.11359  -17 55 01.60890    73.3948   6   6   0.0356   0.1083   0.1239  -0.0262  -0.0905   0.0475   0.00    0.0
2021/10/03 00:48:42.000   28 35 34.11357  -17 55 01.60886    73.3947   6   6   0.0355   0.1077   0.1235  -0.0264  -0.0902   0.0475   0.00    0.0
2021/10/03 00:49:12.000   28 35 34.11362  -17 55 01.60866    73.3931   6   6   0.0350   0.1069   0.1227  -0.0269  -0.0900   0.0476   0.00    0.0
2021/10/03 00:49:42.000   28 35 34.11372  -17 55 01.60804    73.3845   6   6   0.0339   0.1051   0.1208  -0.0285  -0.0898   0.0481   0.00    0.0
2021/10/03 00:50:12.000   28 35 34.11377  -17 55 01.60787    73.3807   6   6   0.0337   0.1043   0.1202  -0.0288  -0.0896   0.0482   0.00    0.0
2021/10/03 00:50:42.000   28 35 34.11377  -17 55 01.60766    73.3764   6   6   0.0335   0.1039   0.1199  -0.0289  -0.0894   0.0482   0.00    0.0
2021/10/03 00:51:12.000   28 35 34.11379  -17 55 01.60770    73.3770   6   6   0.0335   0.1036   0.1197  -0.0289  -0.0892   0.0481   0.00    0.0
2021/10/03 00:51:42.000   28 35 34.11380  -17 55 01.60772    73.3773   6   6   0.0334   0.1032   0.1195  -0.0288  -0.0889   0.0481   0.00    0.0
2021/10/03 00:52:12.000   28 35 34.11379  -17 55 01.60774    73.3778   6   6   0.0334   0.1029   0.1194  -0.0288  -0.0887   0.0480   0.00    0.0
2021/10/03 00:52:42.000   28 35 34.11379  -17 55 01.60782    73.3798   6   6   0.0334   0.1026   0.1192  -0.0287  -0.0885   0.0480   0.00    0.0
2021/10/03 00:53:12.000   28 35 34.11380  -17 55 01.60790    73.3806   6   6   0.0333   0.1023   0.1190  -0.0287  -0.0882   0.0480   0.00    0.0
2021/10/03 00:53:42.000   28 35 34.11380  -17 55 01.60777    73.3771   6   6   0.0332   0.1018   0.1187  -0.0288  -0.0880   0.0480   0.00    0.0
2021/10/03 00:54:12.000   28 35 34.11385  -17 55 01.60762    73.3705   6   6   0.0329   0.1010   0.1181  -0.0292  -0.0878   0.0481   0.00    0.0
2021/10/03 00:54:42.000   28 35 34.11392  -17 55 01.60728    73.3659   6   6   0.0322   0.0991   0.1169  -0.0304  -0.0874   0.0487   0.00    0.0
2021/10/03 00:55:12.000   28 35 34.11387  -17 55 01.60725    73.3686   6   6   0.0320   0.0984   0.1165  -0.0306  -0.0871   0.0488   0.00    0.0
2021/10/03 00:55:42.000   28 35 34.11384  -17 55 01.60721    73.3695   6   6   0.0320   0.0981   0.1162  -0.0307  -0.0869   0.0488   0.00    0.0
2021/10/03 00:56:12.000   28 35 34.11380  -17 55 01.60715    73.3699   6   6   0.0319   0.0977   0.1160  -0.0306  -0.0867   0.0487   0.00    0.0
2021/10/03 00:56:42.000   28 35 34.11380  -17 55 01.60716    73.3705   6   6   0.0319   0.0975   0.1159  -0.0306  -0.0865   0.0487   0.00    0.0
2021/10/03 00:57:12.000   28 35 34.11378  -17 55 01.60717    73.3703   6   6   0.0319   0.0972   0.1157  -0.0305  -0.0862   0.0486   0.00    0.0
2021/10/03 00:57:42.000   28 35 34.11378  -17 55 01.60716    73.3706   6   6   0.0318   0.0969   0.1155  -0.0305  -0.0860   0.0486   0.00    0.0
2021/10/03 00:58:12.000   28 35 34.11377  -17 55 01.60723    73.3733   6   6   0.0318   0.0966   0.1153  -0.0304  -0.0858   0.0486   0.00    0.0
2021/10/03 00:58:42.000   28 35 34.11376  -17 55 01.60732    73.3783   6   6   0.0317   0.0962   0.1151  -0.0305  -0.0855   0.0486   0.00    0.0
2021/10/03 00:59:12.000   28 35 34.11374  -17 55 01.60739    73.3876   6   6   0.0315   0.0953   0.1145  -0.0306  -0.0851   0.0486   0.00    0.0
2021/10/03 00:59:42.000   28 35 34.11383  -17 55 01.60730    73.3872   6   6   0.0310   0.0931   0.1132  -0.0313  -0.0840   0.0490   0.00    0.0
2021/10/03 01:00:12.000   28 35 34.11386  -17 55 01.60721    73.3843   6   6   0.0309   0.0923   0.1127  -0.0313  -0.0836   0.0490   0.00    0.0
2021/10/03 01:00:42.000   28 35 34.11384  -17 55 01.60717    73.3834   6   6   0.0308   0.0919   0.1125  -0.0313  -0.0833   0.0489   0.00    0.0
2021/10/03 01:01:12.000   28 35 34.11383  -17 55 01.60721    73.3843   6   6   0.0308   0.0916   0.1123  -0.0313  -0.0831   0.0489   0.00    0.0
2021/10/03 01:01:42.000   28 35 34.11382  -17 55 01.60725    73.3856   6   6   0.0308   0.0914   0.1121  -0.0312  -0.0829   0.0488   0.00    0.0
2021/10/03 01:02:12.000   28 35 34.11382  -17 55 01.60723    73.3854   6   6   0.0307   0.0911   0.1119  -0.0311  -0.0827   0.0488   0.00    0.0
2021/10/03 01:02:42.000   28 35 34.11381  -17 55 01.60719    73.3838   6   6   0.0307   0.0909   0.1118  -0.0311  -0.0825   0.0487   0.00    0.0
2021/10/03 01:03:12.000   28 35 34.11382  -17 55 01.60720    73.3846   6   6   0.0307   0.0906   0.1115  -0.0310  -0.0822   0.0487   0.00    0.0
2021/10/03 01:03:42.000   28 35 34.11381  -17 55 01.60719    73.3861   6   6   0.0306   0.0901   0.1112  -0.0309  -0.0818   0.0486   0.00    0.0
2021/10/03 01:04:12.000   28 35 34.11388  -17 55 01.60713    73.3895   6   6   0.0304   0.0890   0.1104  -0.0308  -0.0810   0.0485   0.00    0.0
2021/10/03 01:04:42.000   28 35 34.11404  -17 55 01.60705    73.3914   6   6   0.0298   0.0862   0.1083  -0.0307  -0.0789   0.0483   0.00    0.0
2021/10/03 01:05:12.000   28 35 34.11404  -17 55 01.60698    73.3934   6   6   0.0297   0.0853   0.1076  -0.0306  -0.0782   0.0481   0.00    0.0
2021/10/03 01:05:42.000   28 35 34.11404  -17 55 01.60687    73.3909   6   6   0.0296   0.0848   0.1073  -0.0305  -0.0778   0.0480   0.00    0.0
2021/10/03 01:06:12.000   28 35 34.11404  -17 55 01.60679    73.3883   6   7   0.0296   0.0845   0.1070  -0.0304  -0.0775   0.0480   0.00    0.0
2021/10/03 01:06:42.000   28 35 34.11404  -17 55 01.60680    73.3884   6   7   0.0295   0.0843   0.1068  -0.0303  -0.0773   0.0479   0.00    0.0
2021/10/03 01:07:12.000   28 35 34.11403  -17 55 01.60677    73.3874   6   7   0.0295   0.0840   0.1066  -0.0302  -0.0770   0.0478   0.00    0.0
2021/10/03 01:07:42.000   28 35 34.11403  -17 55 01.60680    73.3881   6   7   0.0295   0.0837   0.1063  -0.0300  -0.0767   0.0477   0.00    0.0
2021/10/03 01:08:12.000   28 35 34.11401  -17 55 01.60676    73.3876   6   7   0.0294   0.0834   0.1060  -0.0299  -0.0764   0.0476   0.00    0.0
2021/10/03 01:08:42.000   28 35 34.11398  -17 55 01.60675    73.3853   6   7   0.0293   0.0828   0.1054  -0.0297  -0.0758   0.0474   0.00    0.0
2021/10/03 01:09:12.000   28 35 34.11400  -17 55 01.60664    73.3771   6   7   0.0290   0.0815   0.1040  -0.0293  -0.0745   0.0470   0.00    0.0
2021/10/03 01:09:42.000   28 35 34.11412  -17 55 01.60658    73.3765   6   7   0.0283   0.0780   0.1008  -0.0283  -0.0712   0.0460   0.00    0.0
2021/10/03 01:10:12.000   28 35 34.11412  -17 55 01.60662    73.3806   6   7   0.0281   0.0770   0.0996  -0.0279  -0.0700   0.0456   0.00    0.0
2021/10/03 01:10:42.000   28 35 34.11415  -17 55 01.60667    73.3848   6   7   0.0280   0.0765   0.0991  -0.0277  -0.0695   0.0454   0.00    0.0
2021/10/03 01:11:12.000   28 35 34.11416  -17 55 01.60677    73.3884   6   7   0.0279   0.0762   0.0988  -0.0275  -0.0692   0.0453   0.00    0.0
2021/10/03 01:11:42.000   28 35 34.11416  -17 55 01.60680    73.3890   6   7   0.0279   0.0760   0.0985  -0.0274  -0.0689   0.0452   0.00    0.0
2021/10/03 01:12:12.000   28 35 34.11413  -17 55 01.60663    73.3846   6   7   0.0278   0.0757   0.0983  -0.0273  -0.0687   0.0451   0.00    0.0
2021/10/03 01:12:42.000   28 35 34.11411  -17 55 01.60653    73.3814   6   7   0.0278   0.0755   0.0980  -0.0272  -0.0684   0.0449   0.00    0.0
2021/10/03 01:13:12.000   28 35 34.11410  -17 55 01.60649    73.3794   6   7   0.0277   0.0751   0.0975  -0.0270  -0.0679   0.0447   0.00    0.0
2021/10/03 01:13:42.000   28 35 34.11410  -17 55 01.60645    73.3780   6   7   0.0275   0.0745   0.0966  -0.0266  -0.0671   0.0444   0.00    0.0
2021/10/03 01:14:12.000   28 35 34.11417  -17 55 01.60643    73.3806   6   7   0.0271   0.0730   0.0945  -0.0258  -0.0653   0.0435   0.00    0.0
2021/10/03 01:14:42.000   28 35 34.11425  -17 55 01.60639    73.3837   6   7   0.0260   0.0693   0.0899  -0.0240  -0.0609   0.0416   0.00    0.0
2021/10/03 01:15:12.000   28 35 34.11426  -17 55 01.60640    73.3842   6   7   0.0257   0.0682   0.0883  -0.0234  -0.0595   0.0409   0.00    0.0
2021/10/03 01:15:42.000   28 35 34.11426  -17 55 01.60633    73.3824   6   7   0.0256   0.0678   0.0876  -0.0231  -0.0589   0.0406   0.00    0.0
2021/10/03 01:16:12.000   28 35 34.11425  -17 55 01.60627    73.3802   6   7   0.0255   0.0675   0.0872  -0.0229  -0.0586   0.0405   0.00    0.0
2021/10/03 01:16:42.000   28 35 34.11425  -17 55 01.60627    73.3795   6   7   0.0255   0.0673   0.0869  -0.0228  -0.0583   0.0403   0.00    0.0
2021/10/03 01:17:12.000   28 35 34.11425  -17 55 01.60624    73.3786   6   7   0.0254   0.0671   0.0867  -0.0227  -0.0581   0.0402   0.00    0.0
2021/10/03 01:17:42.000   28 35 34.11425  -17 55 01.60615    73.3764   6   7   0.0254   0.0669   0.0864  -0.0225  -0.0578   0.0401   0.00    0.0
2021/10/03 01:18:12.000   28 35 34.11426  -17 55 01.60610    73.3749   6   7   0.0253   0.0666   0.0858  -0.0223  -0.0573   0.0399   0.00    0.0
2021/10/03 01:18:42.000   28 35 34.11427  -17 55 01.60601    73.3724   6   7   0.0251   0.0660   0.0847  -0.0219  -0.0564   0.0394   0.00    0.0
2021/10/03 01:19:12.000   28 35 34.11425  -17 55 01.60585    73.3671   6   7   0.0246   0.0646   0.0823  -0.0209  -0.0544   0.0383   0.00    0.0
2021/10/03 01:19:42.000   28 35 34.11431  -17 55 01.60576    73.3695   6   7   0.0234   0.0611   0.0772  -0.0187  -0.0499   0.0359   0.00    0.0
2021/10/03 01:20:12.000   28 35 34.11432  -17 55 01.60575    73.3718   6   7   0.0230   0.0601   0.0754  -0.0180  -0.0484   0.0351   0.00    0.0
2021/10/03 01:20:42.000   28 35 34.11431  -17 55 01.60572    73.3714   6   7   0.0229   0.0597   0.0747  -0.0177  -0.0479   0.0348   0.00    0.0
2021/10/03 01:21:12.000   28 35 34.11430  -17 55 01.60570    73.3716   6   7   0.0228   0.0595   0.0743  -0.0175  -0.0475   0.0346   0.00    0.0
2021/10/03 01:21:42.000   28 35 34.11428  -17 55 01.60568    73.3707   6   7   0.0227   0.0593   0.0741  -0.0174  -0.0473   0.0345   0.00    0.0
2021/10/03 01:22:12.000   28 35 34.11427  -17 55 01.60570    73.3709   6   7   0.0227   0.0592   0.0739  -0.0173  -0.0471   0.0344   0.00    0.0
2021/10/03 01:22:42.000   28 35 34.11426  -17 55 01.60568    73.3699   6   7   0.0227   0.0590   0.0736  -0.0172  -0.0469   0.0343   0.00    0.0
2021/10/03 01:23:12.000   28 35 34.11426  -17 55 01.60566    73.3691   6   7   0.0226   0.0588   0.0731  -0.0169  -0.0465   0.0341   0.00    0.0
2021/10/03 01:23:42.000   28 35 34.11428  -17 55 01.60569    73.3716   6   8   0.0224   0.0583   0.0721  -0.0165  -0.0457   0.0336   0.00    0.0
2021/10/03 01:24:12.000   28 35 34.11434  -17 55 01.60569    73.3725   6   8   0.0219   0.0572   0.0697  -0.0155  -0.0438   0.0325   0.00    0.0
2021/10/03 01:24:42.000   28 35 34.11442  -17 55 01.60552    73.3719   6   8   0.0207   0.0542   0.0652  -0.0134  -0.0399   0.0302   0.00    0.0
2021/10/03 01:25:12.000   28 35 34.11441  -17 55 01.60551    73.3712   6   8   0.0204   0.0534   0.0636  -0.0127  -0.0387   0.0295   0.00    0.0
2021/10/03 01:25:42.000   28 35 34.11441  -17 55 01.60553    73.3733   6   8   0.0203   0.0531   0.0630  -0.0124  -0.0382   0.0292   0.00    0.0
2021/10/03 01:26:12.000   28 35 34.11441  -17 55 01.60553    73.3745   6   8   0.0202   0.0529   0.0626  -0.0123  -0.0379   0.0290   0.00    0.0
2021/10/03 01:26:42.000   28 35 34.11441  -17 55 01.60553    73.3746   6   8   0.0201   0.0528   0.0624  -0.0122  -0.0377   0.0289   0.00    0.0
2021/10/03 01:27:12.000   28 35 34.11440  -17 55 01.60554    73.3749   6   8   0.0201   0.0527   0.0622  -0.0121  -0.0375   0.0289   0.00    0.0
2021/10/03 01:27:42.000   28 35 34.11439  -17 55 01.60554    73.3743   6   8   0.0201   0.0526   0.0619  -0.0119  -0.0373   0.0287   0.00    0.0
2021/10/03 01:28:12.000   28 35 34.11436  -17 55 01.60549    73.3710   6   8   0.0200   0.0524   0.0615  -0.0117  -0.0370   0.0285   0.00    0.0
2021/10/03 01:28:42.000   28 35 34.11434  -17 55 01.60540    73.3676   6   8   0.0198   0.0520   0.0606  -0.0113  -0.0363   0.0281   0.00    0.0
2021/10/03 01:29:12.000   28 35 34.11430  -17 55 01.60536    73.3666   6   8   0.0193   0.0511   0.0585  -0.0104  -0.0349   0.0270   0.00    0.0
2021/10/03 01:29:42.000   28 35 34.11434  -17 55 01.60512    73.3668   6   8   0.0183   0.0487   0.0548  -0.0086  -0.0318   0.0251   0.00    0.0
2021/10/03 01:30:12.000   28 35 34.11440  -17 55 01.60501    73.3662   6   8   0.0180   0.0481   0.0534  -0.0079  -0.0308   0.0244   0.00    0.0
2021/10/03 01:30:42.000   28 35 34.11440  -17 55 01.60496    73.3651   6   8   0.0179   0.0478   0.0529  -0.0076  -0.0304   0.0242   0.00    0.0
2021/10/03 01:31:12.000   28 35 34.11440  -17 55 01.60493    73.3649   6   8   0.0179   0.0477   0.0526  -0.0075  -0.0302   0.0240   0.00    0.0
2021/10/03 01:31:42.000   28 35 34.11440  -17 55 01.60490    73.3644   6   8   0.0178   0.0476   0.0524  -0.0074  -0.0300   0.0239   0.00    0.0
2021/10/03 01:32:12.000   28 35 34.11440  -17 55 01.60484    73.3640   6   8   0.0178   0.0475   0.0522  -0.0073  -0.0299   0.0239   0.00    0.0
2021/10/03 01:32:42.000   28 35 34.11440  -17 55 01.60478    73.3635   6   7   0.0178   0.0474   0.0521  -0.0072  -0.0298   0.0238   0.00    0.0
2021/10/03 01:33:12.000   28 35 34.11441  -17 55 01.60472    73.3632   6   6   0.0177   0.0473   0.0520  -0.0072  -0.0297   0.0237   0.00    0.0
2021/10/03 01:33:42.000   28 35 34.11444  -17 55 01.60466    73.3637   6   6   0.0177   0.0471   0.0518  -0.0070  -0.0295   0.0236   0.00    0.0
2021/10/03 01:34:12.000   28 35 34.11452  -17 55 01.60456    73.3662   6   6   0.0174   0.0464   0.0512  -0.0067  -0.0289   0.0233   0.00    0.0
2021/10/03 01:34:42.000   28 35 34.11459  -17 55 01.60436    73.3689   6   6   0.0167   0.0445   0.0496  -0.0057  -0.0272   0.0223   0.00    0.0
2021/10/03 01:35:12.000   28 35 34.11468  -17 55 01.60428    73.3694   6   6   0.0166   0.0440   0.0491  -0.0054  -0.0268   0.0220   0.00    0.0
2021/10/03 01:35:42.000   28 35 34.11472  -17 55 01.60423    73.3694   6   6   0.0165   0.0439   0.0490  -0.0053  -0.0266   0.0219   0.00    0.0
2021/10/03 01:36:12.000   28 35 34.11473  -17 55 01.60416    73.3684   6   6   0.0165   0.0438   0.0489  -0.0052  -0.0266   0.0219   0.00    0.0
2021/10/03 01:36:42.000   28 35 34.11473  -17 55 01.60413    73.3677   6   6   0.0165   0.0437   0.0488  -0.0052  -0.0265   0.0218   0.00    0.0
2021/10/03 01:37:12.000   28 35 34.11474  -17 55 01.60410    73.3669   6   6   0.0164   0.0436   0.0488  -0.0052  -0.0265   0.0218   0.00    0.0
2021/10/03 01:37:42.000   28 35 34.11473  -17 55 01.60406    73.3659   6   6   0.0164   0.0436   0.0487  -0.0051  -0.0264   0.0218   0.00    0.0
2021/10/03 01:38:12.000   28 35 34.11473  -17 55 01.60400    73.3644   6   6   0.0164   0.0435   0.0486  -0.0050  -0.0263   0.0217   0.00    0.0
2021/10/03 01:38:42.000   28 35 34.11473  -17 55 01.60395    73.3637   6   6   0.0163   0.0433   0.0484  -0.0049  -0.0261   0.0216   0.00    0.0
2021/10/03 01:39:12.000   28 35 34.11472  -17 55 01.60389    73.3617   6   6   0.0161   0.0427   0.0479  -0.0046  -0.0257   0.0213   0.00    0.0
2021/10/03 01:39:42.000   28 35 34.11475  -17 55 01.60377    73.3610   6   6   0.0154   0.0410   0.0465  -0.0035  -0.0243   0.0203   0.00    0.0
2021/10/03 01:40:12.000   28 35 34.11476  -17 55 01.60371    73.3617   6   6   0.0153   0.0405   0.0461  -0.0032  -0.0239   0.0200   0.00    0.0
2021/10/03 01:40:42.000   28 35 34.11475  -17 55 01.60368    73.3608   6   6   0.0152   0.0404   0.0459  -0.0031  -0.0238   0.0199   0.00    0.0
2021/10/03 01:41:12.000   28 35 34.11475  -17 55 01.60364    73.3601   6   6   0.0152   0.0403   0.0459  -0.0030  -0.0237   0.0199   0.00    0.0
2021/10/03 01:41:42.000   28 35 34.11475  -17 55 01.60363    73.3600   6   6   0.0152   0.0402   0.0458  -0.0030  -0.0237   0.0198   0.00    0.0
2021/10/03 01:42:12.000   28 35 34.11475  -17 55 01.60360    73.3598   6   6   0.0152   0.0402   0.0458  -0.0029  -0.0236   0.0198   0.00    0.0
2021/10/03 01:42:42.000   28 35 34.11476  -17 55 01.60359    73.3598   6   6   0.0152   0.0401   0.0457  -0.0029  -0.0236   0.0198   0.00    0.0
2021/10/03 01:43:12.000   28 35 34.11476  -17 55 01.60357    73.3596   6   6   0.0151   0.0400   0.0457  -0.0028  -0.0235   0.0197   0.00    0.0
2021/10/03 01:43:42.000   28 35 34.11477  -17 55 01.60355    73.3594   6   6   0.0151   0.0399   0.0455  -0.0027  -0.0234   0.0196   0.00    0.0
2021/10/03 01:44:12.000   28 35 34.11480  -17 55 01.60350    73.3594   6   6   0.0149   0.0394   0.0450  -0.0022  -0.0230   0.0193   0.00    0.0
2021/10/03 01:44:42.000   28 35 34.11483  -17 55 01.60341    73.3572   6   6   0.0143   0.0378   0.0438   0.0009  -0.0218   0.0183   0.00    0.0
2021/10/03 01:45:12.000   28 35 34.11484  -17 55 01.60338    73.3570   6   6   0.0141   0.0374   0.0434   0.0015  -0.0216   0.0181   0.00    0.0
2021/10/03 01:45:42.000   28 35 34.11485  -17 55 01.60334    73.3567   6   6   0.0141   0.0373   0.0433   0.0016  -0.0215   0.0180   0.00    0.0
2021/10/03 01:46:12.000   28 35 34.11486  -17 55 01.60329    73.3563   6   6   0.0140   0.0372   0.0432   0.0017  -0.0214   0.0180   0.00    0.0
2021/10/03 01:46:42.000   28 35 34.11486  -17 55 01.60326    73.3561   6   6   0.0140   0.0371   0.0432   0.0018  -0.0214   0.0179   0.00    0.0
2021/10/03 01:47:12.000   28 35 34.11486  -17 55 01.60325    73.3560   6   6   0.0140   0.0371   0.0432   0.0018  -0.0213   0.0179   0.00    0.0
2021/10/03 01:47:42.000   28 35 34.11487  -17 55 01.60323    73.3560   6   6   0.0140   0.0371   0.0431   0.0018  -0.0213   0.0179   0.00    0.0
2021/10/03 01:48:12.000   28 35 34.11488  -17 55 01.60320    73.3559   6   6   0.0140   0.0370   0.0431   0.0019  -0.0212   0.0179   0.00    0.0
2021/10/03 01:48:42.000   28 35 34.11489  -17 55 01.60318    73.3561   6   6   0.0139   0.0368   0.0429   0.0020  -0.0211   0.0178   0.00    0.0
2021/10/03 01:49:12.000   28 35 34.11489  -17 55 01.60314    73.3562   6   6   0.0137   0.0364   0.0426   0.0023  -0.0209   0.0175   0.00    0.0
2021/10/03 01:49:42.000   28 35 34.11493  -17 55 01.60306    73.3568   6   6   0.0132   0.0350   0.0415   0.0030  -0.0200   0.0166   0.00    0.0
2021/10/03 01:50:12.000   28 35 34.11495  -17 55 01.60304    73.3574   6   6   0.0131   0.0347   0.0412   0.0031  -0.0198   0.0164   0.00    0.0
2021/10/03 01:50:42.000   28 35 34.11496  -17 55 01.60303    73.3582   6   6   0.0130   0.0345   0.0411   0.0032  -0.0197   0.0163   0.00    0.0
2021/10/03 01:51:12.000   28 35 34.11496  -17 55 01.60303    73.3581   6   6   0.0130   0.0345   0.0410   0.0032  -0.0196   0.0162   0.00    0.0
2021/10/03 01:51:42.000   28 35 34.11497  -17 55 01.60301    73.3582   6   6   0.0130   0.0344   0.0410   0.0032  -0.0196   0.0162   0.00    0.0
2021/10/03 01:52:12.000   28 35 34.11497  -17 55 01.60299    73.3581   6   6   0.0130   0.0344   0.0410   0.0032  -0.0196   0.0162   0.00    0.0
2021/10/03 01:52:42.000   28 35 34.11497  -17 55 01.60298    73.3580   6   6   0.0130   0.0343   0.0409   0.0033  -0.0196   0.0162   0.00    0.0
2021/10/03 01:53:12.000   28 35 34.11498  -17 55 01.60293    73.3578   6   6   0.0130   0.0343   0.0409   0.0033  -0.0195   0.0161   0.00    0.0
2021/10/03 01:53:42.000   28 35 34.11501  -17 55 01.60285    73.3576   6   6   0.0129   0.0341   0.0408   0.0033  -0.0194   0.0160   0.00    0.0
2021/10/03 01:54:12.000   28 35 34.11503  -17 55 01.60277    73.3574   6   6   0.0128   0.0338   0.0404   0.0035  -0.0192   0.0158   0.00    0.0
2021/10/03 01:54:42.000   28 35 34.11503  -17 55 01.60262    73.3562   6   6   0.0123   0.0325   0.0395   0.0038  -0.0185   0.0150   0.00    0.0
2021/10/03 01:55:12.000   28 35 34.11506  -17 55 01.60254    73.3559   6   6   0.0122   0.0322   0.0393   0.0039  -0.0183   0.0147   0.00    0.0
2021/10/03 01:55:42.000   28 35 34.11506  -17 55 01.60249    73.3551   6   6   0.0121   0.0321   0.0392   0.0039  -0.0183   0.0147   0.00    0.0
2021/10/03 01:56:12.000   28 35 34.11506  -17 55 01.60247    73.3548   6   6   0.0121   0.0320   0.0391   0.0039  -0.0182   0.0146   0.00    0.0
2021/10/03 01:56:42.000   28 35 34.11507  -17 55 01.60245    73.3547   6   6   0.0121   0.0320   0.0391   0.0039  -0.0182   0.0146   0.00    0.0
2021/10/03 01:57:12.000   28 35 34.11507  -17 55 01.60242    73.3546   6   6   0.0121   0.0320   0.0391   0.0040  -0.0182   0.0146   0.00    0.0
2021/10/03 01:57:42.000   28 35 34.11508  -17 55 01.60238    73.3546   6   6   0.0121   0.0319   0.0391   0.0040  -0.0182   0.0146   0.00    0.0
2021/10/03 01:58:12.000   28 35 34.11508  -17 55 01.60236    73.3546   6   6   0.0121   0.0319   0.0390   0.0040  -0.0181   0.0145   0.00    0.0
2021/10/03 01:58:42.000   28 35 34.11508  -17 55 01.60233    73.3544   6   6   0.0120   0.0318   0.0389   0.0040  -0.0181   0.0144   0.00    0.0
2021/10/03 01:59:12.000   28 35 34.11507  -17 55 01.60230    73.3530   6   6   0.0119   0.0314   0.0386   0.0041  -0.0179   0.0142   0.00    0.0
2021/10/03 01:59:42.000   28 35 34.11505  -17 55 01.60220    73.3502   6   6   0.0115   0.0303   0.0378   0.0043  -0.0173   0.0134   0.00    0.0
2021/10/03 02:00:12.000   28 35 34.11506  -17 55 01.60218    73.3510   6   6   0.0114   0.0300   0.0376   0.0044  -0.0172   0.0132   0.00    0.0
2021/10/03 02:00:42.000   28 35 34.11506  -17 55 01.60217    73.3506   6   6   0.0114   0.0299   0.0375   0.0044  -0.0171   0.0132   0.00    0.0
2021/10/03 02:01:12.000   28 35 34.11505  -17 55 01.60213    73.3496   6   6   0.0113   0.0299   0.0374   0.0044  -0.0171   0.0131   0.00    0.0
2021/10/03 02:01:42.000   28 35 34.11505  -17 55 01.60210    73.3487   6   6   0.0113   0.0299   0.0374   0.0044  -0.0171   0.0131   0.00    0.0
2021/10/03 02:02:12.000   28 35 34.11504  -17 55 01.60207    73.3483   6   6   0.0113   0.0298   0.0374   0.0044  -0.0171   0.0131   0.00    0.0
2021/10/03 02:02:42.000   28 35 34.11504  -17 55 01.60203    73.3479   6   6   0.0113   0.0298   0.0374   0.0045  -0.0170   0.0131   0.00    0.0
2021/10/03 02:03:12.000   28 35 34.11505  -17 55 01.60199    73.3475   6   6   0.0113   0.0297   0.0373   0.0045  -0.0170   0.0130   0.00    0.0
2021/10/03 02:03:42.000   28 35 34.11504  -17 55 01.60197    73.3467   6   6   0.0113   0.0296   0.0372   0.0045  -0.0170   0.0129   0.00    0.0
2021/10/03 02:04:12.000   28 35 34.11504  -17 55 01.60192    73.3449   6   6   0.0111   0.0293   0.0370   0.0046  -0.0168   0.0127   0.00    0.0
2021/10/03 02:04:42.000   28 35 34.11504  -17 55 01.60188    73.3448   6   6   0.0108   0.0283   0.0362   0.0047  -0.0163   0.0120   0.00    0.0
2021/10/03 02:05:12.000   28 35 34.11505  -17 55 01.60189    73.3450   6   6   0.0107   0.0281   0.0360   0.0048  -0.0162   0.0118   0.00    0.0
2021/10/03 02:05:42.000   28 35 34.11505  -17 55 01.60188    73.3444   6   6   0.0107   0.0280   0.0359   0.0048  -0.0162   0.0117   0.00    0.0
2021/10/03 02:06:12.000   28 35 34.11505  -17 55 01.60185    73.3439   6   6   0.0107   0.0280   0.0359   0.0048  -0.0161   0.0117   0.00    0.0
2021/10/03 02:06:42.000   28 35 34.11505  -17 55 01.60183    73.3433   6   6   0.0107   0.0279   0.0358   0.0048  -0.0161   0.0117   0.00    0.0
2021/10/03 02:07:12.000   28 35 34.11505  -17 55 01.60182    73.3429   6   6   0.0106   0.0279   0.0358   0.0048  -0.0161   0.0117   0.00    0.0
2021/10/03 02:07:42.000   28 35 34.11505  -17 55 01.60181    73.3423   6   6   0.0106   0.0279   0.0358   0.0048  -0.0161   0.0116   0.00    0.0
2021/10/03 02:08:12.000   28 35 34.11504  -17 55 01.60179    73.3410   6   6   0.0106   0.0278   0.0358   0.0048  -0.0161   0.0116   0.00    0.0
2021/10/03 02:08:42.000   28 35 34.11504  -17 55 01.60173    73.3392   6   6   0.0106   0.0277   0.0356   0.0048  -0.0160   0.0115   0.00    0.0
2021/10/03 02:09:12.000   28 35 34.11506  -17 55 01.60164    73.3363   6   6   0.0105   0.0275   0.0354   0.0049  -0.0159   0.0113   0.00    0.0
2021/10/03 02:09:42.000   28 35 34.11506  -17 55 01.60158    73.3381   6   6   0.0102   0.0266   0.0347   0.0050  -0.0155   0.0106   0.00    0.0
2021/10/03 02:10:12.000   28 35 34.11506  -17 55 01.60157    73.3374   6   6   0.0101   0.0264   0.0345   0.0051  -0.0154   0.0104   0.00    0.0
2021/10/03 02:10:42.000   28 35 34.11506  -17 55 01.60154    73.3372   6   6   0.0101   0.0263   0.0344   0.0051  -0.0154   0.0104   0.00    0.0
2021/10/03 02:11:12.000   28 35 34.11506  -17 55 01.60152    73.3369   6   6   0.0101   0.0262   0.0344   0.0051  -0.0153   0.0103   0.00    0.0
2021/10/03 02:11:42.000   28 35 34.11506  -17 55 01.60150    73.3366   6   6   0.0101   0.0262   0.0343   0.0051  -0.0153   0.0103   0.00    0.0
2021/10/03 02:12:12.000   28 35 34.11506  -17 55 01.60148    73.3363   6   6   0.0101   0.0262   0.0343   0.0051  -0.0153   0.0103   0.00    0.0
2021/10/03 02:12:42.000   28 35 34.11505  -17 55 01.60147    73.3356   6   6   0.0101   0.0262   0.0343   0.0051  -0.0153   0.0103   0.00    0.0
2021/10/03 02:13:12.000   28 35 34.11505  -17 55 01.60146    73.3356   6   5   0.0100   0.0261   0.0343   0.0051  -0.0153   0.0103   0.00    0.0
2021/10/03 02:13:42.000   28 35 34.11505  -17 55 01.60145    73.3355   6   5   0.0100   0.0261   0.0342   0.0051  -0.0152   0.0102   0.00    0.0
2021/10/03 02:14:12.000   28 35 34.11506  -17 55 01.60145    73.3356   6   5   0.0100   0.0258   0.0341   0.0051  -0.0152   0.0101   0.00    0.0
2021/10/03 02:14:42.000   28 35 34.11506  -17 55 01.60148    73.3350   6   5   0.0097   0.0250   0.0337   0.0052  -0.0149   0.0096   0.00    0.0
2021/10/03 02:15:12.000   28 35 34.11505  -17 55 01.60149    73.3343   6   5   0.0097   0.0249   0.0336   0.0052  -0.0149   0.0095   0.00    0.0
2021/10/03 02:15:42.000   28 35 34.11505  -17 55 01.60148    73.3342   6   5   0.0096   0.0248   0.0336   0.0052  -0.0148   0.0094   0.00    0.0
2021/10/03 02:16:12.000   28 35 34.11505  -17 55 01.60148    73.3342   6   5   0.0096   0.0248   0.0336   0.0052  -0.0148   0.0094   0.00    0.0
2021/10/03 02:16:42.000   28 35 34.11505  -17 55 01.60146    73.3342   6   5   0.0096   0.0247   0.0336   0.0052  -0.0148   0.0094   0.00    0.0
2021/10/03 02:17:12.000   28 35 34.11506  -17 55 01.60145    73.3342   6   5   0.0096   0.0247   0.0336   0.0052  -0.0148   0.0094   0.00    0.0
2021/10/03 02:17:42.000   28 35 34.11506  -17 55 01.60143    73.3343   6   5   0.0096   0.0247   0.0336   0.0052  -0.0148   0.0094   0.00    0.0
2021/10/03 02:18:12.000   28 35 34.11506  -17 55 01.60142    73.3345   6   5   0.0096   0.0247   0.0335   0.0052  -0.0148   0.0094   0.00    0.0
2021/10/03 02:18:42.000   28 35 34.11506  -17 55 01.60141    73.3344   6   5   0.0096   0.0246   0.0335   0.0052  -0.0148   0.0093   0.00    0.0
2021/10/03 02:19:12.000   28 35 34.11507  -17 55 01.60143    73.3352   6   5   0.0095   0.0244   0.0334   0.0052  -0.0147   0.0092   0.00    0.0
2021/10/03 02:19:42.000   28 35 34.11507  -17 55 01.60142    73.3357   6   5   0.0093   0.0237   0.0331   0.0053  -0.0145   0.0087   0.00    0.0
2021/10/03 02:20:12.000   28 35 34.11507  -17 55 01.60143    73.3359   6   5   0.0092   0.0235   0.0330   0.0053  -0.0145   0.0086   0.00    0.0
2021/10/03 02:20:42.000   28 35 34.11507  -17 55 01.60142    73.3355   6   5   0.0092   0.0235   0.0330   0.0053  -0.0145   0.0085   0.00    0.0
2021/10/03 02:21:12.000   28 35 34.11506  -17 55 01.60142    73.3353   6   5   0.0092   0.0234   0.0330   0.0053  -0.0145   0.0085   0.00    0.0
2021/10/03 02:21:42.000   28 35 34.11507  -17 55 01.60141    73.3354   6   5   0.0092   0.0234   0.0330   0.0053  -0.0144   0.0085   0.00    0.0
2021/10/03 02:22:12.000   28 35 34.11507  -17 55 01.60140    73.3354   6   5   0.0092   0.0234   0.0330   0.0053  -0.0144   0.0085   0.00    0.0
2021/10/03 02:22:42.000   28 35 34.11507  -17 55 01.60139    73.3354   6   5   0.0092   0.0234   0.0330   0.0053  -0.0144   0.0085   0.00    0.0
2021/10/03 02:23:12.000   28 35 34.11507  -17 55 01.60138    73.3351   6   5   0.0092   0.0234   0.0329   0.0053  -0.0144   0.0085   0.00    0.0
2021/10/03 02:23:42.000   28 35 34.11505  -17 55 01.60139    73.3341   6   5   0.0092   0.0233   0.0329   0.0053  -0.0144   0.0084   0.00    0.0
2021/10/03 02:24:12.000   28 35 34.11504  -17 55 01.60142    73.3335   6   5   0.0091   0.0231   0.0328   0.0053  -0.0144   0.0083   0.00    0.0
2021/10/03 02:24:42.000   28 35 34.11503  -17 55 01.60141    73.3331   6   5   0.0089   0.0225   0.0325   0.0054  -0.0143   0.0078   0.00    0.0
2021/10/03 02:25:12.000   28 35 34.11504  -17 55 01.60135    73.3329   6   5   0.0089   0.0224   0.0325   0.0054  -0.0142   0.0077   0.00    0.0
2021/10/03 02:25:42.000   28 35 34.11506  -17 55 01.60130    73.3334   6   5   0.0089   0.0223   0.0325   0.0054  -0.0142   0.0077   0.00    0.0
2021/10/03 02:26:12.000   28 35 34.11507  -17 55 01.60128    73.3337   6   5   0.0088   0.0223   0.0324   0.0054  -0.0142   0.0077   0.00    0.0
2021/10/03 02:26:42.000   28 35 34.11507  -17 55 01.60126    73.3340   6   5   0.0088   0.0223   0.0324   0.0054  -0.0142   0.0077   0.00    0.0
2021/10/03 02:27:12.000   28 35 34.11508  -17 55 01.60126    73.3342   6   5   0.0088   0.0223   0.0324   0.0054  -0.0142   0.0077   0.00    0.0
2021/10/03 02:27:42.000   28 35 34.11508  -17 55 01.60124    73.3345   6   5   0.0088   0.0223   0.0324   0.0054  -0.0142   0.0076   0.00    0.0
2021/10/03 02:28:12.000   28 35 34.11509  -17 55 01.60123    73.3347   6   5   0.0088   0.0222   0.0324   0.0054  -0.0142   0.0076   0.00    0.0
2021/10/03 02:28:42.000   28 35 34.11509  -17 55 01.60121    73.3344   6   5   0.0088   0.0222   0.0324   0.0054  -0.0142   0.0076   0.00    0.0
2021/10/03 02:29:12.000   28 35 34.11509  -17 55 01.60119    73.3342   6   5   0.0088   0.0220   0.0323   0.0054  -0.0142   0.0075   0.00    0.0
2021/10/03 02:29:42.000   28 35 34.11509  -17 55 01.60118    73.3342   6   5   0.0086   0.0215   0.0321   0.0054  -0.0141   0.0070   0.00    0.0
2021/10/03 02:30:12.000   28 35 34.11507  -17 55 01.60120    73.3337   6   5   0.0085   0.0214   0.0320   0.0054  -0.0141   0.0069   0.00    0.0
2021/10/03 02:30:42.000   28 35 34.11506  -17 55 01.60120    73.3331   6   5   0.0085   0.0213   0.0320   0.0054  -0.0141   0.0068   0.00    0.0
2021/10/03 02:31:12.000   28 35 34.11506  -17 55 01.60119    73.3328   6   5   0.0085   0.0213   0.0320   0.0054  -0.0141   0.0068   0.00    0.0
2021/10/03 02:31:42.000   28 35 34.11506  -17 55 01.60118    73.3326   6   5   0.0085   0.0213   0.0320   0.0054  -0.0141   0.0068   0.00    0.0
2021/10/03 02:32:12.000   28 35 34.11506  -17 55 01.60117    73.3325   6   5   0.0085   0.0213   0.0320   0.0054  -0.0141   0.0068   0.00    0.0
2021/10/03 02:32:42.000   28 35 34.11506  -17 55 01.60117    73.3323   6   5   0.0085   0.0213   0.0320   0.0054  -0.0141   0.0068   0.00    0.0
2021/10/03 02:33:12.000   28 35 34.11505  -17 55 01.60118    73.3322   6   5   0.0085   0.0213   0.0320   0.0054  -0.0141   0.0068   0.00    0.0
2021/10/03 02:33:42.000   28 35 34.11504  -17 55 01.60120    73.3320   6   5   0.0085   0.0212   0.0319   0.0054  -0.0141   0.0067   0.00    0.0
2021/10/03 02:34:12.000   28 35 34.11503  -17 55 01.60122    73.3309   6   5   0.0084   0.0211   0.0319   0.0054  -0.0141   0.0066   0.00    0.0
2021/10/03 02:34:42.000   28 35 34.11502  -17 55 01.60120    73.3311   6   5   0.0083   0.0206   0.0316   0.0055  -0.0141   0.0061   0.00    0.0
2021/10/03 02:35:12.000   28 35 34.11503  -17 55 01.60121    73.3315   6   5   0.0082   0.0205   0.0316   0.0055  -0.0141   0.0060   0.00    0.0
2021/10/03 02:35:42.000   28 35 34.11503  -17 55 01.60121    73.3320   6   5   0.0082   0.0205   0.0316   0.0055  -0.0141   0.0060   0.00    0.0
2021/10/03 02:36:12.000   28 35 34.11503  -17 55 01.60121    73.3323   6   5   0.0082   0.0205   0.0315   0.0055  -0.0141   0.0060   0.00    0.0
2021/10/03 02:36:42.000   28 35 34.11504  -17 55 01.60121    73.3325   6   5   0.0082   0.0204   0.0315   0.0055  -0.0141   0.0059   0.00    0.0
2021/10/03 02:37:12.000   28 35 34.11504  -17 55 01.60120    73.3326   6   5   0.0082   0.0204   0.0315   0.0055  -0.0141   0.0059   0.00    0.0
2021/10/03 02:37:42.000   28 35 34.11504  -17 55 01.60120    73.3328   6   5   0.0082   0.0204   0.0315   0.0055  -0.0141   0.0059   0.00    0.0
2021/10/03 02:38:12.000   28 35 34.11505  -17 55 01.60121    73.3331   6   5   0.0082   0.0204   0.0315   0.0055  -0.0141   0.0059   0.00    0.0
2021/10/03 02:38:42.000   28 35 34.11506  -17 55 01.60120    73.3338   6   5   0.0082   0.0204   0.0315   0.0055  -0.0141   0.0059   0.00    0.0
2021/10/03 02:39:12.000   28 35 34.11507  -17 55 01.60122    73.3354   6   5   0.0081   0.0203   0.0314   0.0055  -0.0141   0.0057   0.00    0.0
2021/10/03 02:39:42.000   28 35 34.11507  -17 55 01.60126    73.3349   6   5   0.0080   0.0199   0.0312   0.0055  -0.0141   0.0052   0.00    0.0
2021/10/03 02:40:12.000   28 35 34.11507  -17 55 01.60128    73.3350   6   5   0.0080   0.0198   0.0312   0.0055  -0.0141   0.0051   0.00    0.0
2021/10/03 02:40:42.000   28 35 34.11507  -17 55 01.60129    73.3352   6   5   0.0080   0.0197   0.0311   0.0055  -0.0141   0.0051   0.00    0.0
2021/10/03 02:41:12.000   28 35 34.11507  -17 55 01.60129    73.3356   6   5   0.0080   0.0197   0.0311   0.0055  -0.0141   0.0051   0.00    0.0
2021/10/03 02:41:42.000   28 35 34.11507  -17 55 01.60129    73.3358   6   5   0.0079   0.0197   0.0311   0.0055  -0.0141   0.0050   0.00    0.0
2021/10/03 02:42:12.000   28 35 34.11507  -17 55 01.60128    73.3359   6   5   0.0079   0.0197   0.0311   0.0055  -0.0141   0.0050   0.00    0.0
2021/10/03 02:42:42.000   28 35 34.11508  -17 55 01.60128    73.3360   6   5   0.0079   0.0197   0.0311   0.0055  -0.0141   0.0050   0.00    0.0
2021/10/03 02:43:12.000   28 35 34.11508  -17 55 01.60127    73.3361   6   5   0.0079   0.0197   0.0311   0.0055  -0.0141   0.0050   0.00    0.0
2021/10/03 02:43:42.000   28 35 34.11508  -17 55 01.60126    73.3357   6   5   0.0079   0.0196   0.0311   0.0055  -0.0141   0.0050   0.00    0.0
2021/10/03 02:44:12.000   28 35 34.11509  -17 55 01.60126    73.3362   6   5   0.0079   0.0195   0.0310   0.0055  -0.0141   0.0048   0.00    0.0
2021/10/03 02:44:42.000   28 35 34.11508  -17 55 01.60131    73.3350   6   5   0.0078   0.0192   0.0308   0.0056  -0.0142   0.0043   0.00    0.0
2021/10/03 02:45:12.000   28 35 34.11508  -17 55 01.60131    73.3355   6   5   0.0077   0.0191   0.0308   0.0056  -0.0142   0.0041   0.00    0.0
2021/10/03 02:45:42.000   28 35 34.11509  -17 55 01.60131    73.3356   6   5   0.0077   0.0191   0.0307   0.0056  -0.0142   0.0041   0.00    0.0
2021/10/03 02:46:12.000   28 35 34.11509  -17 55 01.60130    73.3357   6   5   0.0077   0.0191   0.0307   0.0056  -0.0142   0.0041   0.00    0.0
2021/10/03 02:46:42.000   28 35 34.11509  -17 55 01.60129    73.3358   6   5   0.0077   0.0191   0.0307   0.0056  -0.0142   0.0041   0.00    0.0
2021/10/03 02:47:12.000   28 35 34.11509  -17 55 01.60129    73.3357   6   5   0.0077   0.0191   0.0307   0.0056  -0.0142   0.0040   0.00    0.0
2021/10/03 02:47:42.000   28 35 34.11509  -17 55 01.60129    73.3356   6   5   0.0077   0.0191   0.0307   0.0056  -0.0142   0.0040   0.00    0.0
2021/10/03 02:48:12.000   28 35 34.11509  -17 55 01.60129    73.3355   6   5   0.0077   0.0191   0.0307   0.0056  -0.0142   0.0040   0.00    0.0
2021/10/03 02:48:42.000   28 35 34.11509  -17 55 01.60129    73.3355   6   5   0.0077   0.0190   0.0307   0.0056  -0.0142   0.0040   0.00    0.0
2021/10/03 02:49:12.000   28 35 34.11509  -17 55 01.60130    73.3356   6   5   0.0076   0.0189   0.0306   0.0056  -0.0142   0.0038   0.00    0.0
2021/10/03 02:49:42.000   28 35 34.11509  -17 55 01.60138    73.3344   6   5   0.0075   0.0187   0.0304   0.0056  -0.0143   0.0032   0.00    0.0
2021/10/03 02:50:12.000   28 35 34.11506  -17 55 01.60140    73.3323   6   5   0.0075   0.0186   0.0304   0.0056  -0.0143   0.0030   0.00    0.0
2021/10/03 02:50:42.000   28 35 34.11506  -17 55 01.60140    73.3319   6   5   0.0075   0.0186   0.0303   0.0056  -0.0143   0.0029   0.00    0.0
2021/10/03 02:51:12.000   28 35 34.11506  -17 55 01.60140    73.3318   6   5   0.0075   0.0186   0.0303   0.0056  -0.0143   0.0029   0.00    0.0
2021/10/03 02:51:42.000   28 35 34.11506  -17 55 01.60139    73.3317   6   6   0.0075   0.0185   0.0303   0.0056  -0.0143   0.0029   0.00    0.0
2021/10/03 02:52:12.000   28 35 34.11506  -17 55 01.60138    73.3315   6   6   0.0075   0.0185   0.0303   0.0056  -0.0143   0.0029   0.00    0.0
2021/10/03 02:52:42.000   28 35 34.11506  -17 55 01.60137    73.3315   6   6   0.0075   0.0185   0.0303   0.0056  -0.0143   0.0029   0.00    0.0
2021/10/03 02:53:12.000   28 35 34.11506  -17 55 01.60136    73.3314   6   6   0.0075   0.0185   0.0303   0.0056  -0.0143   0.0028   0.00    0.0
2021/10/03 02:53:42.000   28 35 34.11506  -17 55 01.60136    73.3314   6   6   0.0075   0.0185   0.0303   0.0056  -0.0143   0.0028   0.00    0.0
2021/10/03 02:54:12.000   28 35 34.11506  -17 55 01.60137    73.3314   6   6   0.0074   0.0184   0.0302   0.0057  -0.0143   0.0026   0.00    0.0
2021/10/03 02:54:42.000   28 35 34.11506  -17 55 01.60140    73.3313   6   6   0.0073   0.0182   0.0300   0.0057  -0.0144   0.0017   0.00    0.0
2021/10/03 02:55:12.000   28 35 34.11506  -17 55 01.60142    73.3313   6   6   0.0073   0.0181   0.0300   0.0057  -0.0144   0.0014   0.00    0.0
2021/10/03 02:55:42.000   28 35 34.11506  -17 55 01.60142    73.3316   6   6   0.0073   0.0181   0.0300   0.0057  -0.0144   0.0013   0.00    0.0
2021/10/03 02:56:12.000   28 35 34.11506  -17 55 01.60141    73.3316   6   6   0.0073   0.0181   0.0300   0.0057  -0.0144   0.0012   0.00    0.0
2021/10/03 02:56:42.000   28 35 34.11506  -17 55 01.60140    73.3316   6   6   0.0073   0.0181   0.0300   0.0057  -0.0144   0.0012   0.00    0.0
2021/10/03 02:57:12.000   28 35 34.11506  -17 55 01.60139    73.3316   6   6   0.0073   0.0181   0.0299   0.0057  -0.0144   0.0012   0.00    0.0
2021/10/03 02:57:42.000   28 35 34.11507  -17 55 01.60138    73.3317   6   6   0.0073   0.0181   0.0299   0.0057  -0.0144   0.0011   0.00    0.0
2021/10/03 02:58:12.000   28 35 34.11507  -17 55 01.60138    73.3321   6   6   0.0073   0.0181   0.0299   0.0057  -0.0144   0.0010   0.00    0.0
2021/10/03 02:58:42.000   28 35 34.11508  -17 55 01.60139    73.3328   6   6   0.0073   0.0181   0.0299   0.0057  -0.0144   0.0009   0.00    0.0
2021/10/03 02:59:12.000   28 35 34.11510  -17 55 01.60142    73.3346   6   6   0.0073   0.0180   0.0298   0.0057  -0.0145  -0.0005   0.00    0.0
2021/10/03 02:59:42.000   28 35 34.11509  -17 55 01.60145    73.3343   6   6   0.0072   0.0178   0.0296   0.0058  -0.0145  -0.0019   0.00    0.0
2021/10/03 03:00:12.000   28 35 34.11508  -17 55 01.60147    73.3334   6   6   0.0071   0.0178   0.0296   0.0058  -0.0145  -0.0021   0.00    0.0
2021/10/03 03:00:42.000   28 35 34.11508  -17 55 01.60148    73.3336   6   6   0.0071   0.0177   0.0296   0.0058  -0.0146  -0.0021   0.00    0.0
2021/10/03 03:01:12.000   28 35 34.11508  -17 55 01.60149    73.3336   6   7   0.0071   0.0177   0.0296   0.0058  -0.0146  -0.0022   0.00    0.0
2021/10/03 03:01:42.000   28 35 34.11508  -17 55 01.60149    73.3337   6   7   0.0071   0.0177   0.0296   0.0058  -0.0146  -0.0022   0.00    0.0
2021/10/03 03:02:12.000   28 35 34.11509  -17 55 01.60149    73.3336   6   7   0.0071   0.0177   0.0295   0.0058  -0.0146  -0.0022   0.00    0.0
2021/10/03 03:02:42.000   28 35 34.11509  -17 55 01.60148    73.3335   6   7   0.0071   0.0177   0.0295   0.0058  -0.0146  -0.0022   0.00    0.0
2021/10/03 03:03:12.000   28 35 34.11509  -17 55 01.60148    73.3336   6   7   0.0071   0.0177   0.0295   0.0058  -0.0146  -0.0022   0.00    0.0
2021/10/03 03:03:42.000   28 35 34.11509  -17 55 01.60148    73.3332   6   7   0.0071   0.0177   0.0295   0.0058  -0.0146  -0.0023   0.00    0.0
2021/10/03 03:04:12.000   28 35 34.11509  -17 55 01.60147    73.3334   6   7   0.0071   0.0177   0.0294   0.0058  -0.0146  -0.0025   0.00    0.0
2021/10/03 03:04:42.000   28 35 34.11508  -17 55 01.60145    73.3338   6   7   0.0070   0.0175   0.0292   0.0058  -0.0147  -0.0030   0.00    0.0
2021/10/03 03:05:12.000   28 35 34.11509  -17 55 01.60145    73.3338   6   7   0.0070   0.0175   0.0292   0.0058  -0.0147  -0.0031   0.00    0.0
2021/10/03 03:05:42.000   28 35 34.11509  -17 55 01.60145    73.3333   6   7   0.0070   0.0174   0.0292   0.0058  -0.0147  -0.0031   0.00    0.0
2021/10/03 03:06:12.000   28 35 34.11508  -17 55 01.60146    73.3327   6   7   0.0070   0.0174   0.0291   0.0058  -0.0147  -0.0032   0.00    0.0
2021/10/03 03:06:42.000   28 35 34.11508  -17 55 01.60146    73.3322   6   7   0.0070   0.0174   0.0291   0.0058  -0.0147  -0.0032   0.00    0.0
2021/10/03 03:07:12.000   28 35 34.11508  -17 55 01.60145    73.3317   6   7   0.0070   0.0174   0.0291   0.0058  -0.0147  -0.0032   0.00    0.0
2021/10/03 03:07:42.000   28 35 34.11508  -17 55 01.60145    73.3314   6   7   0.0070   0.0174   0.0291   0.0058  -0.0147  -0.0032   0.00    0.0
2021/10/03 03:08:12.000   28 35 34.11508  -17 55 01.60144    73.3310   6   7   0.0070   0.0174   0.0291   0.0058  -0.0147  -0.0032   0.00    0.0
2021/10/03 03:08:42.000   28 35 34.11508  -17 55 01.60144    73.3307   6   7   0.0070   0.0174   0.0291   0.0058  -0.0147  -0.0032   0.00    0.0
2021/10/03 03:09:12.000   28 35 34.11507  -17 55 01.60145    73.3299   6   7   0.0069   0.0174   0.0290   0.0058  -0.0147  -0.0033   0.00    0.0
2021/10/03 03:09:42.000   28 35 34.11507  -17 55 01.60143    73.3302   6   7   0.0069   0.0172   0.0288   0.0059  -0.0148  -0.0037   0.00    0.0
2021/10/03 03:10:12.000   28 35 34.11505  -17 55 01.60143    73.3293   6   7   0.0068   0.0172   0.0288   0.0059  -0.0148  -0.0038   0.00    0.0
2021/10/03 03:10:42.000   28 35 34.11505  -17 55 01.60142    73.3296   6   7   0.0068   0.0172   0.0287   0.0059  -0.0148  -0.0038   0.00    0.0
2021/10/03 03:11:12.000   28 35 34.11505  -17 55 01.60141    73.3298   6   7   0.0068   0.0172   0.0287   0.0059  -0.0148  -0.0038   0.00    0.0
2021/10/03 03:11:42.000   28 35 34.11505  -17 55 01.60140    73.3297   6   7   0.0068   0.0172   0.0287   0.0059  -0.0148  -0.0038   0.00    0.0
2021/10/03 03:12:12.000   28 35 34.11505  -17 55 01.60140    73.3296   6   7   0.0068   0.0172   0.0287   0.0059  -0.0148  -0.0038   0.00    0.0
2021/10/03 03:12:42.000   28 35 34.11506  -17 55 01.60139    73.3296   6   7   0.0068   0.0172   0.0287   0.0059  -0.0148  -0.0038   0.00    0.0
2021/10/03 03:13:12.000   28 35 34.11506  -17 55 01.60138    73.3298   6   7   0.0068   0.0172   0.0287   0.0059  -0.0148  -0.0038   0.00    0.0
2021/10/03 03:13:42.000   28 35 34.11506  -17 55 01.60137    73.3303   6   7   0.0068   0.0172   0.0287   0.0059  -0.0148  -0.0038   0.00    0.0
2021/10/03 03:14:12.000   28 35 34.11505  -17 55 01.60135    73.3299   6   7   0.0068   0.0171   0.0286   0.0059  -0.0148  -0.0039   0.00    0.0
2021/10/03 03:14:42.000   28 35 34.11505  -17 55 01.60134    73.3302   6   7   0.0067   0.0171   0.0284   0.0060  -0.0149  -0.0041   0.00    0.0
2021/10/03 03:15:12.000   28 35 34.11504  -17 55 01.60134    73.3292   6   7   0.0067   0.0170   0.0284   0.0060  -0.0149  -0.0042   0.00    0.0
2021/10/03 03:15:42.000   28 35 34.11503  -17 55 01.60134    73.3293   6   7   0.0067   0.0170   0.0283   0.0060  -0.0149  -0.0042   0.00    0.0
2021/10/03 03:16:12.000   28 35 34.11503  -17 55 01.60133    73.3295   6   8   0.0067   0.0170   0.0283   0.0060  -0.0149  -0.0042   0.00    0.0
2021/10/03 03:16:42.000   28 35 34.11503  -17 55 01.60132    73.3296   6   8   0.0067   0.0170   0.0283   0.0060  -0.0149  -0.0042   0.00    0.0
2021/10/03 03:17:12.000   28 35 34.11503  -17 55 01.60131    73.3297   6   8   0.0067   0.0170   0.0283   0.0060  -0.0149  -0.0042   0.00    0.0
2021/10/03 03:17:42.000   28 35 34.11503  -17 55 01.60130    73.3298   6   8   0.0067   0.0170   0.0283   0.0060  -0.0149  -0.0042   0.00    0.0
2021/10/03 03:18:12.000   28 35 34.11502  -17 55 01.60130    73.3301   6   8   0.0067   0.0170   0.0283   0.0060  -0.0149  -0.0043   0.00    0.0
2021/10/03 03:18:42.000   28 35 34.11502  -17 55 01.60129    73.3310   6   8   0.0067   0.0170   0.0283   0.0060  -0.0149  -0.0043   0.00    0.0
2021/10/03 03:19:12.000   28 35 34.11502  -17 55 01.60126    73.3327   6   8   0.0067   0.0170   0.0282   0.0060  -0.0149  -0.0043   0.00    0.0
2021/10/03 03:19:42.000   28 35 34.11503  -17 55 01.60127    73.3331   6   8   0.0066   0.0169   0.0280   0.0060  -0.0150  -0.0045   0.00    0.0
2021/10/03 03:20:12.000   28 35 34.11504  -17 55 01.60127    73.3334   6   8   0.0066   0.0169   0.0280   0.0060  -0.0150  -0.0045   0.00    0.0
2021/10/03 03:20:42.000   28 35 34.11504  -17 55 01.60127    73.3334   6   8   0.0066   0.0169   0.0279   0.0060  -0.0150  -0.0046   0.00    0.0
2021/10/03 03:21:12.000   28 35 34.11504  -17 55 01.60126    73.3334   6   8   0.0066   0.0169   0.0279   0.0060  -0.0150  -0.0046   0.00    0.0
2021/10/03 03:21:42.000   28 35 34.11504  -17 55 01.60125    73.3334   6   8   0.0066   0.0169   0.0279   0.0060  -0.0150  -0.0046   0.00    0.0
2021/10/03 03:22:12.000   28 35 34.11504  -17 55 01.60125    73.3335   6   8   0.0066   0.0169   0.0279   0.0060  -0.0150  -0.0046   0.00    0.0
2021/10/03 03:22:42.000   28 35 34.11504  -17 55 01.60124    73.3335   6   8   0.0066   0.0169   0.0279   0.0060  -0.0150  -0.0046   0.00    0.0
2021/10/03 03:23:12.000   28 35 34.11504  -17 55 01.60123    73.3333   6   8   0.0066   0.0169   0.0279   0.0060  -0.0150  -0.0046   0.00    0.0
