% program   : RTKLIB ver.2.4.2
% inp file  : C:\IPNA\data\OBS\CVBB2820.o
% inp file  : C:\IPNA\data\NAV\CVBB2820.n
% inp file  : C:\IPNA\data\SP3\CVBB2820.sp3
% inp file  : C:\IPNA\data\CLOCK\CVBB2820.clk
% obs start : 2021/10/08 23:59:42.0 UTC (week2178 518400.0s)
% obs end   : 2021/10/09 23:59:12.0 UTC (week2178 604770.0s)
% pos mode  : ppp-static
% solution  : forward
% elev mask : 15.0 deg
% dynamics  : off
% tidecorr  : on
% tropo opt : est ztd
% ephemeris : precise
% antenna1  :                       ( 0.0000  0.0000  0.0000)
%
% (lat/lon/height=WGS84/ellipsoidal,Q=1:fix,2:float,3:sbas,4:dgps,5:single,6:ppp,ns=# of satellites)
%  UTC                     latitude(d'")   longitude(d'")  height(m)   Q  ns   sdn(m)   sde(m)   sdu(m)  sdne(m)  sdeu(m)  sdue(m) age(s)  ratio
2021/10/08 23:59:42.000   28 35 34.07076  -17 55 01.59204    75.3944   6   6   1.6172   1.4393   4.9464  -0.5570   0.8375  -1.9028   0.00    0.0
2021/10/09 00:00:12.000   28 35 34.07885  -17 55 01.59701    75.6639   6   6   1.1186   1.0157   3.2588  -0.3765   0.5358  -1.2583   0.00    0.0
2021/10/09 00:00:42.000   28 35 34.08703  -17 55 01.60154    75.6164   6   6   0.9041   0.8286   2.5760  -0.3009   0.4190  -0.9972   0.00    0.0
2021/10/09 00:01:12.000   28 35 34.09109  -17 55 01.60573    75.2071   6   6   0.7783   0.7174   2.1904  -0.2571   0.3548  -0.8493   0.00    0.0
2021/10/09 00:01:42.000   28 35 34.09025  -17 55 01.60875    75.3225   6   6   0.6934   0.6416   1.9369  -0.2278   0.3134  -0.7517   0.00    0.0
2021/10/09 00:02:12.000   28 35 34.08999  -17 55 01.60960    75.3044   6   6   0.6313   0.5858   1.7551  -0.2065   0.2843  -0.6814   0.00    0.0
2021/10/09 00:02:42.000   28 35 34.09031  -17 55 01.61309    75.0785   6   6   0.5773   0.5418   1.5854  -0.1860   0.2478  -0.6107   0.00    0.0
2021/10/09 00:03:12.000   28 35 34.09325  -17 55 01.61424    74.4845   6   6   0.5251   0.5055   1.3898  -0.1635   0.1959  -0.5279   0.00    0.0
2021/10/09 00:03:42.000   28 35 34.09851  -17 55 01.61385    73.9312   6   6   0.4672   0.4742   1.1449  -0.1357   0.1055  -0.4212   0.00    0.0
2021/10/09 00:04:12.000   28 35 34.10457  -17 55 01.61415    73.4517   6   6   0.3929   0.4458   0.8439  -0.0986  -0.1283  -0.2816   0.00    0.0
2021/10/09 00:04:42.000   28 35 34.10387  -17 55 01.61241    73.5017   6   6   0.3139   0.4195   0.6029  -0.0632  -0.1764  -0.1528   0.00    0.0
2021/10/09 00:05:12.000   28 35 34.10178  -17 55 01.60980    73.6638   6   6   0.2959   0.4010   0.5712  -0.0578  -0.1719  -0.1380   0.00    0.0
2021/10/09 00:05:42.000   28 35 34.10116  -17 55 01.60846    73.7074   6   6   0.2861   0.3854   0.5582  -0.0560  -0.1650  -0.1339   0.00    0.0
2021/10/09 00:06:12.000   28 35 34.10071  -17 55 01.60882    73.7138   6   6   0.2787   0.3717   0.5498  -0.0550  -0.1582  -0.1321   0.00    0.0
2021/10/09 00:06:42.000   28 35 34.10042  -17 55 01.60875    73.7038   6   6   0.2723   0.3595   0.5433  -0.0543  -0.1517  -0.1313   0.00    0.0
2021/10/09 00:07:12.000   28 35 34.10095  -17 55 01.60810    73.6979   6   6   0.2667   0.3484   0.5378  -0.0537  -0.1457  -0.1309   0.00    0.0
2021/10/09 00:07:42.000   28 35 34.10159  -17 55 01.60971    73.6999   6   6   0.2604   0.3382   0.5301  -0.0526  -0.1409  -0.1287   0.00    0.0
2021/10/09 00:08:12.000   28 35 34.10162  -17 55 01.60954    73.6883   6   6   0.2526   0.3287   0.5174  -0.0506  -0.1378  -0.1228   0.00    0.0
2021/10/09 00:08:42.000   28 35 34.10273  -17 55 01.61015    73.5994   6   6   0.2407   0.3194   0.4939  -0.0468  -0.1378  -0.1082   0.00    0.0
2021/10/09 00:09:12.000   28 35 34.10516  -17 55 01.60995    73.4427   6   6   0.2178   0.3095   0.4448  -0.0393  -0.1438  -0.0653   0.00    0.0
2021/10/09 00:09:42.000   28 35 34.10701  -17 55 01.60880    73.3414   6   6   0.1814   0.2978   0.3769  -0.0328  -0.1528   0.0730   0.00    0.0
2021/10/09 00:10:12.000   28 35 34.10777  -17 55 01.60790    73.2713   6   6   0.1735   0.2902   0.3663  -0.0318  -0.1514   0.0788   0.00    0.0
2021/10/09 00:10:42.000   28 35 34.10779  -17 55 01.60735    73.2601   6   6   0.1701   0.2839   0.3623  -0.0314  -0.1488   0.0797   0.00    0.0
2021/10/09 00:11:12.000   28 35 34.10748  -17 55 01.60799    73.2783   6   6   0.1678   0.2781   0.3598  -0.0310  -0.1460   0.0795   0.00    0.0
2021/10/09 00:11:42.000   28 35 34.10753  -17 55 01.61006    73.2922   6   6   0.1659   0.2728   0.3580  -0.0307  -0.1433   0.0790   0.00    0.0
2021/10/09 00:12:12.000   28 35 34.10783  -17 55 01.61165    73.3073   6   6   0.1643   0.2678   0.3565  -0.0304  -0.1406   0.0783   0.00    0.0
2021/10/09 00:12:42.000   28 35 34.10792  -17 55 01.61299    73.3167   6   6   0.1624   0.2630   0.3545  -0.0300  -0.1382   0.0780   0.00    0.0
2021/10/09 00:13:12.000   28 35 34.10800  -17 55 01.61256    73.3095   6   6   0.1597   0.2583   0.3513  -0.0295  -0.1363   0.0788   0.00    0.0
2021/10/09 00:13:42.000   28 35 34.10785  -17 55 01.61195    73.3140   6   6   0.1553   0.2534   0.3455  -0.0290  -0.1352   0.0819   0.00    0.0
2021/10/09 00:14:12.000   28 35 34.10798  -17 55 01.61082    73.2853   6   6   0.1457   0.2477   0.3322  -0.0294  -0.1364   0.0908   0.00    0.0
2021/10/09 00:14:42.000   28 35 34.10897  -17 55 01.61054    73.2287   6   6   0.1276   0.2399   0.3083  -0.0350  -0.1412   0.1060   0.00    0.0
2021/10/09 00:15:12.000   28 35 34.10842  -17 55 01.61072    73.2445   6   6   0.1244   0.2356   0.3050  -0.0336  -0.1398   0.1093   0.00    0.0
2021/10/09 00:15:42.000   28 35 34.10788  -17 55 01.61063    73.2495   6   6   0.1230   0.2321   0.3036  -0.0328  -0.1381   0.1100   0.00    0.0
2021/10/09 00:16:12.000   28 35 34.10775  -17 55 01.61013    73.2403   6   6   0.1221   0.2289   0.3025  -0.0322  -0.1364   0.1100   0.00    0.0
2021/10/09 00:16:42.000   28 35 34.10757  -17 55 01.60911    73.2215   6   6   0.1214   0.2259   0.3016  -0.0317  -0.1346   0.1098   0.00    0.0
2021/10/09 00:17:12.000   28 35 34.10742  -17 55 01.60844    73.2113   6   6   0.1207   0.2230   0.3008  -0.0312  -0.1329   0.1095   0.00    0.0
2021/10/09 00:17:42.000   28 35 34.10734  -17 55 01.60822    73.2102   6   6   0.1200   0.2202   0.2999  -0.0307  -0.1313   0.1093   0.00    0.0
2021/10/09 00:18:12.000   28 35 34.10735  -17 55 01.60813    73.2149   6   6   0.1189   0.2174   0.2987  -0.0301  -0.1299   0.1096   0.00    0.0
2021/10/09 00:18:42.000   28 35 34.10711  -17 55 01.60842    73.2324   6   6   0.1172   0.2144   0.2968  -0.0295  -0.1288   0.1109   0.00    0.0
2021/10/09 00:19:12.000   28 35 34.10752  -17 55 01.60899    73.2014   6   6   0.1134   0.2108   0.2926  -0.0294  -0.1286   0.1150   0.00    0.0
2021/10/09 00:19:42.000   28 35 34.10829  -17 55 01.60914    73.1569   6   6   0.1054   0.2054   0.2845  -0.0328  -0.1300   0.1232   0.00    0.0
2021/10/09 00:20:12.000   28 35 34.10807  -17 55 01.60933    73.1607   6   6   0.1036   0.2024   0.2824  -0.0330  -0.1295   0.1241   0.00    0.0
2021/10/09 00:20:42.000   28 35 34.10775  -17 55 01.60913    73.1578   6   6   0.1028   0.2001   0.2812  -0.0328  -0.1284   0.1241   0.00    0.0
2021/10/09 00:21:12.000   28 35 34.10752  -17 55 01.60939    73.1643   6   6   0.1023   0.1981   0.2803  -0.0325  -0.1273   0.1238   0.00    0.0
2021/10/09 00:21:42.000   28 35 34.10740  -17 55 01.60929    73.1616   6   6   0.1018   0.1961   0.2796  -0.0321  -0.1260   0.1235   0.00    0.0
2021/10/09 00:22:12.000   28 35 34.10721  -17 55 01.60930    73.1549   6   6   0.1015   0.1942   0.2788  -0.0317  -0.1248   0.1231   0.00    0.0
2021/10/09 00:22:42.000   28 35 34.10702  -17 55 01.60927    73.1460   6   6   0.1010   0.1924   0.2780  -0.0314  -0.1237   0.1228   0.00    0.0
2021/10/09 00:23:12.000   28 35 34.10687  -17 55 01.60931    73.1489   6   6   0.1004   0.1904   0.2771  -0.0311  -0.1227   0.1226   0.00    0.0
2021/10/09 00:23:42.000   28 35 34.10670  -17 55 01.60905    73.1595   6   6   0.0995   0.1883   0.2757  -0.0312  -0.1219   0.1227   0.00    0.0
2021/10/09 00:24:12.000   28 35 34.10669  -17 55 01.60869    73.1993   6   6   0.0974   0.1855   0.2729  -0.0324  -0.1219   0.1237   0.00    0.0
2021/10/09 00:24:42.000   28 35 34.10767  -17 55 01.60779    73.1366   6   6   0.0923   0.1806   0.2672  -0.0373  -0.1236   0.1259   0.00    0.0
2021/10/09 00:25:12.000   28 35 34.10755  -17 55 01.60728    73.1126   6   6   0.0911   0.1783   0.2652  -0.0379  -0.1232   0.1259   0.00    0.0
2021/10/09 00:25:42.000   28 35 34.10735  -17 55 01.60690    73.1007   6   6   0.0906   0.1766   0.2641  -0.0378  -0.1224   0.1257   0.00    0.0
2021/10/09 00:26:12.000   28 35 34.10723  -17 55 01.60660    73.0938   6   6   0.0902   0.1751   0.2633  -0.0375  -0.1215   0.1253   0.00    0.0
2021/10/09 00:26:42.000   28 35 34.10724  -17 55 01.60626    73.0912   6   6   0.0899   0.1737   0.2625  -0.0371  -0.1205   0.1250   0.00    0.0
2021/10/09 00:27:12.000   28 35 34.10725  -17 55 01.60607    73.0915   6   6   0.0896   0.1724   0.2618  -0.0368  -0.1196   0.1246   0.00    0.0
2021/10/09 00:27:42.000   28 35 34.10732  -17 55 01.60615    73.0980   6   6   0.0893   0.1711   0.2610  -0.0364  -0.1187   0.1243   0.00    0.0
2021/10/09 00:28:12.000   28 35 34.10734  -17 55 01.60638    73.0961   6   6   0.0889   0.1697   0.2601  -0.0362  -0.1178   0.1239   0.00    0.0
2021/10/09 00:28:42.000   28 35 34.10743  -17 55 01.60614    73.0796   6   6   0.0882   0.1680   0.2587  -0.0362  -0.1170   0.1236   0.00    0.0
2021/10/09 00:29:12.000   28 35 34.10757  -17 55 01.60595    73.0537   6   6   0.0867   0.1655   0.2558  -0.0371  -0.1166   0.1232   0.00    0.0
2021/10/09 00:29:42.000   28 35 34.10832  -17 55 01.60565    73.0408   6   6   0.0825   0.1605   0.2493  -0.0404  -0.1170   0.1220   0.00    0.0
2021/10/09 00:30:12.000   28 35 34.10846  -17 55 01.60531    73.0634   6   6   0.0814   0.1584   0.2469  -0.0407  -0.1163   0.1213   0.00    0.0
2021/10/09 00:30:42.000   28 35 34.10835  -17 55 01.60490    73.0571   6   6   0.0810   0.1571   0.2457  -0.0405  -0.1155   0.1209   0.00    0.0
2021/10/09 00:31:12.000   28 35 34.10831  -17 55 01.60499    73.0583   6   6   0.0807   0.1559   0.2448  -0.0401  -0.1147   0.1205   0.00    0.0
2021/10/09 00:31:42.000   28 35 34.10833  -17 55 01.60493    73.0587   6   6   0.0804   0.1549   0.2440  -0.0398  -0.1139   0.1201   0.00    0.0
2021/10/09 00:32:12.000   28 35 34.10827  -17 55 01.60482    73.0547   6   6   0.0802   0.1540   0.2434  -0.0394  -0.1131   0.1198   0.00    0.0
2021/10/09 00:32:42.000   28 35 34.10828  -17 55 01.60479    73.0545   6   6   0.0799   0.1530   0.2426  -0.0391  -0.1123   0.1194   0.00    0.0
2021/10/09 00:33:12.000   28 35 34.10830  -17 55 01.60476    73.0512   6   6   0.0796   0.1519   0.2415  -0.0388  -0.1114   0.1189   0.00    0.0
2021/10/09 00:33:42.000   28 35 34.10832  -17 55 01.60490    73.0436   6   6   0.0790   0.1504   0.2398  -0.0385  -0.1105   0.1183   0.00    0.0
2021/10/09 00:34:12.000   28 35 34.10871  -17 55 01.60491    73.0336   6   6   0.0775   0.1479   0.2359  -0.0385  -0.1091   0.1168   0.00    0.0
2021/10/09 00:34:42.000   28 35 34.10965  -17 55 01.60435    73.0512   6   6   0.0731   0.1423   0.2266  -0.0394  -0.1069   0.1127   0.00    0.0
2021/10/09 00:35:12.000   28 35 34.10962  -17 55 01.60432    73.0707   6   6   0.0720   0.1403   0.2234  -0.0391  -0.1056   0.1114   0.00    0.0
2021/10/09 00:35:42.000   28 35 34.10960  -17 55 01.60438    73.0858   6   6   0.0716   0.1392   0.2219  -0.0387  -0.1047   0.1107   0.00    0.0
2021/10/09 00:36:12.000   28 35 34.10957  -17 55 01.60453    73.0873   6   6   0.0713   0.1383   0.2210  -0.0384  -0.1039   0.1103   0.00    0.0
2021/10/09 00:36:42.000   28 35 34.10950  -17 55 01.60435    73.0794   6   6   0.0711   0.1376   0.2202  -0.0381  -0.1032   0.1099   0.00    0.0
2021/10/09 00:37:12.000   28 35 34.10943  -17 55 01.60437    73.0731   6   6   0.0709   0.1369   0.2196  -0.0377  -0.1025   0.1096   0.00    0.0
2021/10/09 00:37:42.000   28 35 34.10929  -17 55 01.60439    73.0616   6   6   0.0707   0.1361   0.2188  -0.0374  -0.1018   0.1092   0.00    0.0
2021/10/09 00:38:12.000   28 35 34.10913  -17 55 01.60455    73.0558   6   6   0.0703   0.1352   0.2177  -0.0370  -0.1010   0.1087   0.00    0.0
2021/10/09 00:38:42.000   28 35 34.10915  -17 55 01.60465    73.0563   6   6   0.0697   0.1339   0.2156  -0.0365  -0.0997   0.1077   0.00    0.0
2021/10/09 00:39:12.000   28 35 34.10955  -17 55 01.60458    73.0757   6   6   0.0681   0.1315   0.2107  -0.0356  -0.0975   0.1054   0.00    0.0
2021/10/09 00:39:42.000   28 35 34.11050  -17 55 01.60433    73.0896   6   6   0.0634   0.1254   0.1989  -0.0345  -0.0929   0.0993   0.00    0.0
2021/10/09 00:40:12.000   28 35 34.11067  -17 55 01.60405    73.0712   6   6   0.0622   0.1235   0.1951  -0.0337  -0.0910   0.0975   0.00    0.0
2021/10/09 00:40:42.000   28 35 34.11072  -17 55 01.60400    73.0707   6   6   0.0618   0.1225   0.1935  -0.0333  -0.0901   0.0967   0.00    0.0
2021/10/09 00:41:12.000   28 35 34.11076  -17 55 01.60390    73.0730   6   6   0.0615   0.1218   0.1926  -0.0329  -0.0894   0.0963   0.00    0.0
2021/10/09 00:41:42.000   28 35 34.11076  -17 55 01.60380    73.0739   6   6   0.0613   0.1213   0.1919  -0.0327  -0.0888   0.0959   0.00    0.0
2021/10/09 00:42:12.000   28 35 34.11079  -17 55 01.60386    73.0783   6   6   0.0612   0.1207   0.1914  -0.0324  -0.0883   0.0957   0.00    0.0
2021/10/09 00:42:42.000   28 35 34.11080  -17 55 01.60387    73.0788   6   7   0.0610   0.1201   0.1906  -0.0320  -0.0875   0.0953   0.00    0.0
2021/10/09 00:43:12.000   28 35 34.11081  -17 55 01.60382    73.0760   6   7   0.0606   0.1193   0.1893  -0.0315  -0.0865   0.0947   0.00    0.0
2021/10/09 00:43:42.000   28 35 34.11079  -17 55 01.60386    73.0737   6   7   0.0600   0.1181   0.1871  -0.0307  -0.0851   0.0936   0.00    0.0
2021/10/09 00:44:12.000   28 35 34.11062  -17 55 01.60393    73.0558   6   7   0.0583   0.1156   0.1815  -0.0293  -0.0822   0.0908   0.00    0.0
2021/10/09 00:44:42.000   28 35 34.11147  -17 55 01.60425    73.1074   6   7   0.0537   0.1095   0.1688  -0.0269  -0.0763   0.0838   0.00    0.0
2021/10/09 00:45:12.000   28 35 34.11168  -17 55 01.60433    73.1194   6   7   0.0525   0.1076   0.1647  -0.0258  -0.0741   0.0818   0.00    0.0
2021/10/09 00:45:42.000   28 35 34.11175  -17 55 01.60445    73.1236   6   7   0.0521   0.1068   0.1630  -0.0253  -0.0730   0.0810   0.00    0.0
2021/10/09 00:46:12.000   28 35 34.11174  -17 55 01.60441    73.1232   6   7   0.0518   0.1062   0.1620  -0.0248  -0.0723   0.0805   0.00    0.0
2021/10/09 00:46:42.000   28 35 34.11174  -17 55 01.60440    73.1238   6   7   0.0516   0.1057   0.1613  -0.0245  -0.0717   0.0802   0.00    0.0
2021/10/09 00:47:12.000   28 35 34.11172  -17 55 01.60422    73.1215   6   7   0.0515   0.1052   0.1608  -0.0242  -0.0711   0.0799   0.00    0.0
2021/10/09 00:47:42.000   28 35 34.11170  -17 55 01.60406    73.1189   6   7   0.0513   0.1047   0.1599  -0.0238  -0.0705   0.0795   0.00    0.0
2021/10/09 00:48:12.000   28 35 34.11172  -17 55 01.60393    73.1172   6   7   0.0509   0.1041   0.1585  -0.0233  -0.0696   0.0787   0.00    0.0
2021/10/09 00:48:42.000   28 35 34.11182  -17 55 01.60390    73.1218   6   7   0.0502   0.1031   0.1557  -0.0223  -0.0680   0.0773   0.00    0.0
2021/10/09 00:49:12.000   28 35 34.11205  -17 55 01.60387    73.1366   6   7   0.0485   0.1009   0.1493  -0.0204  -0.0648   0.0740   0.00    0.0
2021/10/09 00:49:42.000   28 35 34.11273  -17 55 01.60391    73.1808   6   7   0.0442   0.0952   0.1368  -0.0176  -0.0588   0.0671   0.00    0.0
2021/10/09 00:50:12.000   28 35 34.11285  -17 55 01.60378    73.1895   6   7   0.0431   0.0936   0.1327  -0.0163  -0.0567   0.0651   0.00    0.0
2021/10/09 00:50:42.000   28 35 34.11287  -17 55 01.60361    73.1870   6   7   0.0427   0.0929   0.1310  -0.0157  -0.0557   0.0643   0.00    0.0
2021/10/09 00:51:12.000   28 35 34.11287  -17 55 01.60359    73.1852   6   7   0.0425   0.0924   0.1301  -0.0153  -0.0551   0.0638   0.00    0.0
2021/10/09 00:51:42.000   28 35 34.11284  -17 55 01.60353    73.1824   6   7   0.0423   0.0921   0.1295  -0.0150  -0.0547   0.0635   0.00    0.0
2021/10/09 00:52:12.000   28 35 34.11282  -17 55 01.60343    73.1792   6   7   0.0422   0.0918   0.1290  -0.0148  -0.0543   0.0633   0.00    0.0
2021/10/09 00:52:42.000   28 35 34.11279  -17 55 01.60341    73.1772   6   7   0.0420   0.0914   0.1283  -0.0144  -0.0538   0.0629   0.00    0.0
2021/10/09 00:53:12.000   28 35 34.11278  -17 55 01.60343    73.1793   6   7   0.0417   0.0909   0.1271  -0.0139  -0.0531   0.0623   0.00    0.0
2021/10/09 00:53:42.000   28 35 34.11283  -17 55 01.60341    73.1880   6   7   0.0412   0.0901   0.1247  -0.0129  -0.0518   0.0611   0.00    0.0
2021/10/09 00:54:12.000   28 35 34.11305  -17 55 01.60347    73.2133   6   7   0.0397   0.0882   0.1193  -0.0109  -0.0491   0.0583   0.00    0.0
2021/10/09 00:54:42.000   28 35 34.11351  -17 55 01.60353    73.2476   6   7   0.0363   0.0833   0.1092  -0.0082  -0.0443   0.0526   0.00    0.0
2021/10/09 00:55:12.000   28 35 34.11357  -17 55 01.60349    73.2517   6   7   0.0354   0.0819   0.1059  -0.0066  -0.0425   0.0509   0.00    0.0
2021/10/09 00:55:42.000   28 35 34.11358  -17 55 01.60340    73.2498   6   7   0.0351   0.0814   0.1045  -0.0058  -0.0418   0.0502   0.00    0.0
2021/10/09 00:56:12.000   28 35 34.11361  -17 55 01.60333    73.2511   6   7   0.0349   0.0810   0.1038  -0.0052  -0.0414   0.0499   0.00    0.0
2021/10/09 00:56:42.000   28 35 34.11363  -17 55 01.60331    73.2510   6   7   0.0348   0.0807   0.1034  -0.0048  -0.0410   0.0497   0.00    0.0
2021/10/09 00:57:12.000   28 35 34.11364  -17 55 01.60337    73.2510   6   7   0.0347   0.0805   0.1030  -0.0044  -0.0408   0.0495   0.00    0.0
2021/10/09 00:57:42.000   28 35 34.11364  -17 55 01.60343    73.2492   6   7   0.0346   0.0803   0.1025  -0.0039  -0.0405   0.0492   0.00    0.0
2021/10/09 00:58:12.000   28 35 34.11362  -17 55 01.60337    73.2449   6   7   0.0344   0.0799   0.1016  -0.0028  -0.0399   0.0488   0.00    0.0
2021/10/09 00:58:42.000   28 35 34.11368  -17 55 01.60328    73.2454   6   8   0.0340   0.0792   0.0998   0.0022  -0.0390   0.0479   0.00    0.0
2021/10/09 00:59:12.000   28 35 34.11383  -17 55 01.60326    73.2572   6   8   0.0329   0.0777   0.0956   0.0053  -0.0369   0.0457   0.00    0.0
2021/10/09 00:59:42.000   28 35 34.11419  -17 55 01.60307    73.2858   6   8   0.0302   0.0733   0.0879   0.0065  -0.0333   0.0413   0.00    0.0
2021/10/09 01:00:12.000   28 35 34.11431  -17 55 01.60311    73.2896   6   8   0.0295   0.0722   0.0854   0.0073  -0.0320   0.0400   0.00    0.0
2021/10/09 01:00:42.000   28 35 34.11434  -17 55 01.60312    73.2907   6   8   0.0293   0.0717   0.0843   0.0076  -0.0314   0.0395   0.00    0.0
2021/10/09 01:01:12.000   28 35 34.11437  -17 55 01.60309    73.2902   6   8   0.0292   0.0714   0.0838   0.0078  -0.0311   0.0392   0.00    0.0
2021/10/09 01:01:42.000   28 35 34.11437  -17 55 01.60313    73.2908   6   8   0.0291   0.0712   0.0835   0.0079  -0.0309   0.0391   0.00    0.0
2021/10/09 01:02:12.000   28 35 34.11437  -17 55 01.60317    73.2908   6   8   0.0290   0.0711   0.0832   0.0080  -0.0307   0.0389   0.00    0.0
2021/10/09 01:02:42.000   28 35 34.11438  -17 55 01.60315    73.2905   6   8   0.0289   0.0708   0.0828   0.0081  -0.0305   0.0387   0.00    0.0
2021/10/09 01:03:12.000   28 35 34.11439  -17 55 01.60307    73.2897   6   8   0.0288   0.0705   0.0821   0.0083  -0.0301   0.0384   0.00    0.0
2021/10/09 01:03:42.000   28 35 34.11439  -17 55 01.60302    73.2856   6   8   0.0285   0.0700   0.0810   0.0086  -0.0295   0.0378   0.00    0.0
2021/10/09 01:04:12.000   28 35 34.11446  -17 55 01.60295    73.2826   6   8   0.0278   0.0687   0.0783   0.0091  -0.0280   0.0364   0.00    0.0
2021/10/09 01:04:42.000   28 35 34.11463  -17 55 01.60288    73.2953   6   8   0.0258   0.0649   0.0731   0.0089  -0.0255   0.0333   0.00    0.0
2021/10/09 01:05:12.000   28 35 34.11475  -17 55 01.60274    73.2943   6   8   0.0253   0.0640   0.0713   0.0092  -0.0245   0.0324   0.00    0.0
2021/10/09 01:05:42.000   28 35 34.11483  -17 55 01.60267    73.2972   6   8   0.0251   0.0636   0.0706   0.0093  -0.0241   0.0321   0.00    0.0
2021/10/09 01:06:12.000   28 35 34.11488  -17 55 01.60262    73.2986   6   8   0.0250   0.0634   0.0703   0.0093  -0.0239   0.0319   0.00    0.0
2021/10/09 01:06:42.000   28 35 34.11490  -17 55 01.60259    73.2993   6   8   0.0250   0.0632   0.0700   0.0094  -0.0237   0.0318   0.00    0.0
2021/10/09 01:07:12.000   28 35 34.11491  -17 55 01.60254    73.2997   6   8   0.0250   0.0631   0.0699   0.0094  -0.0236   0.0317   0.00    0.0
2021/10/09 01:07:42.000   28 35 34.11492  -17 55 01.60250    73.3002   6   8   0.0249   0.0629   0.0696   0.0094  -0.0234   0.0316   0.00    0.0
2021/10/09 01:08:12.000   28 35 34.11491  -17 55 01.60242    73.2997   6   8   0.0248   0.0627   0.0692   0.0095  -0.0232   0.0314   0.00    0.0
2021/10/09 01:08:42.000   28 35 34.11489  -17 55 01.60238    73.3016   6   7   0.0246   0.0622   0.0683   0.0096  -0.0227   0.0310   0.00    0.0
2021/10/09 01:09:12.000   28 35 34.11487  -17 55 01.60241    73.3115   6   7   0.0241   0.0612   0.0664   0.0098  -0.0216   0.0300   0.00    0.0
2021/10/09 01:09:42.000   28 35 34.11499  -17 55 01.60234    73.3213   6   6   0.0226   0.0580   0.0638   0.0091  -0.0204   0.0280   0.00    0.0
2021/10/09 01:10:12.000   28 35 34.11497  -17 55 01.60228    73.3262   6   6   0.0222   0.0572   0.0630   0.0092  -0.0199   0.0275   0.00    0.0
2021/10/09 01:10:42.000   28 35 34.11494  -17 55 01.60228    73.3269   6   6   0.0221   0.0569   0.0628   0.0092  -0.0197   0.0273   0.00    0.0
2021/10/09 01:11:12.000   28 35 34.11494  -17 55 01.60223    73.3263   6   6   0.0221   0.0567   0.0626   0.0092  -0.0196   0.0272   0.00    0.0
2021/10/09 01:11:42.000   28 35 34.11494  -17 55 01.60220    73.3256   6   6   0.0220   0.0566   0.0625   0.0092  -0.0195   0.0272   0.00    0.0
2021/10/09 01:12:12.000   28 35 34.11494  -17 55 01.60216    73.3254   6   6   0.0220   0.0565   0.0625   0.0093  -0.0194   0.0271   0.00    0.0
2021/10/09 01:12:42.000   28 35 34.11495  -17 55 01.60212    73.3256   6   6   0.0220   0.0564   0.0624   0.0093  -0.0193   0.0271   0.00    0.0
2021/10/09 01:13:12.000   28 35 34.11496  -17 55 01.60204    73.3249   6   6   0.0219   0.0562   0.0622   0.0093  -0.0192   0.0270   0.00    0.0
2021/10/09 01:13:42.000   28 35 34.11497  -17 55 01.60199    73.3251   6   6   0.0218   0.0558   0.0619   0.0093  -0.0190   0.0267   0.00    0.0
2021/10/09 01:14:12.000   28 35 34.11503  -17 55 01.60184    73.3277   6   6   0.0214   0.0549   0.0611   0.0093  -0.0185   0.0261   0.00    0.0
2021/10/09 01:14:42.000   28 35 34.11509  -17 55 01.60161    73.3330   6   6   0.0201   0.0521   0.0590   0.0088  -0.0175   0.0244   0.00    0.0
2021/10/09 01:15:12.000   28 35 34.11510  -17 55 01.60151    73.3312   6   6   0.0198   0.0515   0.0584   0.0088  -0.0171   0.0240   0.00    0.0
2021/10/09 01:15:42.000   28 35 34.11509  -17 55 01.60148    73.3299   6   6   0.0197   0.0512   0.0582   0.0088  -0.0169   0.0238   0.00    0.0
2021/10/09 01:16:12.000   28 35 34.11509  -17 55 01.60141    73.3288   6   6   0.0197   0.0511   0.0580   0.0088  -0.0168   0.0237   0.00    0.0
2021/10/09 01:16:42.000   28 35 34.11508  -17 55 01.60137    73.3280   6   6   0.0197   0.0510   0.0580   0.0089  -0.0168   0.0237   0.00    0.0
2021/10/09 01:17:12.000   28 35 34.11507  -17 55 01.60136    73.3274   6   6   0.0196   0.0509   0.0579   0.0089  -0.0167   0.0237   0.00    0.0
2021/10/09 01:17:42.000   28 35 34.11507  -17 55 01.60132    73.3272   6   6   0.0196   0.0508   0.0579   0.0089  -0.0166   0.0236   0.00    0.0
2021/10/09 01:18:12.000   28 35 34.11507  -17 55 01.60131    73.3275   6   6   0.0196   0.0506   0.0577   0.0089  -0.0165   0.0235   0.00    0.0
2021/10/09 01:18:42.000   28 35 34.11506  -17 55 01.60131    73.3287   6   6   0.0194   0.0503   0.0575   0.0089  -0.0163   0.0233   0.00    0.0
2021/10/09 01:19:12.000   28 35 34.11499  -17 55 01.60134    73.3296   6   6   0.0191   0.0495   0.0568   0.0089  -0.0159   0.0228   0.00    0.0
2021/10/09 01:19:42.000   28 35 34.11497  -17 55 01.60137    73.3363   6   6   0.0181   0.0471   0.0551   0.0086  -0.0150   0.0213   0.00    0.0
2021/10/09 01:20:12.000   28 35 34.11500  -17 55 01.60136    73.3400   6   6   0.0178   0.0465   0.0546   0.0087  -0.0146   0.0209   0.00    0.0
2021/10/09 01:20:42.000   28 35 34.11500  -17 55 01.60135    73.3413   6   6   0.0177   0.0463   0.0544   0.0087  -0.0145   0.0207   0.00    0.0
2021/10/09 01:21:12.000   28 35 34.11499  -17 55 01.60132    73.3414   6   6   0.0177   0.0462   0.0543   0.0087  -0.0144   0.0207   0.00    0.0
2021/10/09 01:21:42.000   28 35 34.11499  -17 55 01.60127    73.3412   6   6   0.0177   0.0461   0.0543   0.0087  -0.0144   0.0206   0.00    0.0
2021/10/09 01:22:12.000   28 35 34.11498  -17 55 01.60125    73.3409   6   6   0.0177   0.0460   0.0543   0.0087  -0.0143   0.0206   0.00    0.0
2021/10/09 01:22:42.000   28 35 34.11497  -17 55 01.60124    73.3397   6   6   0.0176   0.0459   0.0542   0.0087  -0.0143   0.0206   0.00    0.0
2021/10/09 01:23:12.000   28 35 34.11494  -17 55 01.60125    73.3383   6   6   0.0176   0.0458   0.0541   0.0087  -0.0142   0.0205   0.00    0.0
2021/10/09 01:23:42.000   28 35 34.11491  -17 55 01.60127    73.3379   6   6   0.0175   0.0456   0.0539   0.0087  -0.0141   0.0203   0.00    0.0
2021/10/09 01:24:12.000   28 35 34.11485  -17 55 01.60137    73.3368   6   6   0.0172   0.0449   0.0534   0.0087  -0.0137   0.0199   0.00    0.0
2021/10/09 01:24:42.000   28 35 34.11490  -17 55 01.60148    73.3397   6   6   0.0164   0.0428   0.0520   0.0084  -0.0132   0.0185   0.00    0.0
2021/10/09 01:25:12.000   28 35 34.11491  -17 55 01.60147    73.3391   6   6   0.0162   0.0423   0.0516   0.0083  -0.0130   0.0181   0.00    0.0
2021/10/09 01:25:42.000   28 35 34.11490  -17 55 01.60146    73.3380   6   6   0.0161   0.0421   0.0515   0.0083  -0.0129   0.0180   0.00    0.0
2021/10/09 01:26:12.000   28 35 34.11489  -17 55 01.60144    73.3381   6   6   0.0161   0.0420   0.0514   0.0083  -0.0128   0.0180   0.00    0.0
2021/10/09 01:26:42.000   28 35 34.11490  -17 55 01.60143    73.3385   6   6   0.0160   0.0419   0.0514   0.0083  -0.0128   0.0179   0.00    0.0
2021/10/09 01:27:12.000   28 35 34.11490  -17 55 01.60141    73.3385   6   6   0.0160   0.0419   0.0514   0.0083  -0.0128   0.0179   0.00    0.0
2021/10/09 01:27:42.000   28 35 34.11489  -17 55 01.60138    73.3379   6   6   0.0160   0.0418   0.0513   0.0083  -0.0127   0.0179   0.00    0.0
2021/10/09 01:28:12.000   28 35 34.11490  -17 55 01.60134    73.3374   6   6   0.0160   0.0417   0.0512   0.0083  -0.0127   0.0178   0.00    0.0
2021/10/09 01:28:42.000   28 35 34.11490  -17 55 01.60133    73.3366   6   6   0.0159   0.0415   0.0511   0.0083  -0.0126   0.0177   0.00    0.0
2021/10/09 01:29:12.000   28 35 34.11494  -17 55 01.60119    73.3378   6   6   0.0157   0.0409   0.0507   0.0083  -0.0124   0.0173   0.00    0.0
2021/10/09 01:29:42.000   28 35 34.11494  -17 55 01.60098    73.3362   6   6   0.0150   0.0391   0.0495   0.0080  -0.0122   0.0160   0.00    0.0
2021/10/09 01:30:12.000   28 35 34.11493  -17 55 01.60095    73.3348   6   6   0.0148   0.0387   0.0492   0.0080  -0.0121   0.0157   0.00    0.0
2021/10/09 01:30:42.000   28 35 34.11493  -17 55 01.60092    73.3342   6   6   0.0147   0.0385   0.0491   0.0080  -0.0120   0.0156   0.00    0.0
2021/10/09 01:31:12.000   28 35 34.11492  -17 55 01.60090    73.3331   6   6   0.0147   0.0384   0.0490   0.0080  -0.0120   0.0155   0.00    0.0
2021/10/09 01:31:42.000   28 35 34.11491  -17 55 01.60087    73.3327   6   6   0.0147   0.0384   0.0490   0.0080  -0.0120   0.0155   0.00    0.0
2021/10/09 01:32:12.000   28 35 34.11491  -17 55 01.60085    73.3323   6   6   0.0147   0.0383   0.0490   0.0080  -0.0120   0.0155   0.00    0.0
2021/10/09 01:32:42.000   28 35 34.11490  -17 55 01.60084    73.3317   6   6   0.0147   0.0383   0.0489   0.0080  -0.0119   0.0154   0.00    0.0
2021/10/09 01:33:12.000   28 35 34.11488  -17 55 01.60083    73.3308   6   6   0.0146   0.0382   0.0489   0.0080  -0.0119   0.0154   0.00    0.0
2021/10/09 01:33:42.000   28 35 34.11486  -17 55 01.60082    73.3298   6   6   0.0146   0.0380   0.0487   0.0080  -0.0119   0.0152   0.00    0.0
2021/10/09 01:34:12.000   28 35 34.11488  -17 55 01.60078    73.3305   6   6   0.0144   0.0375   0.0484   0.0079  -0.0117   0.0149   0.00    0.0
2021/10/09 01:34:42.000   28 35 34.11492  -17 55 01.60075    73.3358   6   6   0.0138   0.0359   0.0473   0.0077  -0.0117   0.0136   0.00    0.0
2021/10/09 01:35:12.000   28 35 34.11496  -17 55 01.60071    73.3383   6   6   0.0136   0.0355   0.0470   0.0077  -0.0116   0.0133   0.00    0.0
2021/10/09 01:35:42.000   28 35 34.11497  -17 55 01.60068    73.3387   6   6   0.0136   0.0354   0.0469   0.0077  -0.0116   0.0132   0.00    0.0
2021/10/09 01:36:12.000   28 35 34.11499  -17 55 01.60065    73.3391   6   6   0.0136   0.0353   0.0469   0.0077  -0.0116   0.0132   0.00    0.0
2021/10/09 01:36:42.000   28 35 34.11499  -17 55 01.60061    73.3397   6   6   0.0135   0.0353   0.0469   0.0077  -0.0116   0.0132   0.00    0.0
2021/10/09 01:37:12.000   28 35 34.11500  -17 55 01.60058    73.3400   6   6   0.0135   0.0352   0.0468   0.0077  -0.0116   0.0131   0.00    0.0
2021/10/09 01:37:42.000   28 35 34.11500  -17 55 01.60054    73.3403   6   6   0.0135   0.0352   0.0468   0.0077  -0.0116   0.0131   0.00    0.0
2021/10/09 01:38:12.000   28 35 34.11500  -17 55 01.60050    73.3409   6   6   0.0135   0.0351   0.0467   0.0077  -0.0116   0.0130   0.00    0.0
2021/10/09 01:38:42.000   28 35 34.11500  -17 55 01.60046    73.3422   6   6   0.0134   0.0350   0.0466   0.0077  -0.0116   0.0129   0.00    0.0
2021/10/09 01:39:12.000   28 35 34.11500  -17 55 01.60043    73.3443   6   6   0.0133   0.0346   0.0463   0.0076  -0.0116   0.0126   0.00    0.0
2021/10/09 01:39:42.000   28 35 34.11501  -17 55 01.60042    73.3481   6   6   0.0128   0.0332   0.0453   0.0075  -0.0118   0.0114   0.00    0.0
2021/10/09 01:40:12.000   28 35 34.11501  -17 55 01.60042    73.3515   6   6   0.0127   0.0328   0.0451   0.0074  -0.0118   0.0111   0.00    0.0
2021/10/09 01:40:42.000   28 35 34.11501  -17 55 01.60042    73.3535   6   6   0.0126   0.0327   0.0450   0.0074  -0.0118   0.0110   0.00    0.0
2021/10/09 01:41:12.000   28 35 34.11501  -17 55 01.60041    73.3549   6   6   0.0126   0.0327   0.0449   0.0074  -0.0118   0.0110   0.00    0.0
2021/10/09 01:41:42.000   28 35 34.11502  -17 55 01.60039    73.3557   6   6   0.0126   0.0326   0.0449   0.0074  -0.0118   0.0109   0.00    0.0
2021/10/09 01:42:12.000   28 35 34.11502  -17 55 01.60038    73.3560   6   6   0.0126   0.0326   0.0448   0.0074  -0.0118   0.0109   0.00    0.0
2021/10/09 01:42:42.000   28 35 34.11501  -17 55 01.60037    73.3561   6   6   0.0126   0.0326   0.0448   0.0074  -0.0118   0.0109   0.00    0.0
2021/10/09 01:43:12.000   28 35 34.11501  -17 55 01.60037    73.3551   6   6   0.0126   0.0325   0.0447   0.0074  -0.0118   0.0108   0.00    0.0
2021/10/09 01:43:42.000   28 35 34.11500  -17 55 01.60036    73.3546   6   6   0.0125   0.0324   0.0446   0.0074  -0.0118   0.0107   0.00    0.0
2021/10/09 01:44:12.000   28 35 34.11500  -17 55 01.60036    73.3527   6   6   0.0124   0.0320   0.0442   0.0074  -0.0118   0.0103   0.00    0.0
2021/10/09 01:44:42.000   28 35 34.11502  -17 55 01.60046    73.3594   6   6   0.0120   0.0308   0.0434   0.0072  -0.0121   0.0092   0.00    0.0
2021/10/09 01:45:12.000   28 35 34.11505  -17 55 01.60047    73.3642   6   6   0.0119   0.0305   0.0431   0.0072  -0.0122   0.0089   0.00    0.0
2021/10/09 01:45:42.000   28 35 34.11505  -17 55 01.60047    73.3653   6   6   0.0118   0.0304   0.0430   0.0072  -0.0122   0.0088   0.00    0.0
2021/10/09 01:46:12.000   28 35 34.11505  -17 55 01.60044    73.3661   6   6   0.0118   0.0304   0.0429   0.0072  -0.0122   0.0088   0.00    0.0
2021/10/09 01:46:42.000   28 35 34.11505  -17 55 01.60042    73.3663   6   6   0.0118   0.0303   0.0429   0.0072  -0.0122   0.0087   0.00    0.0
2021/10/09 01:47:12.000   28 35 34.11505  -17 55 01.60039    73.3660   6   6   0.0118   0.0303   0.0428   0.0072  -0.0122   0.0087   0.00    0.0
2021/10/09 01:47:42.000   28 35 34.11505  -17 55 01.60036    73.3662   6   6   0.0118   0.0303   0.0428   0.0072  -0.0122   0.0087   0.00    0.0
2021/10/09 01:48:12.000   28 35 34.11506  -17 55 01.60033    73.3663   6   5   0.0118   0.0302   0.0428   0.0072  -0.0122   0.0086   0.00    0.0
2021/10/09 01:48:42.000   28 35 34.11507  -17 55 01.60030    73.3672   6   5   0.0118   0.0301   0.0427   0.0072  -0.0122   0.0085   0.00    0.0
2021/10/09 01:49:12.000   28 35 34.11506  -17 55 01.60031    73.3680   6   5   0.0116   0.0298   0.0426   0.0072  -0.0122   0.0083   0.00    0.0
2021/10/09 01:49:42.000   28 35 34.11507  -17 55 01.60030    73.3668   6   5   0.0113   0.0287   0.0421   0.0071  -0.0125   0.0073   0.00    0.0
2021/10/09 01:50:12.000   28 35 34.11508  -17 55 01.60027    73.3657   6   5   0.0112   0.0285   0.0420   0.0071  -0.0125   0.0071   0.00    0.0
2021/10/09 01:50:42.000   28 35 34.11508  -17 55 01.60025    73.3645   6   5   0.0112   0.0284   0.0419   0.0071  -0.0125   0.0070   0.00    0.0
2021/10/09 01:51:12.000   28 35 34.11508  -17 55 01.60025    73.3640   6   5   0.0112   0.0284   0.0419   0.0071  -0.0125   0.0070   0.00    0.0
2021/10/09 01:51:42.000   28 35 34.11507  -17 55 01.60025    73.3637   6   5   0.0112   0.0283   0.0419   0.0071  -0.0125   0.0070   0.00    0.0
2021/10/09 01:52:12.000   28 35 34.11508  -17 55 01.60024    73.3639   6   5   0.0112   0.0283   0.0419   0.0071  -0.0125   0.0070   0.00    0.0
2021/10/09 01:52:42.000   28 35 34.11508  -17 55 01.60022    73.3641   6   5   0.0112   0.0283   0.0419   0.0071  -0.0126   0.0069   0.00    0.0
2021/10/09 01:53:12.000   28 35 34.11509  -17 55 01.60019    73.3644   6   5   0.0112   0.0282   0.0419   0.0071  -0.0126   0.0069   0.00    0.0
2021/10/09 01:53:42.000   28 35 34.11509  -17 55 01.60015    73.3644   6   5   0.0111   0.0281   0.0418   0.0071  -0.0126   0.0068   0.00    0.0
2021/10/09 01:54:12.000   28 35 34.11508  -17 55 01.60016    73.3639   6   5   0.0110   0.0279   0.0417   0.0071  -0.0126   0.0065   0.00    0.0
2021/10/09 01:54:42.000   28 35 34.11510  -17 55 01.60020    73.3647   6   5   0.0108   0.0270   0.0413   0.0070  -0.0130   0.0055   0.00    0.0
2021/10/09 01:55:12.000   28 35 34.11511  -17 55 01.60013    73.3637   6   5   0.0107   0.0268   0.0412   0.0070  -0.0130   0.0052   0.00    0.0
2021/10/09 01:55:42.000   28 35 34.11511  -17 55 01.60010    73.3631   6   5   0.0107   0.0267   0.0411   0.0070  -0.0131   0.0052   0.00    0.0
2021/10/09 01:56:12.000   28 35 34.11511  -17 55 01.60009    73.3628   6   5   0.0107   0.0266   0.0411   0.0070  -0.0131   0.0051   0.00    0.0
2021/10/09 01:56:42.000   28 35 34.11511  -17 55 01.60009    73.3626   6   5   0.0106   0.0266   0.0411   0.0070  -0.0131   0.0051   0.00    0.0
2021/10/09 01:57:12.000   28 35 34.11511  -17 55 01.60008    73.3626   6   5   0.0106   0.0266   0.0411   0.0070  -0.0131   0.0051   0.00    0.0
2021/10/09 01:57:42.000   28 35 34.11510  -17 55 01.60009    73.3623   6   5   0.0106   0.0266   0.0411   0.0070  -0.0131   0.0050   0.00    0.0
2021/10/09 01:58:12.000   28 35 34.11509  -17 55 01.60010    73.3619   6   5   0.0106   0.0265   0.0411   0.0070  -0.0131   0.0050   0.00    0.0
2021/10/09 01:58:42.000   28 35 34.11508  -17 55 01.60011    73.3616   6   5   0.0106   0.0265   0.0410   0.0070  -0.0131   0.0049   0.00    0.0
2021/10/09 01:59:12.000   28 35 34.11507  -17 55 01.60014    73.3605   6   5   0.0105   0.0262   0.0409   0.0070  -0.0132   0.0046   0.00    0.0
2021/10/09 01:59:42.000   28 35 34.11507  -17 55 01.60023    73.3598   6   5   0.0103   0.0254   0.0405   0.0070  -0.0135   0.0032   0.00    0.0
2021/10/09 02:00:12.000   28 35 34.11505  -17 55 01.60027    73.3593   6   5   0.0102   0.0253   0.0405   0.0070  -0.0136   0.0028   0.00    0.0
2021/10/09 02:00:42.000   28 35 34.11504  -17 55 01.60028    73.3590   6   5   0.0102   0.0252   0.0404   0.0070  -0.0136   0.0027   0.00    0.0
2021/10/09 02:01:12.000   28 35 34.11503  -17 55 01.60027    73.3588   6   5   0.0102   0.0252   0.0404   0.0070  -0.0136   0.0026   0.00    0.0
2021/10/09 02:01:42.000   28 35 34.11503  -17 55 01.60027    73.3587   6   5   0.0102   0.0252   0.0404   0.0070  -0.0136   0.0026   0.00    0.0
2021/10/09 02:02:12.000   28 35 34.11503  -17 55 01.60026    73.3585   6   5   0.0102   0.0251   0.0404   0.0070  -0.0136   0.0025   0.00    0.0
2021/10/09 02:02:42.000   28 35 34.11503  -17 55 01.60025    73.3582   6   5   0.0102   0.0251   0.0404   0.0070  -0.0136   0.0025   0.00    0.0
2021/10/09 02:03:12.000   28 35 34.11502  -17 55 01.60025    73.3580   6   5   0.0102   0.0251   0.0404   0.0070  -0.0137   0.0024   0.00    0.0
2021/10/09 02:03:42.000   28 35 34.11502  -17 55 01.60027    73.3578   6   5   0.0101   0.0250   0.0403   0.0070  -0.0137   0.0022   0.00    0.0
2021/10/09 02:04:12.000   28 35 34.11501  -17 55 01.60029    73.3575   6   5   0.0101   0.0248   0.0402   0.0070  -0.0138   0.0015   0.00    0.0
2021/10/09 02:04:42.000   28 35 34.11502  -17 55 01.60032    73.3579   6   5   0.0099   0.0242   0.0399   0.0070  -0.0141  -0.0026   0.00    0.0
2021/10/09 02:05:12.000   28 35 34.11500  -17 55 01.60037    73.3568   6   5   0.0098   0.0240   0.0398   0.0070  -0.0142  -0.0030   0.00    0.0
2021/10/09 02:05:42.000   28 35 34.11499  -17 55 01.60039    73.3564   6   5   0.0098   0.0240   0.0398   0.0070  -0.0142  -0.0031   0.00    0.0
2021/10/09 02:06:12.000   28 35 34.11499  -17 55 01.60040    73.3563   6   5   0.0098   0.0239   0.0398   0.0070  -0.0142  -0.0031   0.00    0.0
2021/10/09 02:06:42.000   28 35 34.11499  -17 55 01.60039    73.3564   6   5   0.0098   0.0239   0.0398   0.0070  -0.0142  -0.0032   0.00    0.0
2021/10/09 02:07:12.000   28 35 34.11499  -17 55 01.60038    73.3566   6   5   0.0098   0.0239   0.0397   0.0070  -0.0142  -0.0032   0.00    0.0
2021/10/09 02:07:42.000   28 35 34.11499  -17 55 01.60038    73.3565   6   5   0.0098   0.0239   0.0397   0.0070  -0.0142  -0.0032   0.00    0.0
2021/10/09 02:08:12.000   28 35 34.11498  -17 55 01.60039    73.3563   6   5   0.0098   0.0239   0.0397   0.0070  -0.0143  -0.0033   0.00    0.0
2021/10/09 02:08:42.000   28 35 34.11497  -17 55 01.60041    73.3559   6   5   0.0097   0.0238   0.0397   0.0070  -0.0143  -0.0034   0.00    0.0
2021/10/09 02:09:12.000   28 35 34.11496  -17 55 01.60041    73.3547   6   5   0.0097   0.0236   0.0396   0.0070  -0.0144  -0.0037   0.00    0.0
2021/10/09 02:09:42.000   28 35 34.11496  -17 55 01.60050    73.3546   6   5   0.0095   0.0231   0.0393   0.0070  -0.0147  -0.0046   0.00    0.0
2021/10/09 02:10:12.000   28 35 34.11495  -17 55 01.60054    73.3540   6   5   0.0094   0.0230   0.0392   0.0070  -0.0148  -0.0048   0.00    0.0
2021/10/09 02:10:42.000   28 35 34.11494  -17 55 01.60056    73.3537   6   5   0.0094   0.0229   0.0392   0.0070  -0.0148  -0.0049   0.00    0.0
2021/10/09 02:11:12.000   28 35 34.11494  -17 55 01.60058    73.3537   6   5   0.0094   0.0229   0.0391   0.0070  -0.0148  -0.0049   0.00    0.0
2021/10/09 02:11:42.000   28 35 34.11494  -17 55 01.60057    73.3539   6   5   0.0094   0.0229   0.0391   0.0070  -0.0148  -0.0049   0.00    0.0
2021/10/09 02:12:12.000   28 35 34.11494  -17 55 01.60057    73.3537   6   5   0.0094   0.0229   0.0391   0.0070  -0.0148  -0.0050   0.00    0.0
2021/10/09 02:12:42.000   28 35 34.11494  -17 55 01.60057    73.3535   6   5   0.0094   0.0229   0.0391   0.0070  -0.0148  -0.0050   0.00    0.0
2021/10/09 02:13:12.000   28 35 34.11493  -17 55 01.60057    73.3530   6   5   0.0094   0.0228   0.0391   0.0070  -0.0148  -0.0050   0.00    0.0
2021/10/09 02:13:42.000   28 35 34.11493  -17 55 01.60058    73.3520   6   5   0.0094   0.0228   0.0391   0.0070  -0.0149  -0.0051   0.00    0.0
2021/10/09 02:14:12.000   28 35 34.11492  -17 55 01.60062    73.3510   6   5   0.0093   0.0227   0.0390   0.0070  -0.0149  -0.0053   0.00    0.0
2021/10/09 02:14:42.000   28 35 34.11493  -17 55 01.60070    73.3506   6   5   0.0092   0.0222   0.0386   0.0071  -0.0153  -0.0059   0.00    0.0
2021/10/09 02:15:12.000   28 35 34.11493  -17 55 01.60069    73.3498   6   5   0.0091   0.0221   0.0386   0.0071  -0.0153  -0.0060   0.00    0.0
2021/10/09 02:15:42.000   28 35 34.11492  -17 55 01.60069    73.3488   6   5   0.0091   0.0220   0.0385   0.0071  -0.0153  -0.0060   0.00    0.0
2021/10/09 02:16:12.000   28 35 34.11491  -17 55 01.60070    73.3481   6   5   0.0091   0.0220   0.0385   0.0071  -0.0154  -0.0060   0.00    0.0
2021/10/09 02:16:42.000   28 35 34.11490  -17 55 01.60070    73.3475   6   5   0.0091   0.0220   0.0385   0.0071  -0.0154  -0.0061   0.00    0.0
2021/10/09 02:17:12.000   28 35 34.11490  -17 55 01.60070    73.3472   6   5   0.0091   0.0220   0.0385   0.0071  -0.0154  -0.0061   0.00    0.0
2021/10/09 02:17:42.000   28 35 34.11490  -17 55 01.60069    73.3469   6   5   0.0091   0.0220   0.0385   0.0071  -0.0154  -0.0061   0.00    0.0
2021/10/09 02:18:12.000   28 35 34.11490  -17 55 01.60068    73.3466   6   5   0.0091   0.0220   0.0385   0.0071  -0.0154  -0.0061   0.00    0.0
2021/10/09 02:18:42.000   28 35 34.11490  -17 55 01.60067    73.3458   6   5   0.0091   0.0219   0.0385   0.0071  -0.0154  -0.0061   0.00    0.0
2021/10/09 02:19:12.000   28 35 34.11489  -17 55 01.60069    73.3441   6   5   0.0090   0.0218   0.0384   0.0071  -0.0155  -0.0063   0.00    0.0
2021/10/09 02:19:42.000   28 35 34.11489  -17 55 01.60077    73.3423   6   5   0.0089   0.0214   0.0380   0.0071  -0.0158  -0.0067   0.00    0.0
2021/10/09 02:20:12.000   28 35 34.11489  -17 55 01.60078    73.3420   6   5   0.0089   0.0213   0.0380   0.0071  -0.0158  -0.0068   0.00    0.0
2021/10/09 02:20:42.000   28 35 34.11490  -17 55 01.60077    73.3422   6   5   0.0088   0.0213   0.0379   0.0071  -0.0159  -0.0069   0.00    0.0
2021/10/09 02:21:12.000   28 35 34.11490  -17 55 01.60076    73.3423   6   5   0.0088   0.0213   0.0379   0.0071  -0.0159  -0.0069   0.00    0.0
2021/10/09 02:21:42.000   28 35 34.11490  -17 55 01.60074    73.3425   6   5   0.0088   0.0213   0.0379   0.0071  -0.0159  -0.0069   0.00    0.0
2021/10/09 02:22:12.000   28 35 34.11490  -17 55 01.60074    73.3427   6   5   0.0088   0.0213   0.0379   0.0071  -0.0159  -0.0069   0.00    0.0
2021/10/09 02:22:42.000   28 35 34.11491  -17 55 01.60073    73.3428   6   5   0.0088   0.0213   0.0379   0.0071  -0.0159  -0.0069   0.00    0.0
2021/10/09 02:23:12.000   28 35 34.11491  -17 55 01.60072    73.3429   6   5   0.0088   0.0213   0.0379   0.0072  -0.0159  -0.0069   0.00    0.0
2021/10/09 02:23:42.000   28 35 34.11491  -17 55 01.60071    73.3425   6   5   0.0088   0.0212   0.0379   0.0072  -0.0159  -0.0069   0.00    0.0
2021/10/09 02:24:12.000   28 35 34.11490  -17 55 01.60071    73.3419   6   5   0.0088   0.0211   0.0378   0.0072  -0.0160  -0.0070   0.00    0.0
2021/10/09 02:24:42.000   28 35 34.11491  -17 55 01.60076    73.3414   6   5   0.0087   0.0208   0.0374   0.0072  -0.0163  -0.0074   0.00    0.0
2021/10/09 02:25:12.000   28 35 34.11492  -17 55 01.60076    73.3412   6   5   0.0086   0.0207   0.0374   0.0072  -0.0163  -0.0074   0.00    0.0
2021/10/09 02:25:42.000   28 35 34.11492  -17 55 01.60076    73.3410   6   5   0.0086   0.0207   0.0373   0.0072  -0.0163  -0.0075   0.00    0.0
2021/10/09 02:26:12.000   28 35 34.11492  -17 55 01.60074    73.3410   6   5   0.0086   0.0207   0.0373   0.0072  -0.0163  -0.0075   0.00    0.0
2021/10/09 02:26:42.000   28 35 34.11492  -17 55 01.60073    73.3410   6   5   0.0086   0.0207   0.0373   0.0072  -0.0163  -0.0075   0.00    0.0
2021/10/09 02:27:12.000   28 35 34.11492  -17 55 01.60072    73.3411   6   6   0.0086   0.0207   0.0373   0.0072  -0.0163  -0.0075   0.00    0.0
2021/10/09 02:27:42.000   28 35 34.11492  -17 55 01.60070    73.3410   6   6   0.0086   0.0207   0.0373   0.0072  -0.0164  -0.0075   0.00    0.0
2021/10/09 02:28:12.000   28 35 34.11492  -17 55 01.60069    73.3406   6   6   0.0086   0.0207   0.0373   0.0072  -0.0164  -0.0075   0.00    0.0
2021/10/09 02:28:42.000   28 35 34.11492  -17 55 01.60070    73.3400   6   6   0.0086   0.0206   0.0372   0.0072  -0.0164  -0.0075   0.00    0.0
2021/10/09 02:29:12.000   28 35 34.11491  -17 55 01.60075    73.3388   6   6   0.0085   0.0206   0.0371   0.0073  -0.0164  -0.0076   0.00    0.0
2021/10/09 02:29:42.000   28 35 34.11494  -17 55 01.60079    73.3390   6   6   0.0084   0.0203   0.0368   0.0073  -0.0167  -0.0079   0.00    0.0
2021/10/09 02:30:12.000   28 35 34.11495  -17 55 01.60079    73.3398   6   6   0.0084   0.0203   0.0367   0.0073  -0.0167  -0.0079   0.00    0.0
2021/10/09 02:30:42.000   28 35 34.11495  -17 55 01.60079    73.3403   6   6   0.0084   0.0202   0.0367   0.0073  -0.0167  -0.0079   0.00    0.0
2021/10/09 02:31:12.000   28 35 34.11495  -17 55 01.60079    73.3401   6   6   0.0084   0.0202   0.0367   0.0073  -0.0168  -0.0079   0.00    0.0
2021/10/09 02:31:42.000   28 35 34.11495  -17 55 01.60079    73.3399   6   6   0.0084   0.0202   0.0367   0.0073  -0.0168  -0.0080   0.00    0.0
2021/10/09 02:32:12.000   28 35 34.11495  -17 55 01.60078    73.3396   6   6   0.0084   0.0202   0.0367   0.0073  -0.0168  -0.0080   0.00    0.0
2021/10/09 02:32:42.000   28 35 34.11495  -17 55 01.60077    73.3393   6   6   0.0084   0.0202   0.0367   0.0073  -0.0168  -0.0080   0.00    0.0
2021/10/09 02:33:12.000   28 35 34.11495  -17 55 01.60076    73.3392   6   6   0.0084   0.0202   0.0367   0.0073  -0.0168  -0.0080   0.00    0.0
2021/10/09 02:33:42.000   28 35 34.11495  -17 55 01.60075    73.3391   6   6   0.0084   0.0202   0.0366   0.0073  -0.0168  -0.0080   0.00    0.0
2021/10/09 02:34:12.000   28 35 34.11496  -17 55 01.60075    73.3398   6   6   0.0083   0.0201   0.0365   0.0074  -0.0168  -0.0080   0.00    0.0
2021/10/09 02:34:42.000   28 35 34.11497  -17 55 01.60077    73.3393   6   6   0.0082   0.0199   0.0362   0.0074  -0.0170  -0.0082   0.00    0.0
2021/10/09 02:35:12.000   28 35 34.11498  -17 55 01.60077    73.3408   6   6   0.0082   0.0199   0.0361   0.0074  -0.0171  -0.0083   0.00    0.0
2021/10/09 02:35:42.000   28 35 34.11498  -17 55 01.60077    73.3409   6   6   0.0082   0.0199   0.0361   0.0074  -0.0171  -0.0083   0.00    0.0
2021/10/09 02:36:12.000   28 35 34.11498  -17 55 01.60077    73.3409   6   6   0.0082   0.0199   0.0361   0.0074  -0.0171  -0.0083   0.00    0.0
2021/10/09 02:36:42.000   28 35 34.11499  -17 55 01.60076    73.3409   6   7   0.0082   0.0198   0.0361   0.0074  -0.0171  -0.0083   0.00    0.0
2021/10/09 02:37:12.000   28 35 34.11498  -17 55 01.60076    73.3408   6   7   0.0082   0.0198   0.0360   0.0074  -0.0171  -0.0083   0.00    0.0
2021/10/09 02:37:42.000   28 35 34.11499  -17 55 01.60077    73.3408   6   7   0.0082   0.0198   0.0360   0.0074  -0.0171  -0.0083   0.00    0.0
2021/10/09 02:38:12.000   28 35 34.11499  -17 55 01.60076    73.3405   6   7   0.0082   0.0198   0.0360   0.0074  -0.0171  -0.0083   0.00    0.0
2021/10/09 02:38:42.000   28 35 34.11498  -17 55 01.60077    73.3393   6   7   0.0082   0.0198   0.0360   0.0074  -0.0171  -0.0083   0.00    0.0
2021/10/09 02:39:12.000   28 35 34.11498  -17 55 01.60081    73.3362   6   7   0.0082   0.0198   0.0359   0.0075  -0.0172  -0.0084   0.00    0.0
2021/10/09 02:39:42.000   28 35 34.11500  -17 55 01.60081    73.3363   6   7   0.0081   0.0196   0.0355   0.0075  -0.0173  -0.0085   0.00    0.0
2021/10/09 02:40:12.000   28 35 34.11501  -17 55 01.60080    73.3373   6   7   0.0081   0.0196   0.0355   0.0075  -0.0174  -0.0085   0.00    0.0
2021/10/09 02:40:42.000   28 35 34.11502  -17 55 01.60079    73.3377   6   7   0.0080   0.0196   0.0354   0.0075  -0.0174  -0.0086   0.00    0.0
2021/10/09 02:41:12.000   28 35 34.11502  -17 55 01.60078    73.3379   6   7   0.0080   0.0196   0.0354   0.0075  -0.0174  -0.0086   0.00    0.0
2021/10/09 02:41:42.000   28 35 34.11502  -17 55 01.60077    73.3379   6   7   0.0080   0.0196   0.0354   0.0075  -0.0174  -0.0086   0.00    0.0
2021/10/09 02:42:12.000   28 35 34.11503  -17 55 01.60077    73.3378   6   7   0.0080   0.0196   0.0354   0.0075  -0.0174  -0.0086   0.00    0.0
2021/10/09 02:42:42.000   28 35 34.11503  -17 55 01.60077    73.3376   6   7   0.0080   0.0195   0.0354   0.0075  -0.0174  -0.0086   0.00    0.0
2021/10/09 02:43:12.000   28 35 34.11503  -17 55 01.60076    73.3373   6   7   0.0080   0.0195   0.0354   0.0075  -0.0174  -0.0086   0.00    0.0
2021/10/09 02:43:42.000   28 35 34.11503  -17 55 01.60076    73.3370   6   7   0.0080   0.0195   0.0353   0.0075  -0.0174  -0.0086   0.00    0.0
2021/10/09 02:44:12.000   28 35 34.11503  -17 55 01.60077    73.3359   6   7   0.0080   0.0195   0.0353   0.0075  -0.0174  -0.0086   0.00    0.0
2021/10/09 02:44:42.000   28 35 34.11504  -17 55 01.60082    73.3341   6   7   0.0079   0.0194   0.0350   0.0076  -0.0176  -0.0087   0.00    0.0
2021/10/09 02:45:12.000   28 35 34.11505  -17 55 01.60082    73.3343   6   7   0.0079   0.0194   0.0349   0.0076  -0.0176  -0.0087   0.00    0.0
2021/10/09 02:45:42.000   28 35 34.11505  -17 55 01.60081    73.3347   6   7   0.0079   0.0193   0.0349   0.0076  -0.0176  -0.0088   0.00    0.0
2021/10/09 02:46:12.000   28 35 34.11505  -17 55 01.60081    73.3349   6   7   0.0079   0.0193   0.0349   0.0076  -0.0176  -0.0088   0.00    0.0
2021/10/09 02:46:42.000   28 35 34.11505  -17 55 01.60081    73.3349   6   7   0.0079   0.0193   0.0349   0.0076  -0.0176  -0.0088   0.00    0.0
2021/10/09 02:47:12.000   28 35 34.11505  -17 55 01.60081    73.3346   6   7   0.0079   0.0193   0.0348   0.0076  -0.0176  -0.0088   0.00    0.0
2021/10/09 02:47:42.000   28 35 34.11506  -17 55 01.60080    73.3344   6   7   0.0079   0.0193   0.0348   0.0076  -0.0176  -0.0088   0.00    0.0
2021/10/09 02:48:12.000   28 35 34.11505  -17 55 01.60080    73.3337   6   7   0.0079   0.0193   0.0348   0.0076  -0.0176  -0.0088   0.00    0.0
2021/10/09 02:48:42.000   28 35 34.11505  -17 55 01.60080    73.3329   6   7   0.0079   0.0193   0.0348   0.0076  -0.0176  -0.0088   0.00    0.0
2021/10/09 02:49:12.000   28 35 34.11504  -17 55 01.60080    73.3314   6   7   0.0078   0.0193   0.0347   0.0076  -0.0177  -0.0088   0.00    0.0
2021/10/09 02:49:42.000   28 35 34.11508  -17 55 01.60084    73.3293   6   7   0.0078   0.0192   0.0344   0.0077  -0.0178  -0.0089   0.00    0.0
2021/10/09 02:50:12.000   28 35 34.11508  -17 55 01.60085    73.3292   6   7   0.0078   0.0192   0.0344   0.0077  -0.0178  -0.0089   0.00    0.0
2021/10/09 02:50:42.000   28 35 34.11508  -17 55 01.60084    73.3291   6   7   0.0077   0.0192   0.0343   0.0077  -0.0178  -0.0089   0.00    0.0
2021/10/09 02:51:12.000   28 35 34.11508  -17 55 01.60084    73.3289   6   7   0.0077   0.0192   0.0343   0.0077  -0.0178  -0.0089   0.00    0.0
2021/10/09 02:51:42.000   28 35 34.11508  -17 55 01.60083    73.3285   6   8   0.0077   0.0192   0.0343   0.0077  -0.0178  -0.0089   0.00    0.0
2021/10/09 02:52:12.000   28 35 34.11508  -17 55 01.60083    73.3282   6   8   0.0077   0.0192   0.0343   0.0077  -0.0178  -0.0089   0.00    0.0
2021/10/09 02:52:42.000   28 35 34.11508  -17 55 01.60082    73.3279   6   8   0.0077   0.0192   0.0343   0.0077  -0.0178  -0.0089   0.00    0.0
2021/10/09 02:53:12.000   28 35 34.11508  -17 55 01.60082    73.3277   6   8   0.0077   0.0192   0.0343   0.0077  -0.0178  -0.0089   0.00    0.0
2021/10/09 02:53:42.000   28 35 34.11508  -17 55 01.60082    73.3279   6   8   0.0077   0.0191   0.0343   0.0077  -0.0178  -0.0089   0.00    0.0
2021/10/09 02:54:12.000   28 35 34.11509  -17 55 01.60080    73.3300   6   8   0.0077   0.0191   0.0342   0.0077  -0.0178  -0.0089   0.00    0.0
2021/10/09 02:54:42.000   28 35 34.11510  -17 55 01.60082    73.3285   6   8   0.0076   0.0191   0.0339   0.0077  -0.0179  -0.0089   0.00    0.0
2021/10/09 02:55:12.000   28 35 34.11508  -17 55 01.60085    73.3259   6   8   0.0076   0.0191   0.0338   0.0078  -0.0179  -0.0090   0.00    0.0
2021/10/09 02:55:42.000   28 35 34.11507  -17 55 01.60085    73.3248   6   8   0.0076   0.0190   0.0338   0.0078  -0.0179  -0.0090   0.00    0.0
2021/10/09 02:56:12.000   28 35 34.11507  -17 55 01.60086    73.3245   6   8   0.0076   0.0190   0.0338   0.0078  -0.0179  -0.0090   0.00    0.0
2021/10/09 02:56:42.000   28 35 34.11507  -17 55 01.60085    73.3243   6   8   0.0076   0.0190   0.0338   0.0078  -0.0179  -0.0090   0.00    0.0
2021/10/09 02:57:12.000   28 35 34.11507  -17 55 01.60085    73.3240   6   8   0.0076   0.0190   0.0338   0.0078  -0.0179  -0.0090   0.00    0.0
2021/10/09 02:57:42.000   28 35 34.11507  -17 55 01.60084    73.3237   6   8   0.0076   0.0190   0.0338   0.0078  -0.0179  -0.0090   0.00    0.0
2021/10/09 02:58:12.000   28 35 34.11508  -17 55 01.60084    73.3233   6   8   0.0076   0.0190   0.0338   0.0078  -0.0179  -0.0090   0.00    0.0
2021/10/09 02:58:42.000   28 35 34.11509  -17 55 01.60083    73.3228   6   8   0.0076   0.0190   0.0337   0.0078  -0.0179  -0.0090   0.00    0.0
2021/10/09 02:59:12.000   28 35 34.11511  -17 55 01.60083    73.3208   6   8   0.0076   0.0190   0.0336   0.0078  -0.0180  -0.0090   0.00    0.0
2021/10/09 02:59:42.000   28 35 34.11513  -17 55 01.60084    73.3169   6   8   0.0075   0.0190   0.0334   0.0078  -0.0180  -0.0090   0.00    0.0
2021/10/09 03:00:12.000   28 35 34.11513  -17 55 01.60085    73.3151   6   8   0.0075   0.0190   0.0333   0.0078  -0.0180  -0.0090   0.00    0.0
2021/10/09 03:00:42.000   28 35 34.11513  -17 55 01.60084    73.3145   6   8   0.0075   0.0190   0.0333   0.0078  -0.0180  -0.0090   0.00    0.0
2021/10/09 03:01:12.000   28 35 34.11514  -17 55 01.60084    73.3141   6   8   0.0075   0.0189   0.0333   0.0078  -0.0180  -0.0090   0.00    0.0
2021/10/09 03:01:42.000   28 35 34.11514  -17 55 01.60083    73.3140   6   8   0.0075   0.0189   0.0333   0.0078  -0.0180  -0.0090   0.00    0.0
2021/10/09 03:02:12.000   28 35 34.11514  -17 55 01.60083    73.3139   6   8   0.0075   0.0189   0.0333   0.0078  -0.0180  -0.0090   0.00    0.0
2021/10/09 03:02:42.000   28 35 34.11514  -17 55 01.60082    73.3138   6   8   0.0075   0.0189   0.0333   0.0078  -0.0180  -0.0090   0.00    0.0
2021/10/09 03:03:12.000   28 35 34.11514  -17 55 01.60082    73.3138   6   8   0.0075   0.0189   0.0333   0.0078  -0.0180  -0.0090   0.00    0.0
2021/10/09 03:03:42.000   28 35 34.11514  -17 55 01.60082    73.3142   6   8   0.0075   0.0189   0.0332   0.0078  -0.0180  -0.0090   0.00    0.0
2021/10/09 03:04:12.000   28 35 34.11515  -17 55 01.60082    73.3150   6   8   0.0074   0.0189   0.0332   0.0078  -0.0181  -0.0090   0.00    0.0
2021/10/09 03:04:42.000   28 35 34.11517  -17 55 01.60083    73.3126   6   8   0.0074   0.0189   0.0330   0.0078  -0.0181  -0.0090   0.00    0.0
2021/10/09 03:05:12.000   28 35 34.11518  -17 55 01.60084    73.3112   6   8   0.0074   0.0189   0.0329   0.0079  -0.0181  -0.0090   0.00    0.0
2021/10/09 03:05:42.000   28 35 34.11518  -17 55 01.60083    73.3111   6   8   0.0074   0.0189   0.0329   0.0079  -0.0181  -0.0090   0.00    0.0
2021/10/09 03:06:12.000   28 35 34.11518  -17 55 01.60083    73.3109   6   8   0.0074   0.0189   0.0329   0.0079  -0.0181  -0.0090   0.00    0.0
2021/10/09 03:06:42.000   28 35 34.11518  -17 55 01.60082    73.3108   6   8   0.0074   0.0189   0.0329   0.0079  -0.0181  -0.0090   0.00    0.0
2021/10/09 03:07:12.000   28 35 34.11518  -17 55 01.60082    73.3108   6   8   0.0074   0.0189   0.0329   0.0079  -0.0181  -0.0090   0.00    0.0
2021/10/09 03:07:42.000   28 35 34.11518  -17 55 01.60082    73.3109   6   8   0.0073   0.0189   0.0329   0.0079  -0.0181  -0.0090   0.00    0.0
2021/10/09 03:08:12.000   28 35 34.11518  -17 55 01.60081    73.3111   6   8   0.0073   0.0189   0.0329   0.0079  -0.0181  -0.0090   0.00    0.0
2021/10/09 03:08:42.000   28 35 34.11519  -17 55 01.60081    73.3113   6   8   0.0073   0.0189   0.0329   0.0079  -0.0181  -0.0090   0.00    0.0
2021/10/09 03:09:12.000   28 35 34.11521  -17 55 01.60080    73.3111   6   8   0.0073   0.0189   0.0328   0.0079  -0.0181  -0.0090   0.00    0.0
2021/10/09 03:09:42.000   28 35 34.11522  -17 55 01.60081    73.3098   6   8   0.0073   0.0188   0.0326   0.0079  -0.0182  -0.0090   0.00    0.0
2021/10/09 03:10:12.000   28 35 34.11522  -17 55 01.60081    73.3096   6   8   0.0072   0.0188   0.0326   0.0079  -0.0182  -0.0090   0.00    0.0
2021/10/09 03:10:42.000   28 35 34.11522  -17 55 01.60081    73.3092   6   8   0.0072   0.0188   0.0326   0.0079  -0.0182  -0.0090   0.00    0.0
2021/10/09 03:11:12.000   28 35 34.11522  -17 55 01.60081    73.3090   6   8   0.0072   0.0188   0.0326   0.0079  -0.0182  -0.0090   0.00    0.0
2021/10/09 03:11:42.000   28 35 34.11522  -17 55 01.60081    73.3089   6   8   0.0072   0.0188   0.0326   0.0079  -0.0182  -0.0090   0.00    0.0
2021/10/09 03:12:12.000   28 35 34.11523  -17 55 01.60080    73.3088   6   8   0.0072   0.0188   0.0325   0.0079  -0.0182  -0.0090   0.00    0.0
2021/10/09 03:12:42.000   28 35 34.11523  -17 55 01.60080    73.3088   6   8   0.0072   0.0188   0.0325   0.0079  -0.0182  -0.0090   0.00    0.0
2021/10/09 03:13:12.000   28 35 34.11522  -17 55 01.60079    73.3088   6   8   0.0072   0.0188   0.0325   0.0079  -0.0182  -0.0090   0.00    0.0
2021/10/09 03:13:42.000   28 35 34.11522  -17 55 01.60079    73.3087   6   8   0.0072   0.0188   0.0325   0.0079  -0.0182  -0.0089   0.00    0.0
2021/10/09 03:14:12.000   28 35 34.11522  -17 55 01.60079    73.3092   6   8   0.0072   0.0188   0.0325   0.0079  -0.0182  -0.0089   0.00    0.0
2021/10/09 03:14:42.000   28 35 34.11523  -17 55 01.60080    73.3095   6   8   0.0071   0.0188   0.0323   0.0079  -0.0183  -0.0089   0.00    0.0
2021/10/09 03:15:12.000   28 35 34.11523  -17 55 01.60079    73.3095   6   8   0.0071   0.0188   0.0323   0.0079  -0.0183  -0.0089   0.00    0.0
2021/10/09 03:15:42.000   28 35 34.11524  -17 55 01.60078    73.3095   6   8   0.0071   0.0188   0.0322   0.0079  -0.0183  -0.0089   0.00    0.0
2021/10/09 03:16:12.000   28 35 34.11524  -17 55 01.60077    73.3095   6   8   0.0071   0.0188   0.0322   0.0079  -0.0183  -0.0089   0.00    0.0
2021/10/09 03:16:42.000   28 35 34.11525  -17 55 01.60077    73.3093   6   8   0.0071   0.0188   0.0322   0.0079  -0.0183  -0.0089   0.00    0.0
2021/10/09 03:17:12.000   28 35 34.11525  -17 55 01.60077    73.3092   6   8   0.0071   0.0188   0.0322   0.0079  -0.0183  -0.0089   0.00    0.0
2021/10/09 03:17:42.000   28 35 34.11525  -17 55 01.60076    73.3089   6   8   0.0071   0.0187   0.0322   0.0079  -0.0183  -0.0089   0.00    0.0
2021/10/09 03:18:12.000   28 35 34.11525  -17 55 01.60075    73.3083   6   8   0.0071   0.0187   0.0322   0.0079  -0.0183  -0.0089   0.00    0.0
2021/10/09 03:18:42.000   28 35 34.11526  -17 55 01.60075    73.3077   6   8   0.0071   0.0187   0.0322   0.0079  -0.0183  -0.0089   0.00    0.0
2021/10/09 03:19:12.000   28 35 34.11526  -17 55 01.60076    73.3056   6   8   0.0071   0.0187   0.0321   0.0079  -0.0183  -0.0089   0.00    0.0
2021/10/09 03:19:42.000   28 35 34.11526  -17 55 01.60076    73.3046   6   8   0.0070   0.0187   0.0320   0.0079  -0.0183  -0.0089   0.00    0.0
2021/10/09 03:20:12.000   28 35 34.11526  -17 55 01.60075    73.3046   6   8   0.0070   0.0187   0.0319   0.0079  -0.0183  -0.0088   0.00    0.0
2021/10/09 03:20:42.000   28 35 34.11526  -17 55 01.60074    73.3045   6   8   0.0070   0.0187   0.0319   0.0079  -0.0183  -0.0088   0.00    0.0
2021/10/09 03:21:12.000   28 35 34.11526  -17 55 01.60074    73.3043   6   8   0.0070   0.0187   0.0319   0.0079  -0.0183  -0.0088   0.00    0.0
2021/10/09 03:21:42.000   28 35 34.11526  -17 55 01.60074    73.3042   6   8   0.0070   0.0187   0.0319   0.0079  -0.0183  -0.0088   0.00    0.0
2021/10/09 03:22:12.000   28 35 34.11526  -17 55 01.60074    73.3043   6   8   0.0070   0.0187   0.0319   0.0079  -0.0183  -0.0088   0.00    0.0
2021/10/09 03:22:42.000   28 35 34.11526  -17 55 01.60073    73.3043   6   8   0.0070   0.0187   0.0319   0.0079  -0.0183  -0.0088   0.00    0.0
2021/10/09 03:23:12.000   28 35 34.11526  -17 55 01.60073    73.3042   6   8   0.0070   0.0187   0.0319   0.0079  -0.0183  -0.0088   0.00    0.0
