% program   : RTKLIB ver.2.4.2
% inp file  : C:\IPNA\data\OBS\CVBB2920.o
% inp file  : C:\IPNA\data\NAV\CVBB2920.n
% inp file  : C:\IPNA\data\SP3\CVBB2920.sp3
% inp file  : C:\IPNA\data\CLOCK\CVBB2920.clk
% obs start : 2021/10/18 23:59:42.0 UTC (week2180 172800.0s)
% obs end   : 2021/10/19 20:35:12.0 UTC (week2180 246930.0s)
% pos mode  : ppp-static
% solution  : forward
% elev mask : 15.0 deg
% dynamics  : off
% tidecorr  : on
% tropo opt : est ztd
% ephemeris : precise
% antenna1  :                       ( 0.0000  0.0000  0.0000)
%
% (lat/lon/height=WGS84/ellipsoidal,Q=1:fix,2:float,3:sbas,4:dgps,5:single,6:ppp,ns=# of satellites)
%  UTC                     latitude(d'")   longitude(d'")  height(m)   Q  ns   sdn(m)   sde(m)   sdu(m)  sdne(m)  sdeu(m)  sdue(m) age(s)  ratio
2021/10/18 23:59:42.000   28 35 34.10143  -17 55 01.56021    76.4033   6   6   1.5672   1.6062   4.1272   0.1526   1.3948  -1.4248   0.00    0.0
2021/10/19 00:00:12.000   28 35 34.10096  -17 55 01.56912    75.3386   6   6   1.0939   1.1321   2.8119   0.1478   0.9467  -0.9622   0.00    0.0
2021/10/19 00:00:42.000   28 35 34.10488  -17 55 01.57060    75.4197   6   6   0.8873   0.9236   2.2524   0.1362   0.7568  -0.7649   0.00    0.0
2021/10/19 00:01:12.000   28 35 34.10482  -17 55 01.57610    74.9547   6   6   0.7653   0.7999   1.9281   0.1271   0.6468  -0.6497   0.00    0.0
2021/10/19 00:01:42.000   28 35 34.10447  -17 55 01.58131    74.7828   6   6   0.6828   0.7159   1.7114   0.1201   0.5734  -0.5721   0.00    0.0
2021/10/19 00:02:12.000   28 35 34.10270  -17 55 01.58484    74.7738   6   6   0.6222   0.6542   1.5540   0.1146   0.5201  -0.5152   0.00    0.0
2021/10/19 00:02:42.000   28 35 34.10298  -17 55 01.58564    74.6765   6   6   0.5714   0.6048   1.4085   0.1133   0.4697  -0.4627   0.00    0.0
2021/10/19 00:03:12.000   28 35 34.10379  -17 55 01.59128    74.5451   6   7   0.5236   0.5525   1.2375   0.1268   0.3854  -0.4010   0.00    0.0
2021/10/19 00:03:42.000   28 35 34.10289  -17 55 01.59286    74.3053   6   7   0.4726   0.5097   1.0571   0.1321   0.3070  -0.3342   0.00    0.0
2021/10/19 00:04:12.000   28 35 34.10191  -17 55 01.59442    74.1689   6   7   0.4055   0.4705   0.8434   0.1304   0.2217  -0.2461   0.00    0.0
2021/10/19 00:04:42.000   28 35 34.10436  -17 55 01.59959    73.5106   6   7   0.3267   0.4316   0.6530   0.1167   0.1437  -0.1427   0.00    0.0
2021/10/19 00:05:12.000   28 35 34.10437  -17 55 01.59974    73.3399   6   7   0.3082   0.4104   0.6193   0.1127   0.1321  -0.1275   0.00    0.0
2021/10/19 00:05:42.000   28 35 34.10465  -17 55 01.59894    73.2997   6   7   0.2979   0.3936   0.6038   0.1100   0.1276  -0.1208   0.00    0.0
2021/10/19 00:06:12.000   28 35 34.10354  -17 55 01.59974    73.3093   6   7   0.2902   0.3791   0.5931   0.1079   0.1248  -0.1163   0.00    0.0
2021/10/19 00:06:42.000   28 35 34.10217  -17 55 01.60094    73.3329   6   7   0.2837   0.3664   0.5846   0.1060   0.1228  -0.1126   0.00    0.0
2021/10/19 00:07:12.000   28 35 34.10125  -17 55 01.60092    73.3401   6   7   0.2779   0.3549   0.5772   0.1043   0.1211  -0.1094   0.00    0.0
2021/10/19 00:07:42.000   28 35 34.10079  -17 55 01.59947    73.3566   6   7   0.2714   0.3442   0.5678   0.1025   0.1190  -0.1048   0.00    0.0
2021/10/19 00:08:12.000   28 35 34.10146  -17 55 01.59937    73.3101   6   7   0.2632   0.3339   0.5544   0.1005   0.1158  -0.0975   0.00    0.0
2021/10/19 00:08:42.000   28 35 34.10345  -17 55 01.60022    73.1664   6   7   0.2506   0.3233   0.5321   0.0976   0.1102  -0.0832   0.00    0.0
2021/10/19 00:09:12.000   28 35 34.10683  -17 55 01.59973    72.9779   6   7   0.2266   0.3097   0.4880   0.0919   0.0985  -0.0438   0.00    0.0
2021/10/19 00:09:42.000   28 35 34.10882  -17 55 01.59834    73.0229   6   7   0.1867   0.2883   0.4217   0.0791   0.0776   0.0642   0.00    0.0
2021/10/19 00:10:12.000   28 35 34.10946  -17 55 01.59786    73.1236   6   7   0.1783   0.2795   0.4079   0.0771   0.0763   0.0701   0.00    0.0
2021/10/19 00:10:42.000   28 35 34.10926  -17 55 01.59888    73.1624   6   7   0.1747   0.2733   0.4024   0.0762   0.0765   0.0718   0.00    0.0
2021/10/19 00:11:12.000   28 35 34.10927  -17 55 01.59821    73.1599   6   7   0.1724   0.2681   0.3991   0.0755   0.0769   0.0726   0.00    0.0
2021/10/19 00:11:42.000   28 35 34.10898  -17 55 01.59739    73.1696   6   7   0.1705   0.2633   0.3966   0.0749   0.0774   0.0730   0.00    0.0
2021/10/19 00:12:12.000   28 35 34.10851  -17 55 01.59788    73.1784   6   7   0.1690   0.2589   0.3947   0.0744   0.0778   0.0733   0.00    0.0
2021/10/19 00:12:42.000   28 35 34.10799  -17 55 01.59897    73.2062   6   7   0.1670   0.2544   0.3918   0.0738   0.0780   0.0739   0.00    0.0
2021/10/19 00:13:12.000   28 35 34.10759  -17 55 01.59941    73.2051   6   7   0.1642   0.2498   0.3873   0.0731   0.0780   0.0749   0.00    0.0
2021/10/19 00:13:42.000   28 35 34.10737  -17 55 01.59955    73.1687   6   7   0.1592   0.2444   0.3787   0.0718   0.0774   0.0768   0.00    0.0
2021/10/19 00:14:12.000   28 35 34.10675  -17 55 01.59997    73.1613   6   7   0.1481   0.2357   0.3584   0.0688   0.0745   0.0796   0.00    0.0
2021/10/19 00:14:42.000   28 35 34.10928  -17 55 01.59949    73.1180   6   7   0.1254   0.2184   0.3201   0.0597   0.0639   0.0785   0.00    0.0
2021/10/19 00:15:12.000   28 35 34.11000  -17 55 01.59933    73.0827   6   7   0.1206   0.2128   0.3096   0.0584   0.0633   0.0783   0.00    0.0
2021/10/19 00:15:42.000   28 35 34.11028  -17 55 01.59943    73.0838   6   7   0.1188   0.2095   0.3055   0.0579   0.0633   0.0780   0.00    0.0
2021/10/19 00:16:12.000   28 35 34.11035  -17 55 01.59928    73.0671   6   7   0.1177   0.2068   0.3031   0.0576   0.0634   0.0779   0.00    0.0
2021/10/19 00:16:42.000   28 35 34.11039  -17 55 01.59891    73.0531   6   7   0.1169   0.2044   0.3015   0.0573   0.0635   0.0777   0.00    0.0
2021/10/19 00:17:12.000   28 35 34.11036  -17 55 01.59872    73.0418   6   7   0.1163   0.2023   0.3003   0.0571   0.0636   0.0776   0.00    0.0
2021/10/19 00:17:42.000   28 35 34.11028  -17 55 01.59863    73.0354   6   8   0.1154   0.1998   0.2983   0.0566   0.0635   0.0774   0.00    0.0
2021/10/19 00:18:12.000   28 35 34.11040  -17 55 01.59833    73.0413   6   8   0.1140   0.1970   0.2949   0.0560   0.0632   0.0769   0.00    0.0
2021/10/19 00:18:42.000   28 35 34.11097  -17 55 01.59861    73.0018   6   8   0.1114   0.1933   0.2882   0.0550   0.0623   0.0759   0.00    0.0
2021/10/19 00:19:12.000   28 35 34.11254  -17 55 01.59870    72.9577   6   8   0.1052   0.1867   0.2725   0.0528   0.0594   0.0730   0.00    0.0
2021/10/19 00:19:42.000   28 35 34.11366  -17 55 01.59918    73.0364   6   8   0.0909   0.1719   0.2427   0.0459   0.0496   0.0645   0.00    0.0
2021/10/19 00:20:12.000   28 35 34.11373  -17 55 01.59967    73.0327   6   8   0.0878   0.1677   0.2339   0.0448   0.0485   0.0628   0.00    0.0
2021/10/19 00:20:42.000   28 35 34.11388  -17 55 01.59947    73.0294   6   8   0.0866   0.1655   0.2305   0.0444   0.0481   0.0621   0.00    0.0
2021/10/19 00:21:12.000   28 35 34.11387  -17 55 01.59928    73.0355   6   8   0.0860   0.1638   0.2286   0.0440   0.0479   0.0617   0.00    0.0
2021/10/19 00:21:42.000   28 35 34.11382  -17 55 01.59931    73.0432   6   8   0.0856   0.1623   0.2274   0.0438   0.0477   0.0615   0.00    0.0
2021/10/19 00:22:12.000   28 35 34.11372  -17 55 01.59939    73.0521   6   8   0.0852   0.1610   0.2264   0.0435   0.0475   0.0612   0.00    0.0
2021/10/19 00:22:42.000   28 35 34.11369  -17 55 01.59937    73.0626   6   8   0.0847   0.1596   0.2250   0.0432   0.0473   0.0609   0.00    0.0
2021/10/19 00:23:12.000   28 35 34.11356  -17 55 01.59912    73.0772   6   8   0.0839   0.1579   0.2226   0.0429   0.0470   0.0604   0.00    0.0
2021/10/19 00:23:42.000   28 35 34.11329  -17 55 01.59924    73.1015   6   8   0.0824   0.1555   0.2178   0.0423   0.0464   0.0592   0.00    0.0
2021/10/19 00:24:12.000   28 35 34.11250  -17 55 01.59968    73.1047   6   8   0.0785   0.1506   0.2068   0.0408   0.0443   0.0560   0.00    0.0
2021/10/19 00:24:42.000   28 35 34.11360  -17 55 01.60040    73.1196   6   8   0.0690   0.1386   0.1862   0.0359   0.0364   0.0479   0.00    0.0
2021/10/19 00:25:12.000   28 35 34.11425  -17 55 01.60018    73.1618   6   8   0.0669   0.1354   0.1798   0.0351   0.0357   0.0463   0.00    0.0
2021/10/19 00:25:42.000   28 35 34.11439  -17 55 01.59988    73.1770   6   8   0.0661   0.1339   0.1772   0.0348   0.0354   0.0457   0.00    0.0
2021/10/19 00:26:12.000   28 35 34.11441  -17 55 01.59963    73.1878   6   8   0.0657   0.1329   0.1759   0.0346   0.0352   0.0454   0.00    0.0
2021/10/19 00:26:42.000   28 35 34.11437  -17 55 01.59942    73.1889   6   8   0.0655   0.1320   0.1750   0.0344   0.0350   0.0452   0.00    0.0
2021/10/19 00:27:12.000   28 35 34.11430  -17 55 01.59967    73.1895   6   8   0.0652   0.1312   0.1744   0.0343   0.0348   0.0450   0.00    0.0
2021/10/19 00:27:42.000   28 35 34.11427  -17 55 01.59963    73.1920   6   8   0.0649   0.1303   0.1734   0.0341   0.0345   0.0448   0.00    0.0
2021/10/19 00:28:12.000   28 35 34.11420  -17 55 01.59945    73.1913   6   7   0.0645   0.1292   0.1716   0.0338   0.0341   0.0443   0.00    0.0
2021/10/19 00:28:42.000   28 35 34.11405  -17 55 01.59927    73.1918   6   7   0.0635   0.1274   0.1683   0.0334   0.0331   0.0433   0.00    0.0
2021/10/19 00:29:12.000   28 35 34.11413  -17 55 01.59919    73.2143   6   7   0.0609   0.1235   0.1608   0.0322   0.0306   0.0407   0.00    0.0
2021/10/19 00:29:42.000   28 35 34.11467  -17 55 01.59941    73.2064   6   7   0.0545   0.1139   0.1471   0.0288   0.0249   0.0345   0.00    0.0
2021/10/19 00:30:12.000   28 35 34.11476  -17 55 01.59917    73.1842   6   6   0.0530   0.1115   0.1443   0.0284   0.0243   0.0332   0.00    0.0
2021/10/19 00:30:42.000   28 35 34.11481  -17 55 01.59889    73.1770   6   6   0.0525   0.1105   0.1434   0.0282   0.0242   0.0327   0.00    0.0
2021/10/19 00:31:12.000   28 35 34.11482  -17 55 01.59884    73.1770   6   6   0.0522   0.1098   0.1429   0.0281   0.0241   0.0325   0.00    0.0
2021/10/19 00:31:42.000   28 35 34.11482  -17 55 01.59869    73.1774   6   6   0.0520   0.1093   0.1425   0.0280   0.0240   0.0324   0.00    0.0
2021/10/19 00:32:12.000   28 35 34.11482  -17 55 01.59883    73.1749   6   6   0.0519   0.1089   0.1423   0.0279   0.0239   0.0323   0.00    0.0
2021/10/19 00:32:42.000   28 35 34.11480  -17 55 01.59890    73.1695   6   6   0.0517   0.1083   0.1420   0.0278   0.0238   0.0321   0.00    0.0
2021/10/19 00:33:12.000   28 35 34.11476  -17 55 01.59889    73.1591   6   6   0.0514   0.1076   0.1414   0.0277   0.0236   0.0318   0.00    0.0
2021/10/19 00:33:42.000   28 35 34.11475  -17 55 01.59877    73.1458   6   6   0.0507   0.1064   0.1402   0.0275   0.0231   0.0312   0.00    0.0
2021/10/19 00:34:12.000   28 35 34.11464  -17 55 01.59883    73.1209   6   6   0.0490   0.1034   0.1373   0.0268   0.0214   0.0292   0.00    0.0
2021/10/19 00:34:42.000   28 35 34.11492  -17 55 01.59886    73.1243   6   6   0.0441   0.0952   0.1301   0.0243   0.0128   0.0230   0.00    0.0
2021/10/19 00:35:12.000   28 35 34.11482  -17 55 01.59890    73.1242   6   6   0.0431   0.0933   0.1282   0.0239   0.0117   0.0218   0.00    0.0
2021/10/19 00:35:42.000   28 35 34.11476  -17 55 01.59883    73.1210   6   6   0.0428   0.0925   0.1276   0.0237   0.0113   0.0214   0.00    0.0
2021/10/19 00:36:12.000   28 35 34.11476  -17 55 01.59868    73.1187   6   6   0.0426   0.0921   0.1272   0.0236   0.0112   0.0212   0.00    0.0
2021/10/19 00:36:42.000   28 35 34.11476  -17 55 01.59861    73.1192   6   6   0.0424   0.0917   0.1270   0.0236   0.0111   0.0211   0.00    0.0
2021/10/19 00:37:12.000   28 35 34.11477  -17 55 01.59864    73.1200   6   6   0.0424   0.0914   0.1268   0.0235   0.0110   0.0210   0.00    0.0
2021/10/19 00:37:42.000   28 35 34.11479  -17 55 01.59862    73.1208   6   6   0.0422   0.0911   0.1266   0.0235   0.0109   0.0209   0.00    0.0
2021/10/19 00:38:12.000   28 35 34.11479  -17 55 01.59865    73.1190   6   6   0.0420   0.0905   0.1263   0.0234   0.0107   0.0206   0.00    0.0
2021/10/19 00:38:42.000   28 35 34.11481  -17 55 01.59868    73.1144   6   6   0.0416   0.0897   0.1255   0.0232   0.0103   0.0201   0.00    0.0
2021/10/19 00:39:12.000   28 35 34.11491  -17 55 01.59858    73.1174   6   6   0.0404   0.0875   0.1237   0.0227   0.0084   0.0183   0.00    0.0
2021/10/19 00:39:42.000   28 35 34.11519  -17 55 01.59848    73.1438   6   6   0.0369   0.0811   0.1189   0.0209  -0.0109   0.0112   0.00    0.0
2021/10/19 00:40:12.000   28 35 34.11525  -17 55 01.59837    73.1497   6   6   0.0362   0.0797   0.1177   0.0207  -0.0116   0.0095   0.00    0.0
2021/10/19 00:40:42.000   28 35 34.11529  -17 55 01.59831    73.1572   6   6   0.0359   0.0791   0.1172   0.0206  -0.0117   0.0089   0.00    0.0
2021/10/19 00:41:12.000   28 35 34.11533  -17 55 01.59813    73.1614   6   6   0.0358   0.0788   0.1170   0.0205  -0.0118   0.0086   0.00    0.0
2021/10/19 00:41:42.000   28 35 34.11534  -17 55 01.59806    73.1634   6   6   0.0357   0.0785   0.1168   0.0204  -0.0119   0.0084   0.00    0.0
2021/10/19 00:42:12.000   28 35 34.11536  -17 55 01.59797    73.1651   6   6   0.0356   0.0783   0.1167   0.0204  -0.0119   0.0083   0.00    0.0
2021/10/19 00:42:42.000   28 35 34.11539  -17 55 01.59790    73.1659   6   6   0.0355   0.0780   0.1166   0.0204  -0.0120   0.0080   0.00    0.0
2021/10/19 00:43:12.000   28 35 34.11539  -17 55 01.59778    73.1672   6   6   0.0354   0.0776   0.1163   0.0203  -0.0122   0.0076   0.00    0.0
2021/10/19 00:43:42.000   28 35 34.11533  -17 55 01.59774    73.1677   6   6   0.0350   0.0770   0.1158   0.0202  -0.0126   0.0064   0.00    0.0
2021/10/19 00:44:12.000   28 35 34.11522  -17 55 01.59784    73.1711   6   6   0.0342   0.0752   0.1146   0.0198  -0.0140  -0.0025   0.00    0.0
2021/10/19 00:44:42.000   28 35 34.11536  -17 55 01.59782    73.1747   6   6   0.0317   0.0700   0.1112   0.0186  -0.0191  -0.0123   0.00    0.0
2021/10/19 00:45:12.000   28 35 34.11538  -17 55 01.59783    73.1769   6   6   0.0311   0.0688   0.1103   0.0184  -0.0195  -0.0133   0.00    0.0
2021/10/19 00:45:42.000   28 35 34.11534  -17 55 01.59787    73.1800   6   6   0.0309   0.0684   0.1099   0.0183  -0.0196  -0.0137   0.00    0.0
2021/10/19 00:46:12.000   28 35 34.11531  -17 55 01.59779    73.1830   6   6   0.0308   0.0681   0.1098   0.0183  -0.0197  -0.0138   0.00    0.0
2021/10/19 00:46:42.000   28 35 34.11529  -17 55 01.59774    73.1855   6   6   0.0307   0.0679   0.1097   0.0183  -0.0197  -0.0139   0.00    0.0
2021/10/19 00:47:12.000   28 35 34.11529  -17 55 01.59771    73.1878   6   6   0.0307   0.0678   0.1096   0.0182  -0.0198  -0.0139   0.00    0.0
2021/10/19 00:47:42.000   28 35 34.11528  -17 55 01.59760    73.1907   6   6   0.0306   0.0676   0.1095   0.0182  -0.0198  -0.0140   0.00    0.0
2021/10/19 00:48:12.000   28 35 34.11529  -17 55 01.59755    73.1944   6   6   0.0305   0.0673   0.1093   0.0182  -0.0200  -0.0142   0.00    0.0
2021/10/19 00:48:42.000   28 35 34.11537  -17 55 01.59750    73.1985   6   6   0.0303   0.0668   0.1090   0.0181  -0.0202  -0.0146   0.00    0.0
2021/10/19 00:49:12.000   28 35 34.11550  -17 55 01.59740    73.2047   6   6   0.0297   0.0654   0.1081   0.0179  -0.0210  -0.0157   0.00    0.0
2021/10/19 00:49:42.000   28 35 34.11561  -17 55 01.59744    73.1963   6   6   0.0278   0.0613   0.1055   0.0172  -0.0240  -0.0189   0.00    0.0
2021/10/19 00:50:12.000   28 35 34.11568  -17 55 01.59742    73.2022   6   6   0.0274   0.0603   0.1049   0.0170  -0.0243  -0.0194   0.00    0.0
2021/10/19 00:50:42.000   28 35 34.11566  -17 55 01.59738    73.2044   6   6   0.0272   0.0600   0.1046   0.0170  -0.0244  -0.0196   0.00    0.0
2021/10/19 00:51:12.000   28 35 34.11564  -17 55 01.59733    73.2064   6   6   0.0271   0.0598   0.1045   0.0170  -0.0245  -0.0197   0.00    0.0
2021/10/19 00:51:42.000   28 35 34.11563  -17 55 01.59729    73.2077   6   6   0.0271   0.0596   0.1044   0.0169  -0.0245  -0.0197   0.00    0.0
2021/10/19 00:52:12.000   28 35 34.11562  -17 55 01.59730    73.2078   6   6   0.0271   0.0595   0.1044   0.0169  -0.0245  -0.0197   0.00    0.0
2021/10/19 00:52:42.000   28 35 34.11563  -17 55 01.59728    73.2076   6   6   0.0270   0.0594   0.1043   0.0169  -0.0246  -0.0198   0.00    0.0
2021/10/19 00:53:12.000   28 35 34.11566  -17 55 01.59720    73.2072   6   6   0.0269   0.0592   0.1042   0.0169  -0.0247  -0.0199   0.00    0.0
2021/10/19 00:53:42.000   28 35 34.11569  -17 55 01.59713    73.2094   6   6   0.0268   0.0588   0.1039   0.0168  -0.0249  -0.0201   0.00    0.0
2021/10/19 00:54:12.000   28 35 34.11567  -17 55 01.59720    73.2132   6   6   0.0263   0.0577   0.1032   0.0167  -0.0255  -0.0207   0.00    0.0
2021/10/19 00:54:42.000   28 35 34.11568  -17 55 01.59729    73.2192   6   6   0.0249   0.0544   0.1011   0.0163  -0.0279  -0.0226   0.00    0.0
2021/10/19 00:55:12.000   28 35 34.11564  -17 55 01.59731    73.2206   6   6   0.0246   0.0537   0.1005   0.0163  -0.0282  -0.0229   0.00    0.0
2021/10/19 00:55:42.000   28 35 34.11560  -17 55 01.59732    73.2200   6   6   0.0245   0.0534   0.1003   0.0162  -0.0283  -0.0230   0.00    0.0
2021/10/19 00:56:12.000   28 35 34.11559  -17 55 01.59726    73.2196   6   6   0.0245   0.0533   0.1002   0.0162  -0.0284  -0.0231   0.00    0.0
2021/10/19 00:56:42.000   28 35 34.11560  -17 55 01.59721    73.2201   6   6   0.0244   0.0532   0.1001   0.0162  -0.0284  -0.0231   0.00    0.0
2021/10/19 00:57:12.000   28 35 34.11562  -17 55 01.59714    73.2207   6   6   0.0244   0.0531   0.1001   0.0162  -0.0284  -0.0231   0.00    0.0
2021/10/19 00:57:42.000   28 35 34.11563  -17 55 01.59709    73.2215   6   6   0.0244   0.0530   0.1000   0.0162  -0.0285  -0.0232   0.00    0.0
2021/10/19 00:58:12.000   28 35 34.11565  -17 55 01.59701    73.2223   6   6   0.0243   0.0528   0.0999   0.0162  -0.0286  -0.0232   0.00    0.0
2021/10/19 00:58:42.000   28 35 34.11569  -17 55 01.59692    73.2224   6   6   0.0242   0.0525   0.0996   0.0161  -0.0287  -0.0234   0.00    0.0
2021/10/19 00:59:12.000   28 35 34.11573  -17 55 01.59691    73.2233   6   6   0.0239   0.0517   0.0989   0.0161  -0.0293  -0.0238   0.00    0.0
2021/10/19 00:59:42.000   28 35 34.11577  -17 55 01.59709    73.2382   6   6   0.0228   0.0491   0.0969   0.0160  -0.0311  -0.0249   0.00    0.0
2021/10/19 01:00:12.000   28 35 34.11576  -17 55 01.59713    73.2457   6   6   0.0226   0.0485   0.0964   0.0160  -0.0314  -0.0251   0.00    0.0
2021/10/19 01:00:42.000   28 35 34.11576  -17 55 01.59713    73.2505   6   6   0.0225   0.0483   0.0961   0.0160  -0.0315  -0.0252   0.00    0.0
2021/10/19 01:01:12.000   28 35 34.11576  -17 55 01.59713    73.2527   6   6   0.0225   0.0481   0.0960   0.0160  -0.0316  -0.0252   0.00    0.0
2021/10/19 01:01:42.000   28 35 34.11576  -17 55 01.59711    73.2539   6   6   0.0224   0.0481   0.0959   0.0160  -0.0316  -0.0253   0.00    0.0
2021/10/19 01:02:12.000   28 35 34.11576  -17 55 01.59708    73.2553   6   6   0.0224   0.0480   0.0959   0.0159  -0.0316  -0.0253   0.00    0.0
2021/10/19 01:02:42.000   28 35 34.11576  -17 55 01.59706    73.2576   6   6   0.0224   0.0479   0.0958   0.0159  -0.0316  -0.0253   0.00    0.0
2021/10/19 01:03:12.000   28 35 34.11577  -17 55 01.59704    73.2626   6   6   0.0223   0.0478   0.0956   0.0159  -0.0317  -0.0253   0.00    0.0
2021/10/19 01:03:42.000   28 35 34.11578  -17 55 01.59701    73.2682   6   6   0.0222   0.0475   0.0953   0.0159  -0.0318  -0.0254   0.00    0.0
2021/10/19 01:04:12.000   28 35 34.11577  -17 55 01.59705    73.2773   6   6   0.0220   0.0469   0.0944   0.0160  -0.0322  -0.0256   0.00    0.0
2021/10/19 01:04:42.000   28 35 34.11575  -17 55 01.59715    73.2777   6   6   0.0212   0.0448   0.0923   0.0160  -0.0336  -0.0263   0.00    0.0
2021/10/19 01:05:12.000   28 35 34.11579  -17 55 01.59711    73.2833   6   6   0.0210   0.0444   0.0917   0.0160  -0.0338  -0.0263   0.00    0.0
2021/10/19 01:05:42.000   28 35 34.11582  -17 55 01.59707    73.2873   6   6   0.0209   0.0442   0.0914   0.0160  -0.0339  -0.0264   0.00    0.0
2021/10/19 01:06:12.000   28 35 34.11583  -17 55 01.59703    73.2885   6   5   0.0209   0.0441   0.0913   0.0160  -0.0339  -0.0264   0.00    0.0
2021/10/19 01:06:42.000   28 35 34.11584  -17 55 01.59700    73.2891   6   5   0.0209   0.0441   0.0913   0.0160  -0.0339  -0.0264   0.00    0.0
2021/10/19 01:07:12.000   28 35 34.11584  -17 55 01.59698    73.2897   6   5   0.0209   0.0440   0.0913   0.0160  -0.0340  -0.0264   0.00    0.0
2021/10/19 01:07:42.000   28 35 34.11583  -17 55 01.59697    73.2896   6   5   0.0208   0.0440   0.0912   0.0160  -0.0340  -0.0264   0.00    0.0
2021/10/19 01:08:12.000   28 35 34.11582  -17 55 01.59699    73.2898   6   5   0.0208   0.0439   0.0912   0.0160  -0.0340  -0.0264   0.00    0.0
2021/10/19 01:08:42.000   28 35 34.11581  -17 55 01.59698    73.2907   6   5   0.0207   0.0437   0.0911   0.0160  -0.0341  -0.0265   0.00    0.0
2021/10/19 01:09:12.000   28 35 34.11580  -17 55 01.59700    73.2895   6   5   0.0205   0.0432   0.0907   0.0161  -0.0345  -0.0266   0.00    0.0
2021/10/19 01:09:42.000   28 35 34.11579  -17 55 01.59712    73.2895   6   5   0.0199   0.0416   0.0896   0.0162  -0.0357  -0.0271   0.00    0.0
2021/10/19 01:10:12.000   28 35 34.11578  -17 55 01.59718    73.2888   6   5   0.0197   0.0413   0.0894   0.0163  -0.0359  -0.0272   0.00    0.0
2021/10/19 01:10:42.000   28 35 34.11579  -17 55 01.59720    73.2894   6   5   0.0197   0.0411   0.0893   0.0163  -0.0360  -0.0272   0.00    0.0
2021/10/19 01:11:12.000   28 35 34.11578  -17 55 01.59720    73.2903   6   5   0.0197   0.0411   0.0892   0.0163  -0.0360  -0.0272   0.00    0.0
2021/10/19 01:11:42.000   28 35 34.11578  -17 55 01.59718    73.2904   6   5   0.0196   0.0410   0.0892   0.0163  -0.0360  -0.0272   0.00    0.0
2021/10/19 01:12:12.000   28 35 34.11577  -17 55 01.59716    73.2905   6   5   0.0196   0.0410   0.0892   0.0163  -0.0360  -0.0272   0.00    0.0
2021/10/19 01:12:42.000   28 35 34.11576  -17 55 01.59715    73.2899   6   5   0.0196   0.0409   0.0892   0.0163  -0.0360  -0.0272   0.00    0.0
2021/10/19 01:13:12.000   28 35 34.11575  -17 55 01.59716    73.2889   6   5   0.0196   0.0409   0.0891   0.0163  -0.0361  -0.0273   0.00    0.0
2021/10/19 01:13:42.000   28 35 34.11574  -17 55 01.59715    73.2880   6   5   0.0195   0.0407   0.0890   0.0163  -0.0362  -0.0273   0.00    0.0
2021/10/19 01:14:12.000   28 35 34.11569  -17 55 01.59721    73.2852   6   5   0.0194   0.0404   0.0887   0.0163  -0.0364  -0.0274   0.00    0.0
2021/10/19 01:14:42.000   28 35 34.11568  -17 55 01.59734    73.2839   6   5   0.0189   0.0392   0.0876   0.0165  -0.0375  -0.0277   0.00    0.0
2021/10/19 12:54:42.015   28 35 34.11568  -17 55 01.59735    73.2852   6   8   0.0189   0.0392   0.0876   0.0165  -0.0374  -0.0277   0.00    0.0
2021/10/19 12:55:12.000   28 35 34.11567  -17 55 01.59733    73.2853   6   7   0.0189   0.0392   0.0876   0.0165  -0.0374  -0.0277   0.00    0.0
2021/10/19 12:55:42.000   28 35 34.11567  -17 55 01.59730    73.2856   6   7   0.0189   0.0392   0.0875   0.0165  -0.0374  -0.0277   0.00    0.0
2021/10/19 12:56:12.000   28 35 34.11566  -17 55 01.59730    73.2868   6   7   0.0189   0.0391   0.0875   0.0165  -0.0374  -0.0277   0.00    0.0
2021/10/19 12:56:42.000   28 35 34.11565  -17 55 01.59730    73.2883   6   8   0.0189   0.0391   0.0875   0.0165  -0.0373  -0.0276   0.00    0.0
2021/10/19 12:57:12.000   28 35 34.11565  -17 55 01.59730    73.2889   6   8   0.0188   0.0391   0.0875   0.0165  -0.0373  -0.0276   0.00    0.0
2021/10/19 12:57:42.000   28 35 34.11565  -17 55 01.59728    73.2890   6   8   0.0188   0.0391   0.0875   0.0164  -0.0373  -0.0276   0.00    0.0
2021/10/19 12:58:12.000   28 35 34.11564  -17 55 01.59727    73.2901   6   8   0.0188   0.0391   0.0874   0.0164  -0.0373  -0.0276   0.00    0.0
2021/10/19 12:58:42.000   28 35 34.11564  -17 55 01.59724    73.2899   6   8   0.0188   0.0390   0.0874   0.0164  -0.0372  -0.0276   0.00    0.0
2021/10/19 12:59:12.000   28 35 34.11564  -17 55 01.59720    73.2899   6   8   0.0188   0.0390   0.0873   0.0164  -0.0372  -0.0276   0.00    0.0
2021/10/19 12:59:42.000   28 35 34.11563  -17 55 01.59719    73.2910   6   8   0.0188   0.0390   0.0871   0.0164  -0.0371  -0.0275   0.00    0.0
2021/10/19 13:00:12.000   28 35 34.11563  -17 55 01.59714    73.2910   6   8   0.0188   0.0389   0.0870   0.0164  -0.0370  -0.0274   0.00    0.0
2021/10/19 13:00:42.000   28 35 34.11563  -17 55 01.59714    73.2917   6   8   0.0188   0.0389   0.0869   0.0163  -0.0370  -0.0274   0.00    0.0
2021/10/19 13:01:12.000   28 35 34.11563  -17 55 01.59714    73.2928   6   8   0.0188   0.0389   0.0869   0.0163  -0.0370  -0.0274   0.00    0.0
2021/10/19 13:01:42.000   28 35 34.11562  -17 55 01.59714    73.2929   6   8   0.0188   0.0389   0.0869   0.0163  -0.0370  -0.0274   0.00    0.0
2021/10/19 13:02:12.000   28 35 34.11562  -17 55 01.59714    73.2934   6   8   0.0188   0.0388   0.0869   0.0163  -0.0369  -0.0274   0.00    0.0
2021/10/19 13:02:42.000   28 35 34.11562  -17 55 01.59714    73.2939   6   8   0.0188   0.0388   0.0868   0.0163  -0.0369  -0.0274   0.00    0.0
2021/10/19 13:03:12.000   28 35 34.11562  -17 55 01.59714    73.2935   6   8   0.0187   0.0388   0.0868   0.0163  -0.0369  -0.0273   0.00    0.0
2021/10/19 13:03:42.000   28 35 34.11562  -17 55 01.59714    73.2928   6   8   0.0187   0.0388   0.0866   0.0163  -0.0368  -0.0273   0.00    0.0
2021/10/19 13:04:12.000   28 35 34.11562  -17 55 01.59715    73.2918   6   8   0.0187   0.0387   0.0863   0.0162  -0.0366  -0.0272   0.00    0.0
2021/10/19 13:04:42.000   28 35 34.11560  -17 55 01.59719    73.2942   6   8   0.0186   0.0386   0.0855   0.0161  -0.0363  -0.0269   0.00    0.0
2021/10/19 13:05:12.000   28 35 34.11560  -17 55 01.59718    73.2935   6   8   0.0186   0.0385   0.0853   0.0161  -0.0362  -0.0269   0.00    0.0
2021/10/19 13:05:42.000   28 35 34.11559  -17 55 01.59716    73.2935   6   8   0.0186   0.0385   0.0852   0.0161  -0.0361  -0.0268   0.00    0.0
2021/10/19 13:06:12.000   28 35 34.11559  -17 55 01.59716    73.2946   6   8   0.0186   0.0385   0.0851   0.0160  -0.0361  -0.0268   0.00    0.0
2021/10/19 13:06:42.000   28 35 34.11558  -17 55 01.59713    73.2944   6   8   0.0186   0.0384   0.0851   0.0160  -0.0361  -0.0268   0.00    0.0
2021/10/19 13:07:12.000   28 35 34.11558  -17 55 01.59711    73.2948   6   8   0.0186   0.0384   0.0851   0.0160  -0.0360  -0.0268   0.00    0.0
2021/10/19 13:07:42.000   28 35 34.11558  -17 55 01.59710    73.2946   6   8   0.0186   0.0384   0.0850   0.0160  -0.0360  -0.0267   0.00    0.0
2021/10/19 13:08:12.000   28 35 34.11558  -17 55 01.59708    73.2944   6   8   0.0185   0.0384   0.0849   0.0160  -0.0359  -0.0267   0.00    0.0
2021/10/19 13:08:42.000   28 35 34.11559  -17 55 01.59707    73.2937   6   8   0.0185   0.0383   0.0847   0.0159  -0.0358  -0.0266   0.00    0.0
2021/10/19 13:09:12.000   28 35 34.11558  -17 55 01.59702    73.2953   6   8   0.0185   0.0382   0.0842   0.0159  -0.0356  -0.0265   0.00    0.0
2021/10/19 13:09:42.000   28 35 34.11558  -17 55 01.59707    73.2947   6   8   0.0183   0.0380   0.0827   0.0157  -0.0350  -0.0260   0.00    0.0
2021/10/19 13:10:12.000   28 35 34.11556  -17 55 01.59709    73.2954   6   8   0.0183   0.0379   0.0823   0.0156  -0.0348  -0.0259   0.00    0.0
2021/10/19 13:10:42.000   28 35 34.11555  -17 55 01.59711    73.2961   6   8   0.0182   0.0379   0.0821   0.0156  -0.0348  -0.0258   0.00    0.0
2021/10/19 13:11:12.000   28 35 34.11554  -17 55 01.59714    73.2976   6   8   0.0182   0.0378   0.0820   0.0156  -0.0347  -0.0258   0.00    0.0
2021/10/19 13:11:42.000   28 35 34.11553  -17 55 01.59714    73.2986   6   8   0.0182   0.0378   0.0820   0.0156  -0.0347  -0.0257   0.00    0.0
2021/10/19 13:12:12.000   28 35 34.11553  -17 55 01.59713    73.2983   6   8   0.0182   0.0378   0.0819   0.0156  -0.0346  -0.0257   0.00    0.0
2021/10/19 13:12:42.000   28 35 34.11552  -17 55 01.59712    73.2990   6   8   0.0182   0.0378   0.0819   0.0155  -0.0346  -0.0257   0.00    0.0
2021/10/19 13:13:12.000   28 35 34.11551  -17 55 01.59713    73.3007   6   8   0.0182   0.0377   0.0817   0.0155  -0.0345  -0.0257   0.00    0.0
2021/10/19 13:13:42.000   28 35 34.11549  -17 55 01.59718    73.3053   6   8   0.0182   0.0377   0.0815   0.0155  -0.0344  -0.0256   0.00    0.0
2021/10/19 13:14:12.000   28 35 34.11543  -17 55 01.59731    73.3173   6   8   0.0181   0.0375   0.0808   0.0154  -0.0341  -0.0253   0.00    0.0
2021/10/19 13:14:42.000   28 35 34.11544  -17 55 01.59740    73.3165   6   8   0.0178   0.0372   0.0787   0.0152  -0.0334  -0.0247   0.00    0.0
2021/10/19 13:15:12.000   28 35 34.11543  -17 55 01.59739    73.3166   6   8   0.0178   0.0371   0.0781   0.0151  -0.0332  -0.0245   0.00    0.0
2021/10/19 13:15:42.000   28 35 34.11543  -17 55 01.59738    73.3166   6   8   0.0178   0.0371   0.0779   0.0151  -0.0331  -0.0245   0.00    0.0
2021/10/19 13:16:12.000   28 35 34.11542  -17 55 01.59735    73.3156   6   8   0.0178   0.0370   0.0778   0.0150  -0.0330  -0.0244   0.00    0.0
2021/10/19 13:16:42.000   28 35 34.11542  -17 55 01.59732    73.3142   6   8   0.0177   0.0370   0.0778   0.0150  -0.0330  -0.0244   0.00    0.0
2021/10/19 13:17:12.000   28 35 34.11542  -17 55 01.59728    73.3136   6   8   0.0177   0.0370   0.0777   0.0150  -0.0329  -0.0244   0.00    0.0
2021/10/19 13:17:42.000   28 35 34.11542  -17 55 01.59726    73.3129   6   8   0.0177   0.0370   0.0776   0.0150  -0.0329  -0.0244   0.00    0.0
2021/10/19 13:18:12.000   28 35 34.11542  -17 55 01.59723    73.3120   6   8   0.0177   0.0369   0.0775   0.0150  -0.0328  -0.0243   0.00    0.0
2021/10/19 13:18:42.000   28 35 34.11543  -17 55 01.59722    73.3099   6   8   0.0177   0.0369   0.0772   0.0149  -0.0327  -0.0242   0.00    0.0
2021/10/19 13:19:12.000   28 35 34.11548  -17 55 01.59722    73.3046   6   8   0.0176   0.0367   0.0764   0.0148  -0.0324  -0.0240   0.00    0.0
2021/10/19 13:19:42.000   28 35 34.11547  -17 55 01.59730    73.3044   6   8   0.0173   0.0363   0.0739   0.0146  -0.0316  -0.0232   0.00    0.0
2021/10/19 13:20:12.000   28 35 34.11549  -17 55 01.59731    73.3044   6   8   0.0172   0.0362   0.0733   0.0145  -0.0314  -0.0231   0.00    0.0
2021/10/19 13:20:42.000   28 35 34.11549  -17 55 01.59730    73.3047   6   8   0.0172   0.0362   0.0731   0.0145  -0.0313  -0.0230   0.00    0.0
2021/10/19 13:21:12.000   28 35 34.11548  -17 55 01.59729    73.3052   6   8   0.0171   0.0361   0.0730   0.0144  -0.0312  -0.0229   0.00    0.0
2021/10/19 13:21:42.000   28 35 34.11547  -17 55 01.59728    73.3054   6   8   0.0171   0.0361   0.0729   0.0144  -0.0312  -0.0229   0.00    0.0
2021/10/19 13:22:12.000   28 35 34.11547  -17 55 01.59727    73.3052   6   8   0.0171   0.0361   0.0729   0.0144  -0.0312  -0.0229   0.00    0.0
2021/10/19 13:22:42.000   28 35 34.11546  -17 55 01.59728    73.3058   6   8   0.0171   0.0361   0.0728   0.0144  -0.0311  -0.0229   0.00    0.0
2021/10/19 13:23:12.000   28 35 34.11545  -17 55 01.59727    73.3060   6   8   0.0171   0.0360   0.0727   0.0144  -0.0311  -0.0228   0.00    0.0
2021/10/19 13:23:42.000   28 35 34.11544  -17 55 01.59726    73.3053   6   8   0.0171   0.0359   0.0724   0.0143  -0.0310  -0.0227   0.00    0.0
2021/10/19 13:24:12.000   28 35 34.11543  -17 55 01.59729    73.3035   6   8   0.0170   0.0358   0.0715   0.0142  -0.0307  -0.0225   0.00    0.0
2021/10/19 13:24:42.000   28 35 34.11545  -17 55 01.59737    73.2996   6   8   0.0166   0.0354   0.0689   0.0140  -0.0300  -0.0217   0.00    0.0
2021/10/19 13:25:12.000   28 35 34.11543  -17 55 01.59740    73.3001   6   8   0.0165   0.0352   0.0682   0.0139  -0.0298  -0.0215   0.00    0.0
2021/10/19 13:25:42.000   28 35 34.11541  -17 55 01.59744    73.3028   6   8   0.0165   0.0352   0.0680   0.0139  -0.0297  -0.0215   0.00    0.0
2021/10/19 13:26:12.000   28 35 34.11540  -17 55 01.59746    73.3048   6   8   0.0165   0.0352   0.0679   0.0139  -0.0296  -0.0214   0.00    0.0
2021/10/19 13:26:42.000   28 35 34.11540  -17 55 01.59747    73.3054   6   8   0.0164   0.0351   0.0678   0.0138  -0.0296  -0.0214   0.00    0.0
2021/10/19 13:27:12.000   28 35 34.11540  -17 55 01.59746    73.3059   6   8   0.0164   0.0351   0.0678   0.0138  -0.0296  -0.0214   0.00    0.0
2021/10/19 13:27:42.000   28 35 34.11539  -17 55 01.59748    73.3060   6   8   0.0164   0.0351   0.0677   0.0138  -0.0296  -0.0214   0.00    0.0
2021/10/19 13:28:12.000   28 35 34.11540  -17 55 01.59751    73.3054   6   8   0.0164   0.0350   0.0675   0.0138  -0.0295  -0.0213   0.00    0.0
2021/10/19 13:28:42.000   28 35 34.11541  -17 55 01.59754    73.3045   6   8   0.0164   0.0350   0.0672   0.0138  -0.0294  -0.0212   0.00    0.0
2021/10/19 13:29:12.000   28 35 34.11543  -17 55 01.59756    73.3032   6   8   0.0162   0.0348   0.0664   0.0137  -0.0292  -0.0210   0.00    0.0
2021/10/19 13:29:42.000   28 35 34.11547  -17 55 01.59760    73.2935   6   8   0.0158   0.0344   0.0637   0.0134  -0.0286  -0.0202   0.00    0.0
2021/10/19 13:30:12.000   28 35 34.11548  -17 55 01.59761    73.2913   6   8   0.0157   0.0342   0.0631   0.0134  -0.0284  -0.0200   0.00    0.0
2021/10/19 13:30:42.000   28 35 34.11548  -17 55 01.59761    73.2915   6   8   0.0157   0.0342   0.0629   0.0133  -0.0283  -0.0200   0.00    0.0
2021/10/19 13:31:12.000   28 35 34.11547  -17 55 01.59761    73.2919   6   8   0.0157   0.0341   0.0628   0.0133  -0.0283  -0.0199   0.00    0.0
2021/10/19 13:31:42.000   28 35 34.11546  -17 55 01.59761    73.2921   6   8   0.0157   0.0341   0.0627   0.0133  -0.0283  -0.0199   0.00    0.0
2021/10/19 13:32:12.000   28 35 34.11546  -17 55 01.59761    73.2921   6   8   0.0157   0.0341   0.0626   0.0133  -0.0283  -0.0199   0.00    0.0
2021/10/19 13:32:42.000   28 35 34.11546  -17 55 01.59761    73.2925   6   8   0.0157   0.0341   0.0626   0.0133  -0.0282  -0.0199   0.00    0.0
2021/10/19 13:33:12.000   28 35 34.11545  -17 55 01.59761    73.2932   6   8   0.0156   0.0340   0.0624   0.0133  -0.0282  -0.0198   0.00    0.0
2021/10/19 13:33:42.000   28 35 34.11544  -17 55 01.59764    73.2964   6   8   0.0156   0.0340   0.0621   0.0132  -0.0281  -0.0198   0.00    0.0
2021/10/19 13:34:12.000   28 35 34.11544  -17 55 01.59777    73.3035   6   8   0.0155   0.0338   0.0613   0.0132  -0.0279  -0.0195   0.00    0.0
2021/10/19 13:34:42.000   28 35 34.11547  -17 55 01.59783    73.2995   6   8   0.0150   0.0334   0.0587   0.0129  -0.0274  -0.0188   0.00    0.0
2021/10/19 13:35:12.000   28 35 34.11550  -17 55 01.59782    73.2944   6   8   0.0149   0.0332   0.0581   0.0129  -0.0273  -0.0186   0.00    0.0
2021/10/19 13:35:42.000   28 35 34.11552  -17 55 01.59783    73.2912   6   8   0.0149   0.0332   0.0579   0.0129  -0.0272  -0.0186   0.00    0.0
2021/10/19 13:36:12.000   28 35 34.11554  -17 55 01.59784    73.2893   6   8   0.0149   0.0331   0.0577   0.0128  -0.0272  -0.0185   0.00    0.0
2021/10/19 13:36:42.000   28 35 34.11554  -17 55 01.59785    73.2886   6   8   0.0149   0.0331   0.0577   0.0128  -0.0272  -0.0185   0.00    0.0
2021/10/19 13:37:12.000   28 35 34.11554  -17 55 01.59785    73.2877   6   8   0.0149   0.0331   0.0576   0.0128  -0.0272  -0.0185   0.00    0.0
2021/10/19 13:37:42.000   28 35 34.11555  -17 55 01.59785    73.2868   6   8   0.0149   0.0331   0.0575   0.0128  -0.0271  -0.0185   0.00    0.0
2021/10/19 13:38:12.000   28 35 34.11556  -17 55 01.59786    73.2862   6   8   0.0148   0.0330   0.0574   0.0128  -0.0271  -0.0184   0.00    0.0
2021/10/19 13:38:42.000   28 35 34.11557  -17 55 01.59788    73.2849   6   8   0.0148   0.0330   0.0571   0.0128  -0.0270  -0.0184   0.00    0.0
2021/10/19 13:39:12.000   28 35 34.11561  -17 55 01.59792    73.2827   6   8   0.0147   0.0328   0.0563   0.0127  -0.0269  -0.0181   0.00    0.0
2021/10/19 13:39:42.000   28 35 34.11559  -17 55 01.59804    73.2857   6   8   0.0142   0.0324   0.0539   0.0125  -0.0264  -0.0174   0.00    0.0
2021/10/19 13:40:12.000   28 35 34.11562  -17 55 01.59793    73.2843   6   8   0.0141   0.0322   0.0533   0.0124  -0.0263  -0.0173   0.00    0.0
2021/10/19 13:40:42.000   28 35 34.11564  -17 55 01.59791    73.2824   6   8   0.0141   0.0322   0.0531   0.0124  -0.0263  -0.0172   0.00    0.0
2021/10/19 13:41:12.000   28 35 34.11566  -17 55 01.59790    73.2808   6   7   0.0141   0.0322   0.0530   0.0124  -0.0262  -0.0172   0.00    0.0
2021/10/19 13:41:42.000   28 35 34.11567  -17 55 01.59786    73.2791   6   7   0.0141   0.0322   0.0530   0.0124  -0.0262  -0.0172   0.00    0.0
2021/10/19 13:42:12.000   28 35 34.11567  -17 55 01.59784    73.2779   6   7   0.0141   0.0321   0.0529   0.0124  -0.0262  -0.0172   0.00    0.0
2021/10/19 13:42:42.000   28 35 34.11567  -17 55 01.59785    73.2776   6   7   0.0141   0.0321   0.0529   0.0124  -0.0262  -0.0171   0.00    0.0
2021/10/19 13:43:12.000   28 35 34.11567  -17 55 01.59784    73.2772   6   7   0.0140   0.0321   0.0528   0.0124  -0.0262  -0.0171   0.00    0.0
2021/10/19 13:43:42.000   28 35 34.11566  -17 55 01.59784    73.2781   6   7   0.0140   0.0320   0.0526   0.0123  -0.0261  -0.0170   0.00    0.0
2021/10/19 13:44:12.000   28 35 34.11569  -17 55 01.59787    73.2762   6   7   0.0139   0.0319   0.0520   0.0123  -0.0260  -0.0169   0.00    0.0
2021/10/19 13:44:42.000   28 35 34.11565  -17 55 01.59801    73.2749   6   7   0.0135   0.0314   0.0501   0.0121  -0.0256  -0.0163   0.00    0.0
2021/10/19 13:45:12.000   28 35 34.11559  -17 55 01.59806    73.2804   6   7   0.0134   0.0313   0.0496   0.0121  -0.0255  -0.0161   0.00    0.0
2021/10/19 13:45:42.000   28 35 34.11559  -17 55 01.59807    73.2793   6   7   0.0133   0.0313   0.0495   0.0120  -0.0255  -0.0161   0.00    0.0
2021/10/19 13:46:12.000   28 35 34.11559  -17 55 01.59806    73.2790   6   7   0.0133   0.0313   0.0494   0.0120  -0.0254  -0.0161   0.00    0.0
2021/10/19 13:46:42.000   28 35 34.11559  -17 55 01.59807    73.2784   6   7   0.0133   0.0312   0.0494   0.0120  -0.0254  -0.0160   0.00    0.0
2021/10/19 13:47:12.000   28 35 34.11559  -17 55 01.59807    73.2781   6   7   0.0133   0.0312   0.0493   0.0120  -0.0254  -0.0160   0.00    0.0
2021/10/19 13:47:42.000   28 35 34.11559  -17 55 01.59806    73.2779   6   7   0.0133   0.0312   0.0493   0.0120  -0.0254  -0.0160   0.00    0.0
2021/10/19 13:48:12.000   28 35 34.11560  -17 55 01.59805    73.2775   6   7   0.0133   0.0312   0.0492   0.0120  -0.0254  -0.0160   0.00    0.0
2021/10/19 13:48:42.000   28 35 34.11562  -17 55 01.59806    73.2782   6   7   0.0132   0.0311   0.0490   0.0120  -0.0253  -0.0159   0.00    0.0
2021/10/19 13:49:12.000   28 35 34.11565  -17 55 01.59805    73.2794   6   7   0.0131   0.0310   0.0485   0.0119  -0.0252  -0.0158   0.00    0.0
2021/10/19 13:49:42.000   28 35 34.11562  -17 55 01.59822    73.2823   6   7   0.0127   0.0306   0.0469   0.0117  -0.0249  -0.0152   0.00    0.0
2021/10/19 13:50:12.000   28 35 34.11565  -17 55 01.59824    73.2797   6   7   0.0126   0.0305   0.0465   0.0117  -0.0248  -0.0151   0.00    0.0
2021/10/19 13:50:42.000   28 35 34.11565  -17 55 01.59825    73.2795   6   7   0.0126   0.0304   0.0464   0.0117  -0.0248  -0.0151   0.00    0.0
2021/10/19 13:51:12.000   28 35 34.11565  -17 55 01.59827    73.2798   6   7   0.0126   0.0304   0.0464   0.0117  -0.0248  -0.0151   0.00    0.0
2021/10/19 13:51:42.000   28 35 34.11566  -17 55 01.59828    73.2800   6   7   0.0126   0.0304   0.0463   0.0117  -0.0247  -0.0151   0.00    0.0
2021/10/19 13:52:12.000   28 35 34.11566  -17 55 01.59828    73.2797   6   7   0.0126   0.0304   0.0463   0.0117  -0.0247  -0.0150   0.00    0.0
2021/10/19 13:52:42.000   28 35 34.11566  -17 55 01.59828    73.2793   6   7   0.0126   0.0303   0.0463   0.0117  -0.0247  -0.0150   0.00    0.0
2021/10/19 13:53:12.000   28 35 34.11566  -17 55 01.59828    73.2788   6   7   0.0125   0.0303   0.0462   0.0117  -0.0247  -0.0150   0.00    0.0
2021/10/19 13:53:42.000   28 35 34.11567  -17 55 01.59830    73.2786   6   7   0.0125   0.0303   0.0460   0.0116  -0.0247  -0.0150   0.00    0.0
2021/10/19 13:54:12.000   28 35 34.11568  -17 55 01.59831    73.2764   6   7   0.0124   0.0301   0.0456   0.0116  -0.0246  -0.0148   0.00    0.0
2021/10/19 13:54:42.000   28 35 34.11568  -17 55 01.59843    73.2775   6   7   0.0120   0.0298   0.0443   0.0114  -0.0243  -0.0144   0.00    0.0
2021/10/19 13:55:12.000   28 35 34.11569  -17 55 01.59837    73.2751   6   7   0.0119   0.0297   0.0440   0.0114  -0.0243  -0.0143   0.00    0.0
2021/10/19 13:55:42.000   28 35 34.11568  -17 55 01.59838    73.2758   6   7   0.0119   0.0296   0.0439   0.0114  -0.0242  -0.0142   0.00    0.0
2021/10/19 13:56:12.000   28 35 34.11568  -17 55 01.59839    73.2761   6   7   0.0119   0.0296   0.0439   0.0114  -0.0242  -0.0142   0.00    0.0
2021/10/19 13:56:42.000   28 35 34.11568  -17 55 01.59838    73.2758   6   7   0.0119   0.0296   0.0439   0.0114  -0.0242  -0.0142   0.00    0.0
2021/10/19 13:57:12.000   28 35 34.11568  -17 55 01.59838    73.2757   6   7   0.0119   0.0296   0.0438   0.0114  -0.0242  -0.0142   0.00    0.0
2021/10/19 13:57:42.000   28 35 34.11568  -17 55 01.59837    73.2754   6   7   0.0119   0.0295   0.0438   0.0113  -0.0242  -0.0142   0.00    0.0
2021/10/19 13:58:12.000   28 35 34.11568  -17 55 01.59837    73.2749   6   7   0.0119   0.0295   0.0438   0.0113  -0.0242  -0.0142   0.00    0.0
2021/10/19 13:58:42.000   28 35 34.11569  -17 55 01.59841    73.2738   6   7   0.0118   0.0295   0.0437   0.0113  -0.0241  -0.0141   0.00    0.0
2021/10/19 13:59:12.000   28 35 34.11570  -17 55 01.59845    73.2693   6   7   0.0117   0.0294   0.0435   0.0113  -0.0241  -0.0140   0.00    0.0
2021/10/19 13:59:42.000   28 35 34.11570  -17 55 01.59852    73.2676   6   7   0.0114   0.0290   0.0429   0.0111  -0.0240  -0.0135   0.00    0.0
2021/10/19 14:00:12.000   28 35 34.11565  -17 55 01.59853    73.2725   6   7   0.0113   0.0289   0.0428   0.0111  -0.0239  -0.0134   0.00    0.0
2021/10/19 14:00:42.000   28 35 34.11563  -17 55 01.59852    73.2734   6   7   0.0113   0.0289   0.0427   0.0111  -0.0239  -0.0133   0.00    0.0
2021/10/19 14:01:12.000   28 35 34.11563  -17 55 01.59852    73.2728   6   7   0.0113   0.0289   0.0427   0.0111  -0.0239  -0.0133   0.00    0.0
2021/10/19 14:01:42.000   28 35 34.11564  -17 55 01.59851    73.2722   6   7   0.0113   0.0289   0.0427   0.0111  -0.0239  -0.0133   0.00    0.0
2021/10/19 14:02:12.000   28 35 34.11564  -17 55 01.59851    73.2717   6   7   0.0113   0.0289   0.0427   0.0111  -0.0239  -0.0133   0.00    0.0
2021/10/19 14:02:42.000   28 35 34.11565  -17 55 01.59850    73.2709   6   7   0.0113   0.0289   0.0426   0.0110  -0.0239  -0.0133   0.00    0.0
2021/10/19 14:03:12.000   28 35 34.11565  -17 55 01.59850    73.2702   6   7   0.0112   0.0288   0.0426   0.0110  -0.0239  -0.0133   0.00    0.0
2021/10/19 14:03:42.000   28 35 34.11566  -17 55 01.59851    73.2698   6   7   0.0112   0.0288   0.0426   0.0110  -0.0239  -0.0132   0.00    0.0
2021/10/19 14:04:12.000   28 35 34.11568  -17 55 01.59858    73.2694   6   7   0.0111   0.0287   0.0424   0.0110  -0.0238  -0.0131   0.00    0.0
2021/10/19 14:04:42.000   28 35 34.11568  -17 55 01.59863    73.2675   6   7   0.0108   0.0284   0.0419   0.0108  -0.0238  -0.0127   0.00    0.0
2021/10/19 14:05:12.000   28 35 34.11563  -17 55 01.59867    73.2696   6   7   0.0107   0.0283   0.0418   0.0108  -0.0237  -0.0126   0.00    0.0
2021/10/19 14:05:42.000   28 35 34.11561  -17 55 01.59869    73.2692   6   7   0.0107   0.0283   0.0417   0.0108  -0.0237  -0.0126   0.00    0.0
2021/10/19 14:06:12.000   28 35 34.11561  -17 55 01.59869    73.2686   6   7   0.0107   0.0283   0.0417   0.0108  -0.0237  -0.0126   0.00    0.0
2021/10/19 14:06:42.000   28 35 34.11561  -17 55 01.59869    73.2683   6   7   0.0107   0.0283   0.0417   0.0108  -0.0237  -0.0126   0.00    0.0
2021/10/19 14:07:12.000   28 35 34.11561  -17 55 01.59869    73.2682   6   7   0.0107   0.0283   0.0417   0.0108  -0.0237  -0.0126   0.00    0.0
2021/10/19 14:07:42.000   28 35 34.11560  -17 55 01.59868    73.2683   6   7   0.0107   0.0283   0.0416   0.0108  -0.0237  -0.0125   0.00    0.0
2021/10/19 14:08:12.000   28 35 34.11559  -17 55 01.59867    73.2691   6   7   0.0107   0.0282   0.0416   0.0108  -0.0237  -0.0125   0.00    0.0
2021/10/19 14:08:42.000   28 35 34.11559  -17 55 01.59864    73.2699   6   7   0.0106   0.0282   0.0416   0.0107  -0.0237  -0.0125   0.00    0.0
2021/10/19 14:09:12.000   28 35 34.11560  -17 55 01.59864    73.2685   6   7   0.0106   0.0281   0.0414   0.0107  -0.0237  -0.0124   0.00    0.0
2021/10/19 14:09:42.000   28 35 34.11562  -17 55 01.59865    73.2662   6   7   0.0103   0.0279   0.0410   0.0106  -0.0237  -0.0121   0.00    0.0
2021/10/19 14:10:12.000   28 35 34.11561  -17 55 01.59864    73.2663   6   7   0.0102   0.0278   0.0409   0.0105  -0.0236  -0.0120   0.00    0.0
2021/10/19 14:10:42.000   28 35 34.11561  -17 55 01.59864    73.2671   6   7   0.0102   0.0278   0.0409   0.0105  -0.0236  -0.0120   0.00    0.0
2021/10/19 14:11:12.000   28 35 34.11561  -17 55 01.59862    73.2673   6   7   0.0102   0.0278   0.0408   0.0105  -0.0236  -0.0120   0.00    0.0
2021/10/19 14:11:42.000   28 35 34.11561  -17 55 01.59861    73.2673   6   7   0.0102   0.0278   0.0408   0.0105  -0.0236  -0.0119   0.00    0.0
2021/10/19 14:12:12.000   28 35 34.11561  -17 55 01.59860    73.2673   6   7   0.0102   0.0278   0.0408   0.0105  -0.0236  -0.0119   0.00    0.0
2021/10/19 14:12:42.000   28 35 34.11561  -17 55 01.59860    73.2676   6   7   0.0102   0.0277   0.0408   0.0105  -0.0236  -0.0119   0.00    0.0
2021/10/19 14:13:12.000   28 35 34.11561  -17 55 01.59860    73.2672   6   7   0.0102   0.0277   0.0408   0.0105  -0.0236  -0.0119   0.00    0.0
2021/10/19 14:13:42.000   28 35 34.11561  -17 55 01.59861    73.2665   6   8   0.0101   0.0277   0.0407   0.0105  -0.0236  -0.0119   0.00    0.0
2021/10/19 14:14:12.000   28 35 34.11564  -17 55 01.59866    73.2608   6   8   0.0101   0.0276   0.0406   0.0105  -0.0236  -0.0118   0.00    0.0
2021/10/19 14:14:42.000   28 35 34.11564  -17 55 01.59869    73.2588   6   8   0.0098   0.0274   0.0402   0.0103  -0.0236  -0.0115   0.00    0.0
2021/10/19 14:15:12.000   28 35 34.11567  -17 55 01.59867    73.2572   6   9   0.0097   0.0274   0.0402   0.0103  -0.0236  -0.0115   0.00    0.0
2021/10/19 14:15:42.000   28 35 34.11568  -17 55 01.59867    73.2560   6   9   0.0097   0.0274   0.0401   0.0103  -0.0236  -0.0115   0.00    0.0
2021/10/19 14:16:12.000   28 35 34.11568  -17 55 01.59867    73.2548   6   9   0.0097   0.0273   0.0401   0.0103  -0.0236  -0.0114   0.00    0.0
2021/10/19 14:16:42.000   28 35 34.11568  -17 55 01.59867    73.2543   6   9   0.0097   0.0273   0.0401   0.0103  -0.0236  -0.0114   0.00    0.0
2021/10/19 14:17:12.000   28 35 34.11568  -17 55 01.59867    73.2537   6   9   0.0097   0.0273   0.0401   0.0103  -0.0236  -0.0114   0.00    0.0
2021/10/19 14:17:42.000   28 35 34.11569  -17 55 01.59866    73.2531   6   9   0.0097   0.0273   0.0401   0.0103  -0.0236  -0.0114   0.00    0.0
2021/10/19 14:18:12.000   28 35 34.11569  -17 55 01.59863    73.2521   6   9   0.0097   0.0273   0.0400   0.0103  -0.0236  -0.0114   0.00    0.0
2021/10/19 14:18:42.000   28 35 34.11570  -17 55 01.59860    73.2510   6   9   0.0097   0.0273   0.0400   0.0103  -0.0236  -0.0114   0.00    0.0
2021/10/19 14:19:12.000   28 35 34.11573  -17 55 01.59853    73.2474   6   9   0.0096   0.0272   0.0399   0.0102  -0.0236  -0.0113   0.00    0.0
2021/10/19 14:19:42.000   28 35 34.11570  -17 55 01.59856    73.2486   6   9   0.0094   0.0271   0.0396   0.0101  -0.0236  -0.0111   0.00    0.0
2021/10/19 14:20:12.000   28 35 34.11569  -17 55 01.59859    73.2493   6   9   0.0093   0.0270   0.0395   0.0101  -0.0236  -0.0111   0.00    0.0
2021/10/19 14:20:42.000   28 35 34.11568  -17 55 01.59861    73.2494   6   9   0.0093   0.0270   0.0395   0.0101  -0.0236  -0.0111   0.00    0.0
2021/10/19 14:21:12.000   28 35 34.11568  -17 55 01.59862    73.2490   6   9   0.0093   0.0270   0.0394   0.0101  -0.0236  -0.0110   0.00    0.0
2021/10/19 14:21:42.000   28 35 34.11568  -17 55 01.59863    73.2485   6   9   0.0093   0.0270   0.0394   0.0101  -0.0236  -0.0110   0.00    0.0
2021/10/19 14:22:12.000   28 35 34.11568  -17 55 01.59863    73.2480   6   9   0.0093   0.0270   0.0394   0.0101  -0.0236  -0.0110   0.00    0.0
2021/10/19 14:22:42.000   28 35 34.11568  -17 55 01.59863    73.2475   6   9   0.0093   0.0270   0.0394   0.0101  -0.0236  -0.0110   0.00    0.0
2021/10/19 14:23:12.000   28 35 34.11569  -17 55 01.59863    73.2468   6   9   0.0093   0.0270   0.0394   0.0101  -0.0236  -0.0110   0.00    0.0
2021/10/19 14:23:42.000   28 35 34.11569  -17 55 01.59864    73.2461   6   9   0.0093   0.0269   0.0393   0.0100  -0.0236  -0.0110   0.00    0.0
2021/10/19 14:24:12.000   28 35 34.11571  -17 55 01.59866    73.2463   6   9   0.0092   0.0269   0.0392   0.0100  -0.0236  -0.0109   0.00    0.0
2021/10/19 14:24:42.000   28 35 34.11569  -17 55 01.59864    73.2470   6   9   0.0090   0.0268   0.0389   0.0099  -0.0236  -0.0108   0.00    0.0
2021/10/19 14:25:12.000   28 35 34.11568  -17 55 01.59866    73.2462   6   9   0.0089   0.0267   0.0388   0.0099  -0.0236  -0.0107   0.00    0.0
2021/10/19 14:25:42.000   28 35 34.11567  -17 55 01.59867    73.2455   6   9   0.0089   0.0267   0.0388   0.0099  -0.0236  -0.0107   0.00    0.0
2021/10/19 14:26:12.000   28 35 34.11566  -17 55 01.59867    73.2454   6   9   0.0089   0.0267   0.0388   0.0099  -0.0236  -0.0107   0.00    0.0
2021/10/19 14:26:42.000   28 35 34.11566  -17 55 01.59867    73.2453   6   9   0.0089   0.0267   0.0388   0.0099  -0.0236  -0.0107   0.00    0.0
2021/10/19 14:27:12.000   28 35 34.11566  -17 55 01.59868    73.2451   6   9   0.0089   0.0267   0.0388   0.0099  -0.0236  -0.0107   0.00    0.0
2021/10/19 14:27:42.000   28 35 34.11566  -17 55 01.59869    73.2447   6   9   0.0089   0.0267   0.0388   0.0099  -0.0236  -0.0107   0.00    0.0
2021/10/19 14:28:12.000   28 35 34.11566  -17 55 01.59871    73.2441   6   9   0.0089   0.0267   0.0387   0.0099  -0.0236  -0.0107   0.00    0.0
2021/10/19 14:28:42.000   28 35 34.11565  -17 55 01.59873    73.2432   6   9   0.0089   0.0267   0.0387   0.0098  -0.0236  -0.0107   0.00    0.0
2021/10/19 14:29:12.000   28 35 34.11563  -17 55 01.59877    73.2414   6   9   0.0088   0.0266   0.0386   0.0098  -0.0236  -0.0106   0.00    0.0
2021/10/19 14:29:42.000   28 35 34.11562  -17 55 01.59876    73.2430   6   9   0.0086   0.0265   0.0383   0.0097  -0.0237  -0.0105   0.00    0.0
2021/10/19 14:30:12.000   28 35 34.11561  -17 55 01.59876    73.2444   6   9   0.0086   0.0265   0.0382   0.0097  -0.0237  -0.0104   0.00    0.0
2021/10/19 14:30:42.000   28 35 34.11561  -17 55 01.59875    73.2442   6   9   0.0086   0.0265   0.0381   0.0097  -0.0237  -0.0104   0.00    0.0
2021/10/19 14:31:12.000   28 35 34.11561  -17 55 01.59875    73.2438   6   9   0.0086   0.0265   0.0381   0.0097  -0.0237  -0.0104   0.00    0.0
2021/10/19 14:31:42.000   28 35 34.11562  -17 55 01.59876    73.2434   6   9   0.0086   0.0265   0.0381   0.0097  -0.0236  -0.0104   0.00    0.0
2021/10/19 14:32:12.000   28 35 34.11562  -17 55 01.59876    73.2433   6   9   0.0086   0.0265   0.0381   0.0097  -0.0236  -0.0104   0.00    0.0
2021/10/19 14:32:42.000   28 35 34.11562  -17 55 01.59877    73.2435   6   9   0.0085   0.0265   0.0381   0.0097  -0.0236  -0.0104   0.00    0.0
2021/10/19 14:33:12.000   28 35 34.11562  -17 55 01.59877    73.2432   6   9   0.0085   0.0265   0.0381   0.0097  -0.0236  -0.0104   0.00    0.0
2021/10/19 14:33:42.000   28 35 34.11561  -17 55 01.59878    73.2437   6   9   0.0085   0.0264   0.0380   0.0097  -0.0236  -0.0104   0.00    0.0
2021/10/19 14:34:12.000   28 35 34.11561  -17 55 01.59880    73.2439   6   9   0.0085   0.0264   0.0379   0.0096  -0.0236  -0.0103   0.00    0.0
2021/10/19 14:34:42.000   28 35 34.11560  -17 55 01.59877    73.2442   6   9   0.0083   0.0264   0.0375   0.0095  -0.0237  -0.0102   0.00    0.0
2021/10/19 14:35:12.000   28 35 34.11560  -17 55 01.59876    73.2456   6   9   0.0083   0.0263   0.0375   0.0095  -0.0237  -0.0101   0.00    0.0
2021/10/19 14:35:42.000   28 35 34.11561  -17 55 01.59877    73.2460   6   9   0.0082   0.0263   0.0374   0.0095  -0.0237  -0.0101   0.00    0.0
2021/10/19 14:36:12.000   28 35 34.11562  -17 55 01.59878    73.2463   6   9   0.0082   0.0263   0.0374   0.0095  -0.0237  -0.0101   0.00    0.0
2021/10/19 14:36:42.000   28 35 34.11562  -17 55 01.59880    73.2464   6   9   0.0082   0.0263   0.0374   0.0095  -0.0236  -0.0101   0.00    0.0
2021/10/19 14:37:12.000   28 35 34.11562  -17 55 01.59881    73.2463   6   9   0.0082   0.0263   0.0374   0.0095  -0.0236  -0.0101   0.00    0.0
2021/10/19 14:37:42.000   28 35 34.11562  -17 55 01.59882    73.2462   6   9   0.0082   0.0263   0.0374   0.0095  -0.0236  -0.0101   0.00    0.0
2021/10/19 14:38:12.000   28 35 34.11562  -17 55 01.59883    73.2462   6   9   0.0082   0.0263   0.0373   0.0095  -0.0236  -0.0101   0.00    0.0
2021/10/19 14:38:42.000   28 35 34.11561  -17 55 01.59885    73.2466   6   9   0.0082   0.0263   0.0373   0.0095  -0.0236  -0.0101   0.00    0.0
2021/10/19 14:39:12.000   28 35 34.11561  -17 55 01.59888    73.2459   6   9   0.0082   0.0262   0.0372   0.0094  -0.0236  -0.0100   0.00    0.0
2021/10/19 14:39:42.000   28 35 34.11559  -17 55 01.59888    73.2463   6   9   0.0080   0.0262   0.0368   0.0094  -0.0236  -0.0099   0.00    0.0
2021/10/19 14:40:12.000   28 35 34.11558  -17 55 01.59889    73.2471   6   9   0.0080   0.0262   0.0366   0.0093  -0.0236  -0.0098   0.00    0.0
2021/10/19 14:40:42.000   28 35 34.11557  -17 55 01.59890    73.2470   6   9   0.0079   0.0262   0.0366   0.0093  -0.0236  -0.0098   0.00    0.0
2021/10/19 14:41:12.000   28 35 34.11557  -17 55 01.59891    73.2470   6   9   0.0079   0.0262   0.0366   0.0093  -0.0236  -0.0098   0.00    0.0
2021/10/19 14:41:42.000   28 35 34.11557  -17 55 01.59892    73.2469   6   9   0.0079   0.0261   0.0366   0.0093  -0.0236  -0.0098   0.00    0.0
2021/10/19 14:42:12.000   28 35 34.11557  -17 55 01.59892    73.2468   6   9   0.0079   0.0261   0.0365   0.0093  -0.0236  -0.0098   0.00    0.0
2021/10/19 14:42:42.000   28 35 34.11557  -17 55 01.59892    73.2465   6   9   0.0079   0.0261   0.0365   0.0093  -0.0236  -0.0098   0.00    0.0
2021/10/19 14:43:12.000   28 35 34.11557  -17 55 01.59891    73.2464   6   9   0.0079   0.0261   0.0365   0.0093  -0.0236  -0.0098   0.00    0.0
2021/10/19 14:43:42.000   28 35 34.11558  -17 55 01.59890    73.2464   6   9   0.0079   0.0261   0.0364   0.0093  -0.0236  -0.0097   0.00    0.0
2021/10/19 14:44:12.000   28 35 34.11558  -17 55 01.59889    73.2443   6   9   0.0079   0.0261   0.0363   0.0093  -0.0235  -0.0097   0.00    0.0
2021/10/19 14:44:42.000   28 35 34.11556  -17 55 01.59889    73.2456   6   9   0.0077   0.0260   0.0358   0.0092  -0.0235  -0.0095   0.00    0.0
2021/10/19 14:45:12.000   28 35 34.11554  -17 55 01.59889    73.2493   6   9   0.0077   0.0260   0.0356   0.0091  -0.0235  -0.0095   0.00    0.0
2021/10/19 14:45:42.000   28 35 34.11554  -17 55 01.59890    73.2514   6   9   0.0077   0.0260   0.0356   0.0091  -0.0234  -0.0094   0.00    0.0
2021/10/19 14:46:12.000   28 35 34.11554  -17 55 01.59890    73.2524   6   9   0.0077   0.0260   0.0355   0.0091  -0.0234  -0.0094   0.00    0.0
2021/10/19 14:46:42.000   28 35 34.11554  -17 55 01.59890    73.2527   6   9   0.0076   0.0260   0.0355   0.0091  -0.0234  -0.0094   0.00    0.0
2021/10/19 14:47:12.000   28 35 34.11554  -17 55 01.59891    73.2526   6   9   0.0076   0.0260   0.0355   0.0091  -0.0234  -0.0094   0.00    0.0
2021/10/19 14:47:42.000   28 35 34.11554  -17 55 01.59891    73.2526   6   8   0.0076   0.0260   0.0355   0.0091  -0.0234  -0.0094   0.00    0.0
2021/10/19 14:48:12.000   28 35 34.11555  -17 55 01.59891    73.2521   6   8   0.0076   0.0260   0.0354   0.0091  -0.0234  -0.0094   0.00    0.0
2021/10/19 14:48:42.000   28 35 34.11555  -17 55 01.59891    73.2515   6   8   0.0076   0.0260   0.0354   0.0091  -0.0234  -0.0094   0.00    0.0
2021/10/19 14:49:12.000   28 35 34.11556  -17 55 01.59889    73.2516   6   8   0.0076   0.0259   0.0352   0.0090  -0.0233  -0.0093   0.00    0.0
2021/10/19 14:49:42.000   28 35 34.11556  -17 55 01.59886    73.2493   6   8   0.0074   0.0259   0.0347   0.0089  -0.0233  -0.0091   0.00    0.0
2021/10/19 14:50:12.000   28 35 34.11556  -17 55 01.59884    73.2473   6   8   0.0074   0.0259   0.0345   0.0089  -0.0232  -0.0091   0.00    0.0
2021/10/19 14:50:42.000   28 35 34.11555  -17 55 01.59883    73.2470   6   8   0.0074   0.0258   0.0344   0.0089  -0.0232  -0.0091   0.00    0.0
2021/10/19 14:51:12.000   28 35 34.11555  -17 55 01.59883    73.2464   6   8   0.0074   0.0258   0.0344   0.0089  -0.0232  -0.0091   0.00    0.0
2021/10/19 14:51:42.000   28 35 34.11555  -17 55 01.59883    73.2461   6   8   0.0074   0.0258   0.0344   0.0089  -0.0232  -0.0090   0.00    0.0
2021/10/19 14:52:12.000   28 35 34.11555  -17 55 01.59883    73.2458   6   8   0.0074   0.0258   0.0344   0.0089  -0.0232  -0.0090   0.00    0.0
2021/10/19 14:52:42.000   28 35 34.11555  -17 55 01.59884    73.2454   6   8   0.0074   0.0258   0.0343   0.0089  -0.0232  -0.0090   0.00    0.0
2021/10/19 14:53:12.000   28 35 34.11555  -17 55 01.59884    73.2452   6   8   0.0074   0.0258   0.0343   0.0089  -0.0232  -0.0090   0.00    0.0
2021/10/19 14:53:42.000   28 35 34.11554  -17 55 01.59886    73.2458   6   8   0.0074   0.0258   0.0342   0.0089  -0.0231  -0.0090   0.00    0.0
2021/10/19 14:54:12.000   28 35 34.11554  -17 55 01.59888    73.2474   6   8   0.0073   0.0258   0.0340   0.0088  -0.0231  -0.0089   0.00    0.0
2021/10/19 14:54:42.000   28 35 34.11553  -17 55 01.59889    73.2481   6   8   0.0072   0.0257   0.0334   0.0087  -0.0229  -0.0087   0.00    0.0
2021/10/19 14:55:12.000   28 35 34.11554  -17 55 01.59888    73.2464   6   8   0.0071   0.0257   0.0332   0.0087  -0.0229  -0.0087   0.00    0.0
2021/10/19 14:55:42.000   28 35 34.11553  -17 55 01.59889    73.2467   6   8   0.0071   0.0256   0.0331   0.0086  -0.0228  -0.0086   0.00    0.0
2021/10/19 14:56:12.000   28 35 34.11553  -17 55 01.59891    73.2470   6   8   0.0071   0.0256   0.0331   0.0086  -0.0228  -0.0086   0.00    0.0
2021/10/19 14:56:42.000   28 35 34.11553  -17 55 01.59892    73.2473   6   8   0.0071   0.0256   0.0331   0.0086  -0.0228  -0.0086   0.00    0.0
2021/10/19 14:57:12.000   28 35 34.11553  -17 55 01.59892    73.2475   6   8   0.0071   0.0256   0.0331   0.0086  -0.0228  -0.0086   0.00    0.0
2021/10/19 14:57:42.000   28 35 34.11553  -17 55 01.59893    73.2476   6   8   0.0071   0.0256   0.0330   0.0086  -0.0228  -0.0086   0.00    0.0
2021/10/19 14:58:12.000   28 35 34.11554  -17 55 01.59893    73.2473   6   8   0.0071   0.0256   0.0330   0.0086  -0.0228  -0.0086   0.00    0.0
2021/10/19 14:58:42.000   28 35 34.11554  -17 55 01.59893    73.2480   6   8   0.0071   0.0256   0.0329   0.0086  -0.0227  -0.0086   0.00    0.0
2021/10/19 14:59:12.000   28 35 34.11555  -17 55 01.59892    73.2462   6   8   0.0071   0.0256   0.0326   0.0086  -0.0227  -0.0085   0.00    0.0
2021/10/19 14:59:42.000   28 35 34.11555  -17 55 01.59890    73.2449   6   8   0.0069   0.0255   0.0320   0.0084  -0.0225  -0.0083   0.00    0.0
2021/10/19 15:00:12.000   28 35 34.11554  -17 55 01.59892    73.2467   6   7   0.0069   0.0254   0.0319   0.0084  -0.0224  -0.0082   0.00    0.0
2021/10/19 15:00:42.000   28 35 34.11554  -17 55 01.59894    73.2468   6   7   0.0069   0.0254   0.0318   0.0084  -0.0224  -0.0082   0.00    0.0
2021/10/19 15:01:12.000   28 35 34.11554  -17 55 01.59895    73.2471   6   7   0.0069   0.0254   0.0318   0.0084  -0.0224  -0.0082   0.00    0.0
2021/10/19 15:01:42.000   28 35 34.11554  -17 55 01.59895    73.2471   6   7   0.0069   0.0254   0.0318   0.0084  -0.0224  -0.0082   0.00    0.0
2021/10/19 15:02:12.000   28 35 34.11554  -17 55 01.59895    73.2472   6   7   0.0069   0.0254   0.0318   0.0084  -0.0224  -0.0082   0.00    0.0
2021/10/19 15:02:42.000   28 35 34.11554  -17 55 01.59896    73.2475   6   7   0.0069   0.0254   0.0318   0.0084  -0.0224  -0.0082   0.00    0.0
