% program   : RTKLIB ver.2.4.2
% inp file  : C:\IPNA\data\OBS\CVBB2750.o
% inp file  : C:\IPNA\data\NAV\CVBB2750.n
% inp file  : C:\IPNA\data\SP3\CVBB2750.sp3
% inp file  : C:\IPNA\data\CLOCK\CVBB2750.clk
% obs start : 2021/10/01 23:59:42.0 UTC (week2177 518400.0s)
% obs end   : 2021/10/02 23:59:12.0 UTC (week2177 604770.0s)
% pos mode  : ppp-static
% solution  : forward
% elev mask : 15.0 deg
% dynamics  : off
% tidecorr  : on
% tropo opt : est ztd
% ephemeris : precise
% antenna1  :                       ( 0.0000  0.0000  0.0000)
%
% (lat/lon/height=WGS84/ellipsoidal,Q=1:fix,2:float,3:sbas,4:dgps,5:single,6:ppp,ns=# of satellites)
%  UTC                     latitude(d'")   longitude(d'")  height(m)   Q  ns   sdn(m)   sde(m)   sdu(m)  sdne(m)  sdeu(m)  sdue(m) age(s)  ratio
2021/10/01 23:59:42.000   28 35 34.09051  -17 55 01.63517    74.4287   6   6   1.7002   1.5800   4.0211  -0.7492  -1.3036   0.7360   0.00    0.0
2021/10/02 00:00:12.000   28 35 34.09155  -17 55 01.62731    74.3793   6   6   1.1791   1.1101   2.7587  -0.5099  -0.8854   0.4420   0.00    0.0
2021/10/02 00:00:42.000   28 35 34.08472  -17 55 01.63108    74.0522   6   6   0.9525   0.9030   2.2234  -0.4072  -0.7071   0.3216   0.00    0.0
2021/10/02 00:01:12.000   28 35 34.08891  -17 55 01.62579    74.3190   6   6   0.8190   0.7799   1.9133  -0.3472  -0.6031   0.2528   0.00    0.0
2021/10/02 00:01:42.000   28 35 34.08968  -17 55 01.62617    74.3172   6   6   0.7287   0.6961   1.7062  -0.3067  -0.5332   0.2067   0.00    0.0
2021/10/02 00:02:12.000   28 35 34.09111  -17 55 01.62830    74.3767   6   6   0.6625   0.6344   1.5559  -0.2771  -0.4820   0.1725   0.00    0.0
2021/10/02 00:02:42.000   28 35 34.09439  -17 55 01.62525    74.3274   6   6   0.6057   0.5850   1.4171  -0.2502  -0.4355   0.1230   0.00    0.0
2021/10/02 00:03:12.000   28 35 34.09857  -17 55 01.62391    74.0915   6   6   0.5514   0.5433   1.2716  -0.2222  -0.3882  -0.0384   0.00    0.0
2021/10/02 00:03:42.000   28 35 34.10093  -17 55 01.62298    73.9238   6   6   0.4908   0.5054   1.0957  -0.1880  -0.3348  -0.1358   0.00    0.0
2021/10/02 00:04:12.000   28 35 34.10589  -17 55 01.62233    73.5551   6   6   0.4088   0.4667   0.8639  -0.1376  -0.2744  -0.1624   0.00    0.0
2021/10/02 00:04:42.000   28 35 34.10795  -17 55 01.61934    73.5368   6   6   0.3177   0.4260   0.6478  -0.0754  -0.2311  -0.1278   0.00    0.0
2021/10/02 00:05:12.000   28 35 34.10740  -17 55 01.61930    73.6353   6   6   0.2988   0.4060   0.6155  -0.0677  -0.2199  -0.1213   0.00    0.0
2021/10/02 00:05:42.000   28 35 34.10711  -17 55 01.62000    73.6676   6   6   0.2891   0.3905   0.6015  -0.0672  -0.2128  -0.1163   0.00    0.0
2021/10/02 00:06:12.000   28 35 34.10619  -17 55 01.62008    73.7020   6   6   0.2820   0.3771   0.5921  -0.0680  -0.2069  -0.1120   0.00    0.0
2021/10/02 00:06:42.000   28 35 34.10538  -17 55 01.61967    73.7206   6   6   0.2760   0.3652   0.5846  -0.0690  -0.2018  -0.1081   0.00    0.0
2021/10/02 00:07:12.000   28 35 34.10494  -17 55 01.61912    73.7517   6   6   0.2707   0.3545   0.5783  -0.0698  -0.1973  -0.1046   0.00    0.0
2021/10/02 00:07:42.000   28 35 34.10392  -17 55 01.61898    73.7887   6   6   0.2645   0.3443   0.5697  -0.0694  -0.1926  -0.1012   0.00    0.0
2021/10/02 00:08:12.000   28 35 34.10316  -17 55 01.61884    73.8293   6   6   0.2564   0.3343   0.5565  -0.0671  -0.1876  -0.0974   0.00    0.0
2021/10/02 00:08:42.000   28 35 34.10344  -17 55 01.61883    73.8150   6   6   0.2435   0.3236   0.5326  -0.0607  -0.1816  -0.0916   0.00    0.0
2021/10/02 00:09:12.000   28 35 34.10427  -17 55 01.61853    73.7991   6   6   0.2177   0.3096   0.4821  -0.0426  -0.1737  -0.0755   0.00    0.0
2021/10/02 00:09:42.000   28 35 34.10728  -17 55 01.61591    73.5969   6   6   0.1753   0.2883   0.4046   0.0250  -0.1669  -0.0203   0.00    0.0
2021/10/02 00:10:12.000   28 35 34.10697  -17 55 01.61555    73.5884   6   6   0.1671   0.2795   0.3925   0.0271  -0.1637   0.0101   0.00    0.0
2021/10/02 00:10:42.000   28 35 34.10662  -17 55 01.61549    73.6042   6   6   0.1637   0.2735   0.3881   0.0254  -0.1612   0.0178   0.00    0.0
2021/10/02 00:11:12.000   28 35 34.10649  -17 55 01.61571    73.6156   6   6   0.1615   0.2683   0.3854   0.0229  -0.1589   0.0215   0.00    0.0
2021/10/02 00:11:42.000   28 35 34.10636  -17 55 01.61549    73.6168   6   6   0.1598   0.2636   0.3836   0.0200  -0.1568   0.0240   0.00    0.0
2021/10/02 00:12:12.000   28 35 34.10601  -17 55 01.61519    73.6171   6   6   0.1584   0.2592   0.3820   0.0168  -0.1549   0.0259   0.00    0.0
2021/10/02 00:12:42.000   28 35 34.10565  -17 55 01.61562    73.6205   6   6   0.1566   0.2548   0.3799   0.0140  -0.1529   0.0281   0.00    0.0
2021/10/02 00:13:12.000   28 35 34.10524  -17 55 01.61508    73.6235   6   6   0.1539   0.2503   0.3763   0.0122  -0.1511   0.0309   0.00    0.0
2021/10/02 00:13:42.000   28 35 34.10526  -17 55 01.61500    73.6454   6   6   0.1492   0.2451   0.3692   0.0137  -0.1493   0.0356   0.00    0.0
2021/10/02 00:14:12.000   28 35 34.10590  -17 55 01.61397    73.6500   6   6   0.1385   0.2374   0.3519   0.0204  -0.1477   0.0458   0.00    0.0
2021/10/02 00:14:42.000   28 35 34.10834  -17 55 01.61141    73.5421   6   6   0.1167   0.2235   0.3157   0.0278  -0.1467   0.0619   0.00    0.0
2021/10/02 00:15:12.000   28 35 34.10785  -17 55 01.61059    73.5386   6   6   0.1122   0.2183   0.3092   0.0272  -0.1452   0.0629   0.00    0.0
2021/10/02 00:15:42.000   28 35 34.10762  -17 55 01.61069    73.5265   6   6   0.1105   0.2150   0.3068   0.0261  -0.1439   0.0631   0.00    0.0
2021/10/02 00:16:12.000   28 35 34.10737  -17 55 01.61060    73.5171   6   6   0.1095   0.2122   0.3053   0.0250  -0.1426   0.0632   0.00    0.0
2021/10/02 00:16:42.000   28 35 34.10720  -17 55 01.61097    73.5151   6   6   0.1088   0.2097   0.3043   0.0240  -0.1413   0.0633   0.00    0.0
2021/10/02 00:17:12.000   28 35 34.10706  -17 55 01.61083    73.5113   6   6   0.1082   0.2074   0.3034   0.0229  -0.1401   0.0633   0.00    0.0
2021/10/02 00:17:42.000   28 35 34.10680  -17 55 01.61063    73.5087   6   6   0.1074   0.2050   0.3021   0.0219  -0.1389   0.0633   0.00    0.0
2021/10/02 00:18:12.000   28 35 34.10659  -17 55 01.61065    73.4854   6   6   0.1062   0.2025   0.2999   0.0210  -0.1377   0.0632   0.00    0.0
2021/10/02 00:18:42.000   28 35 34.10653  -17 55 01.61009    73.4376   6   6   0.1038   0.1993   0.2955   0.0203  -0.1365   0.0631   0.00    0.0
2021/10/02 00:19:12.000   28 35 34.10600  -17 55 01.60910    73.3773   6   6   0.0981   0.1942   0.2840   0.0202  -0.1349   0.0633   0.00    0.0
2021/10/02 00:19:42.000   28 35 34.10851  -17 55 01.60874    73.3664   6   6   0.0850   0.1843   0.2575   0.0210  -0.1325   0.0651   0.00    0.0
2021/10/02 00:20:12.000   28 35 34.10889  -17 55 01.60905    73.3663   6   6   0.0823   0.1807   0.2517   0.0200  -0.1309   0.0643   0.00    0.0
2021/10/02 00:20:42.000   28 35 34.10890  -17 55 01.60936    73.3627   6   6   0.0813   0.1785   0.2495   0.0192  -0.1298   0.0639   0.00    0.0
2021/10/02 00:21:12.000   28 35 34.10886  -17 55 01.60937    73.3652   6   6   0.0807   0.1768   0.2481   0.0185  -0.1288   0.0636   0.00    0.0
2021/10/02 00:21:42.000   28 35 34.10876  -17 55 01.60946    73.3671   6   6   0.0804   0.1753   0.2472   0.0180  -0.1279   0.0635   0.00    0.0
2021/10/02 00:22:12.000   28 35 34.10871  -17 55 01.60983    73.3691   6   6   0.0800   0.1739   0.2465   0.0174  -0.1270   0.0633   0.00    0.0
2021/10/02 00:22:42.000   28 35 34.10869  -17 55 01.60984    73.3668   6   6   0.0796   0.1724   0.2454   0.0168  -0.1261   0.0631   0.00    0.0
2021/10/02 00:23:12.000   28 35 34.10866  -17 55 01.60993    73.3727   6   6   0.0789   0.1708   0.2436   0.0163  -0.1251   0.0628   0.00    0.0
2021/10/02 00:23:42.000   28 35 34.10870  -17 55 01.61006    73.3930   6   6   0.0776   0.1687   0.2400   0.0157  -0.1239   0.0621   0.00    0.0
2021/10/02 00:24:12.000   28 35 34.10925  -17 55 01.60983    73.4072   6   6   0.0743   0.1651   0.2309   0.0149  -0.1219   0.0608   0.00    0.0
2021/10/02 00:24:42.000   28 35 34.11073  -17 55 01.60898    73.4112   6   6   0.0661   0.1577   0.2103   0.0133  -0.1184   0.0594   0.00    0.0
2021/10/02 00:25:12.000   28 35 34.11096  -17 55 01.60865    73.3989   6   6   0.0643   0.1551   0.2053   0.0123  -0.1168   0.0582   0.00    0.0
2021/10/02 00:25:42.000   28 35 34.11117  -17 55 01.60853    73.3858   6   6   0.0637   0.1536   0.2035   0.0117  -0.1159   0.0578   0.00    0.0
2021/10/02 00:26:12.000   28 35 34.11124  -17 55 01.60838    73.3822   6   6   0.0633   0.1524   0.2024   0.0113  -0.1152   0.0575   0.00    0.0
2021/10/02 00:26:42.000   28 35 34.11129  -17 55 01.60857    73.3866   6   6   0.0631   0.1514   0.2017   0.0109  -0.1145   0.0573   0.00    0.0
2021/10/02 00:27:12.000   28 35 34.11130  -17 55 01.60894    73.3957   6   6   0.0629   0.1505   0.2011   0.0105  -0.1138   0.0572   0.00    0.0
2021/10/02 00:27:42.000   28 35 34.11128  -17 55 01.60910    73.4058   6   6   0.0626   0.1495   0.2003   0.0101  -0.1132   0.0570   0.00    0.0
2021/10/02 00:28:12.000   28 35 34.11135  -17 55 01.60923    73.4215   6   6   0.0622   0.1483   0.1990   0.0095  -0.1124   0.0567   0.00    0.0
2021/10/02 00:28:42.000   28 35 34.11153  -17 55 01.60944    73.4442   6   6   0.0614   0.1469   0.1966   0.0087  -0.1115   0.0562   0.00    0.0
2021/10/02 00:29:12.000   28 35 34.11216  -17 55 01.60967    73.4686   6   6   0.0593   0.1443   0.1905   0.0064  -0.1100   0.0550   0.00    0.0
2021/10/02 00:29:42.000   28 35 34.11284  -17 55 01.60914    73.4794   6   6   0.0539   0.1389   0.1760  -0.0051  -0.1069   0.0535   0.00    0.0
2021/10/02 00:30:12.000   28 35 34.11272  -17 55 01.60855    73.4604   6   6   0.0526   0.1369   0.1724  -0.0070  -0.1057   0.0526   0.00    0.0
2021/10/02 00:30:42.000   28 35 34.11256  -17 55 01.60834    73.4550   6   6   0.0522   0.1358   0.1710  -0.0076  -0.1050   0.0522   0.00    0.0
2021/10/02 00:31:12.000   28 35 34.11248  -17 55 01.60825    73.4509   6   6   0.0519   0.1350   0.1703  -0.0079  -0.1045   0.0520   0.00    0.0
2021/10/02 00:31:42.000   28 35 34.11245  -17 55 01.60839    73.4517   6   6   0.0518   0.1342   0.1697  -0.0082  -0.1040   0.0519   0.00    0.0
2021/10/02 00:32:12.000   28 35 34.11244  -17 55 01.60850    73.4521   6   6   0.0517   0.1336   0.1693  -0.0083  -0.1035   0.0518   0.00    0.0
2021/10/02 00:32:42.000   28 35 34.11244  -17 55 01.60846    73.4507   6   6   0.0515   0.1328   0.1687  -0.0086  -0.1030   0.0517   0.00    0.0
2021/10/02 00:33:12.000   28 35 34.11250  -17 55 01.60829    73.4485   6   6   0.0512   0.1320   0.1679  -0.0089  -0.1025   0.0515   0.00    0.0
2021/10/02 00:33:42.000   28 35 34.11259  -17 55 01.60809    73.4450   6   6   0.0507   0.1310   0.1663  -0.0095  -0.1018   0.0511   0.00    0.0
2021/10/02 00:34:12.000   28 35 34.11269  -17 55 01.60772    73.4471   6   6   0.0492   0.1291   0.1623  -0.0110  -0.1008   0.0504   0.00    0.0
2021/10/02 00:34:42.000   28 35 34.11316  -17 55 01.60686    73.4436   6   6   0.0455   0.1250   0.1524  -0.0139  -0.0985   0.0494   0.00    0.0
2021/10/02 00:35:12.000   28 35 34.11355  -17 55 01.60698    73.4482   6   6   0.0446   0.1235   0.1499  -0.0146  -0.0977   0.0487   0.00    0.0
2021/10/02 00:35:42.000   28 35 34.11364  -17 55 01.60706    73.4517   6   6   0.0443   0.1227   0.1489  -0.0148  -0.0972   0.0485   0.00    0.0
2021/10/02 00:36:12.000   28 35 34.11366  -17 55 01.60718    73.4573   6   6   0.0441   0.1221   0.1484  -0.0149  -0.0968   0.0484   0.00    0.0
2021/10/02 00:36:42.000   28 35 34.11368  -17 55 01.60731    73.4615   6   6   0.0440   0.1215   0.1480  -0.0149  -0.0964   0.0483   0.00    0.0
2021/10/02 00:37:12.000   28 35 34.11370  -17 55 01.60730    73.4622   6   6   0.0439   0.1210   0.1477  -0.0149  -0.0960   0.0482   0.00    0.0
2021/10/02 00:37:42.000   28 35 34.11373  -17 55 01.60742    73.4654   6   6   0.0438   0.1205   0.1473  -0.0150  -0.0957   0.0481   0.00    0.0
2021/10/02 00:38:12.000   28 35 34.11376  -17 55 01.60738    73.4667   6   6   0.0436   0.1199   0.1467  -0.0151  -0.0953   0.0480   0.00    0.0
2021/10/02 00:38:42.000   28 35 34.11381  -17 55 01.60735    73.4664   6   6   0.0432   0.1191   0.1456  -0.0154  -0.0948   0.0478   0.00    0.0
2021/10/02 00:39:12.000   28 35 34.11382  -17 55 01.60702    73.4584   6   6   0.0423   0.1177   0.1431  -0.0164  -0.0942   0.0473   0.00    0.0
2021/10/02 00:39:42.000   28 35 34.11403  -17 55 01.60683    73.4653   6   6   0.0397   0.1147   0.1364  -0.0185  -0.0927   0.0469   0.00    0.0
2021/10/02 00:40:12.000   28 35 34.11405  -17 55 01.60688    73.4700   6   6   0.0390   0.1136   0.1347  -0.0190  -0.0921   0.0465   0.00    0.0
2021/10/02 00:40:42.000   28 35 34.11406  -17 55 01.60710    73.4754   6   6   0.0388   0.1130   0.1340  -0.0191  -0.0918   0.0463   0.00    0.0
2021/10/02 00:41:12.000   28 35 34.11406  -17 55 01.60735    73.4810   6   6   0.0387   0.1125   0.1336  -0.0192  -0.0915   0.0462   0.00    0.0
2021/10/02 00:41:42.000   28 35 34.11405  -17 55 01.60756    73.4851   6   6   0.0386   0.1121   0.1334  -0.0192  -0.0912   0.0462   0.00    0.0
2021/10/02 00:42:12.000   28 35 34.11402  -17 55 01.60754    73.4853   6   6   0.0385   0.1117   0.1331  -0.0191  -0.0909   0.0461   0.00    0.0
2021/10/02 00:42:42.000   28 35 34.11399  -17 55 01.60759    73.4892   6   6   0.0385   0.1113   0.1328  -0.0192  -0.0906   0.0461   0.00    0.0
2021/10/02 00:43:12.000   28 35 34.11396  -17 55 01.60753    73.4919   6   6   0.0383   0.1108   0.1324  -0.0192  -0.0903   0.0460   0.00    0.0
2021/10/02 00:43:42.000   28 35 34.11386  -17 55 01.60744    73.4911   6   6   0.0381   0.1102   0.1317  -0.0194  -0.0900   0.0459   0.00    0.0
2021/10/02 00:44:12.000   28 35 34.11377  -17 55 01.60737    73.4893   6   6   0.0374   0.1091   0.1301  -0.0201  -0.0896   0.0457   0.00    0.0
2021/10/02 00:44:42.000   28 35 34.11399  -17 55 01.60736    73.4827   6   6   0.0356   0.1069   0.1257  -0.0219  -0.0886   0.0457   0.00    0.0
2021/10/02 00:45:12.000   28 35 34.11402  -17 55 01.60735    73.4833   6   6   0.0351   0.1060   0.1245  -0.0223  -0.0883   0.0455   0.00    0.0
2021/10/02 00:45:42.000   28 35 34.11397  -17 55 01.60707    73.4764   6   6   0.0350   0.1055   0.1241  -0.0224  -0.0880   0.0454   0.00    0.0
2021/10/02 00:46:12.000   28 35 34.11394  -17 55 01.60691    73.4729   6   6   0.0349   0.1052   0.1238  -0.0224  -0.0878   0.0453   0.00    0.0
2021/10/02 00:46:42.000   28 35 34.11391  -17 55 01.60677    73.4697   6   6   0.0348   0.1048   0.1236  -0.0224  -0.0876   0.0453   0.00    0.0
2021/10/02 00:47:12.000   28 35 34.11388  -17 55 01.60681    73.4697   6   6   0.0348   0.1045   0.1234  -0.0224  -0.0873   0.0452   0.00    0.0
2021/10/02 00:47:42.000   28 35 34.11388  -17 55 01.60686    73.4706   6   6   0.0347   0.1042   0.1232  -0.0224  -0.0871   0.0452   0.00    0.0
2021/10/02 00:48:12.000   28 35 34.11389  -17 55 01.60695    73.4723   6   6   0.0346   0.1038   0.1229  -0.0224  -0.0869   0.0451   0.00    0.0
2021/10/02 00:48:42.000   28 35 34.11392  -17 55 01.60697    73.4715   6   6   0.0345   0.1033   0.1224  -0.0226  -0.0866   0.0451   0.00    0.0
2021/10/02 00:49:12.000   28 35 34.11393  -17 55 01.60692    73.4728   6   6   0.0340   0.1025   0.1214  -0.0232  -0.0864   0.0451   0.00    0.0
2021/10/02 00:49:42.000   28 35 34.11411  -17 55 01.60672    73.4694   6   6   0.0327   0.1007   0.1186  -0.0247  -0.0859   0.0453   0.00    0.0
2021/10/02 00:50:12.000   28 35 34.11415  -17 55 01.60678    73.4730   6   6   0.0324   0.1000   0.1178  -0.0251  -0.0857   0.0453   0.00    0.0
2021/10/02 00:50:42.000   28 35 34.11415  -17 55 01.60674    73.4714   6   6   0.0323   0.0996   0.1175  -0.0251  -0.0855   0.0452   0.00    0.0
2021/10/02 00:51:12.000   28 35 34.11416  -17 55 01.60669    73.4692   6   6   0.0322   0.0993   0.1173  -0.0252  -0.0853   0.0452   0.00    0.0
2021/10/02 00:51:42.000   28 35 34.11417  -17 55 01.60675    73.4691   6   6   0.0322   0.0990   0.1171  -0.0251  -0.0851   0.0451   0.00    0.0
2021/10/02 00:52:12.000   28 35 34.11417  -17 55 01.60674    73.4680   6   6   0.0322   0.0988   0.1170  -0.0251  -0.0849   0.0451   0.00    0.0
2021/10/02 00:52:42.000   28 35 34.11418  -17 55 01.60674    73.4670   6   6   0.0321   0.0985   0.1168  -0.0251  -0.0847   0.0451   0.00    0.0
2021/10/02 00:53:12.000   28 35 34.11419  -17 55 01.60666    73.4640   6   6   0.0321   0.0982   0.1166  -0.0251  -0.0845   0.0450   0.00    0.0
2021/10/02 00:53:42.000   28 35 34.11419  -17 55 01.60648    73.4595   6   6   0.0319   0.0978   0.1163  -0.0252  -0.0843   0.0450   0.00    0.0
2021/10/02 00:54:12.000   28 35 34.11419  -17 55 01.60633    73.4561   6   6   0.0316   0.0971   0.1156  -0.0257  -0.0842   0.0451   0.00    0.0
2021/10/02 00:54:42.000   28 35 34.11432  -17 55 01.60599    73.4458   6   6   0.0308   0.0955   0.1140  -0.0270  -0.0838   0.0456   0.00    0.0
2021/10/02 00:55:12.000   28 35 34.11429  -17 55 01.60590    73.4470   6   6   0.0306   0.0949   0.1135  -0.0272  -0.0837   0.0456   0.00    0.0
2021/10/02 00:55:42.000   28 35 34.11431  -17 55 01.60589    73.4471   6   6   0.0305   0.0946   0.1133  -0.0273  -0.0835   0.0456   0.00    0.0
2021/10/02 00:56:12.000   28 35 34.11430  -17 55 01.60585    73.4468   6   6   0.0305   0.0943   0.1131  -0.0273  -0.0833   0.0456   0.00    0.0
2021/10/02 00:56:42.000   28 35 34.11429  -17 55 01.60584    73.4463   6   6   0.0304   0.0941   0.1129  -0.0273  -0.0831   0.0455   0.00    0.0
2021/10/02 00:57:12.000   28 35 34.11429  -17 55 01.60595    73.4484   6   6   0.0304   0.0938   0.1128  -0.0272  -0.0829   0.0455   0.00    0.0
2021/10/02 00:57:42.000   28 35 34.11427  -17 55 01.60589    73.4474   6   6   0.0304   0.0936   0.1126  -0.0272  -0.0828   0.0455   0.00    0.0
2021/10/02 00:58:12.000   28 35 34.11423  -17 55 01.60577    73.4452   6   6   0.0303   0.0933   0.1124  -0.0272  -0.0826   0.0454   0.00    0.0
2021/10/02 00:58:42.000   28 35 34.11418  -17 55 01.60577    73.4485   6   6   0.0303   0.0930   0.1122  -0.0273  -0.0824   0.0454   0.00    0.0
2021/10/02 00:59:12.000   28 35 34.11403  -17 55 01.60578    73.4603   6   6   0.0301   0.0923   0.1117  -0.0276  -0.0822   0.0456   0.00    0.0
2021/10/02 00:59:42.000   28 35 34.11420  -17 55 01.60538    73.4523   6   6   0.0295   0.0907   0.1106  -0.0285  -0.0817   0.0460   0.00    0.0
2021/10/02 01:00:12.000   28 35 34.11423  -17 55 01.60526    73.4508   6   6   0.0294   0.0901   0.1102  -0.0287  -0.0814   0.0461   0.00    0.0
2021/10/02 01:00:42.000   28 35 34.11423  -17 55 01.60527    73.4524   6   6   0.0293   0.0898   0.1100  -0.0287  -0.0813   0.0461   0.00    0.0
2021/10/02 01:01:12.000   28 35 34.11421  -17 55 01.60525    73.4523   6   6   0.0293   0.0895   0.1098  -0.0287  -0.0811   0.0460   0.00    0.0
2021/10/02 01:01:42.000   28 35 34.11420  -17 55 01.60524    73.4522   6   6   0.0292   0.0893   0.1096  -0.0287  -0.0809   0.0460   0.00    0.0
2021/10/02 01:02:12.000   28 35 34.11419  -17 55 01.60525    73.4524   6   6   0.0292   0.0891   0.1095  -0.0286  -0.0807   0.0460   0.00    0.0
2021/10/02 01:02:42.000   28 35 34.11421  -17 55 01.60530    73.4535   6   6   0.0292   0.0889   0.1094  -0.0286  -0.0805   0.0459   0.00    0.0
2021/10/02 01:03:12.000   28 35 34.11421  -17 55 01.60531    73.4548   6   6   0.0292   0.0886   0.1092  -0.0286  -0.0804   0.0459   0.00    0.0
2021/10/02 01:03:42.000   28 35 34.11417  -17 55 01.60532    73.4579   6   6   0.0291   0.0882   0.1089  -0.0286  -0.0801   0.0459   0.00    0.0
2021/10/02 01:04:12.000   28 35 34.11413  -17 55 01.60539    73.4617   6   6   0.0290   0.0874   0.1084  -0.0287  -0.0797   0.0459   0.00    0.0
2021/10/02 01:04:42.000   28 35 34.11425  -17 55 01.60530    73.4509   6   6   0.0285   0.0855   0.1071  -0.0291  -0.0786   0.0461   0.00    0.0
2021/10/02 01:05:12.000   28 35 34.11426  -17 55 01.60533    73.4480   6   6   0.0284   0.0848   0.1066  -0.0292  -0.0782   0.0461   0.00    0.0
2021/10/02 01:05:42.000   28 35 34.11424  -17 55 01.60535    73.4482   6   6   0.0284   0.0845   0.1064  -0.0292  -0.0779   0.0461   0.00    0.0
2021/10/02 01:06:12.000   28 35 34.11423  -17 55 01.60535    73.4470   6   6   0.0283   0.0842   0.1062  -0.0291  -0.0777   0.0460   0.00    0.0
2021/10/02 01:06:42.000   28 35 34.11423  -17 55 01.60531    73.4458   6   6   0.0283   0.0840   0.1060  -0.0291  -0.0775   0.0460   0.00    0.0
2021/10/02 01:07:12.000   28 35 34.11422  -17 55 01.60531    73.4451   6   6   0.0283   0.0838   0.1059  -0.0290  -0.0774   0.0459   0.00    0.0
2021/10/02 01:07:42.000   28 35 34.11419  -17 55 01.60528    73.4426   6   6   0.0283   0.0836   0.1057  -0.0289  -0.0772   0.0459   0.00    0.0
2021/10/02 01:08:12.000   28 35 34.11418  -17 55 01.60527    73.4414   6   6   0.0282   0.0834   0.1055  -0.0289  -0.0769   0.0458   0.00    0.0
2021/10/02 01:08:42.000   28 35 34.11415  -17 55 01.60518    73.4378   6   6   0.0282   0.0829   0.1052  -0.0288  -0.0766   0.0457   0.00    0.0
2021/10/02 01:09:12.000   28 35 34.11420  -17 55 01.60496    73.4309   6   6   0.0280   0.0820   0.1043  -0.0287  -0.0758   0.0456   0.00    0.0
2021/10/02 01:09:42.000   28 35 34.11428  -17 55 01.60456    73.4178   6   6   0.0275   0.0794   0.1023  -0.0284  -0.0737   0.0453   0.00    0.0
2021/10/02 01:10:12.000   28 35 34.11436  -17 55 01.60437    73.4133   6   7   0.0274   0.0786   0.1015  -0.0283  -0.0730   0.0451   0.00    0.0
2021/10/02 01:10:42.000   28 35 34.11441  -17 55 01.60430    73.4091   6   7   0.0273   0.0782   0.1011  -0.0282  -0.0726   0.0450   0.00    0.0
2021/10/02 01:11:12.000   28 35 34.11443  -17 55 01.60425    73.4073   6   7   0.0273   0.0779   0.1009  -0.0281  -0.0723   0.0449   0.00    0.0
2021/10/02 01:11:42.000   28 35 34.11444  -17 55 01.60429    73.4070   6   7   0.0272   0.0777   0.1007  -0.0280  -0.0721   0.0448   0.00    0.0
2021/10/02 01:12:12.000   28 35 34.11444  -17 55 01.60423    73.4046   6   7   0.0272   0.0775   0.1005  -0.0279  -0.0719   0.0448   0.00    0.0
2021/10/02 01:12:42.000   28 35 34.11444  -17 55 01.60423    73.4045   6   7   0.0272   0.0773   0.1002  -0.0278  -0.0716   0.0447   0.00    0.0
2021/10/02 01:13:12.000   28 35 34.11446  -17 55 01.60417    73.4022   6   7   0.0271   0.0769   0.0999  -0.0277  -0.0713   0.0445   0.00    0.0
2021/10/02 01:13:42.000   28 35 34.11451  -17 55 01.60409    73.4001   6   7   0.0270   0.0764   0.0992  -0.0274  -0.0707   0.0443   0.00    0.0
2021/10/02 01:14:12.000   28 35 34.11463  -17 55 01.60397    73.3972   6   7   0.0267   0.0752   0.0977  -0.0269  -0.0693   0.0438   0.00    0.0
2021/10/02 01:14:42.000   28 35 34.11466  -17 55 01.60370    73.3902   6   7   0.0260   0.0721   0.0945  -0.0259  -0.0661   0.0427   0.00    0.0
2021/10/02 01:15:12.000   28 35 34.11463  -17 55 01.60358    73.3843   6   7   0.0258   0.0712   0.0932  -0.0255  -0.0650   0.0423   0.00    0.0
2021/10/02 01:15:42.000   28 35 34.11460  -17 55 01.60359    73.3841   6   7   0.0257   0.0707   0.0927  -0.0253  -0.0645   0.0421   0.00    0.0
2021/10/02 01:16:12.000   28 35 34.11457  -17 55 01.60345    73.3788   6   7   0.0256   0.0705   0.0924  -0.0252  -0.0642   0.0419   0.00    0.0
2021/10/02 01:16:42.000   28 35 34.11454  -17 55 01.60335    73.3749   6   7   0.0256   0.0703   0.0921  -0.0251  -0.0640   0.0418   0.00    0.0
2021/10/02 01:17:12.000   28 35 34.11453  -17 55 01.60334    73.3741   6   7   0.0256   0.0701   0.0919  -0.0250  -0.0638   0.0418   0.00    0.0
2021/10/02 01:17:42.000   28 35 34.11452  -17 55 01.60333    73.3733   6   7   0.0255   0.0699   0.0916  -0.0249  -0.0635   0.0416   0.00    0.0
2021/10/02 01:18:12.000   28 35 34.11450  -17 55 01.60332    73.3715   6   7   0.0254   0.0695   0.0912  -0.0247  -0.0631   0.0414   0.00    0.0
2021/10/02 01:18:42.000   28 35 34.11445  -17 55 01.60330    73.3721   6   7   0.0253   0.0690   0.0902  -0.0243  -0.0623   0.0411   0.00    0.0
2021/10/02 01:19:12.000   28 35 34.11437  -17 55 01.60335    73.3775   6   7   0.0249   0.0676   0.0880  -0.0235  -0.0604   0.0401   0.00    0.0
2021/10/02 01:19:42.000   28 35 34.11436  -17 55 01.60316    73.3673   6   7   0.0239   0.0642   0.0836  -0.0217  -0.0563   0.0383   0.00    0.0
2021/10/02 01:20:12.000   28 35 34.11439  -17 55 01.60318    73.3682   6   7   0.0236   0.0632   0.0820  -0.0211  -0.0550   0.0376   0.00    0.0
2021/10/02 01:20:42.000   28 35 34.11440  -17 55 01.60319    73.3677   6   7   0.0235   0.0628   0.0813  -0.0209  -0.0544   0.0374   0.00    0.0
2021/10/02 01:21:12.000   28 35 34.11440  -17 55 01.60314    73.3657   6   7   0.0234   0.0626   0.0810  -0.0207  -0.0541   0.0372   0.00    0.0
2021/10/02 01:21:42.000   28 35 34.11438  -17 55 01.60307    73.3637   6   7   0.0234   0.0624   0.0807  -0.0206  -0.0539   0.0371   0.00    0.0
2021/10/02 01:22:12.000   28 35 34.11436  -17 55 01.60302    73.3623   6   7   0.0233   0.0622   0.0805  -0.0205  -0.0537   0.0370   0.00    0.0
2021/10/02 01:22:42.000   28 35 34.11435  -17 55 01.60297    73.3613   6   7   0.0233   0.0621   0.0802  -0.0204  -0.0534   0.0369   0.00    0.0
2021/10/02 01:23:12.000   28 35 34.11433  -17 55 01.60299    73.3611   6   7   0.0232   0.0618   0.0797  -0.0202  -0.0530   0.0366   0.00    0.0
2021/10/02 01:23:42.000   28 35 34.11429  -17 55 01.60294    73.3578   6   7   0.0230   0.0613   0.0787  -0.0198  -0.0522   0.0362   0.00    0.0
2021/10/02 01:24:12.000   28 35 34.11420  -17 55 01.60289    73.3572   6   7   0.0225   0.0600   0.0763  -0.0188  -0.0503   0.0351   0.00    0.0
2021/10/02 01:24:42.000   28 35 34.11429  -17 55 01.60274    73.3556   6   7   0.0215   0.0569   0.0717  -0.0169  -0.0462   0.0330   0.00    0.0
2021/10/02 01:25:12.000   28 35 34.11429  -17 55 01.60270    73.3568   6   7   0.0211   0.0561   0.0701  -0.0162  -0.0449   0.0323   0.00    0.0
2021/10/02 01:25:42.000   28 35 34.11428  -17 55 01.60268    73.3553   6   7   0.0210   0.0557   0.0694  -0.0159  -0.0444   0.0320   0.00    0.0
2021/10/02 01:26:12.000   28 35 34.11427  -17 55 01.60266    73.3541   6   7   0.0210   0.0555   0.0690  -0.0158  -0.0441   0.0318   0.00    0.0
2021/10/02 01:26:42.000   28 35 34.11426  -17 55 01.60265    73.3531   6   7   0.0209   0.0554   0.0688  -0.0157  -0.0439   0.0317   0.00    0.0
2021/10/02 01:27:12.000   28 35 34.11425  -17 55 01.60263    73.3527   6   7   0.0209   0.0553   0.0686  -0.0156  -0.0437   0.0316   0.00    0.0
2021/10/02 01:27:42.000   28 35 34.11425  -17 55 01.60265    73.3532   6   8   0.0208   0.0551   0.0683  -0.0155  -0.0435   0.0315   0.00    0.0
2021/10/02 01:28:12.000   28 35 34.11425  -17 55 01.60264    73.3535   6   8   0.0207   0.0549   0.0679  -0.0153  -0.0431   0.0313   0.00    0.0
2021/10/02 01:28:42.000   28 35 34.11424  -17 55 01.60266    73.3533   6   8   0.0206   0.0545   0.0669  -0.0149  -0.0424   0.0309   0.00    0.0
2021/10/02 01:29:12.000   28 35 34.11422  -17 55 01.60276    73.3541   6   8   0.0201   0.0534   0.0648  -0.0140  -0.0407   0.0299   0.00    0.0
2021/10/02 01:29:42.000   28 35 34.11430  -17 55 01.60271    73.3554   6   8   0.0191   0.0509   0.0608  -0.0122  -0.0373   0.0279   0.00    0.0
2021/10/02 01:30:12.000   28 35 34.11436  -17 55 01.60277    73.3596   6   8   0.0188   0.0502   0.0593  -0.0115  -0.0361   0.0272   0.00    0.0
2021/10/02 01:30:42.000   28 35 34.11440  -17 55 01.60280    73.3632   6   8   0.0187   0.0499   0.0587  -0.0113  -0.0357   0.0269   0.00    0.0
2021/10/02 01:31:12.000   28 35 34.11442  -17 55 01.60282    73.3655   6   8   0.0187   0.0497   0.0584  -0.0111  -0.0354   0.0268   0.00    0.0
2021/10/02 01:31:42.000   28 35 34.11444  -17 55 01.60283    73.3669   6   8   0.0186   0.0496   0.0582  -0.0110  -0.0353   0.0267   0.00    0.0
2021/10/02 01:32:12.000   28 35 34.11445  -17 55 01.60285    73.3681   6   8   0.0186   0.0495   0.0580  -0.0110  -0.0352   0.0266   0.00    0.0
2021/10/02 01:32:42.000   28 35 34.11445  -17 55 01.60284    73.3692   6   8   0.0185   0.0494   0.0578  -0.0108  -0.0350   0.0265   0.00    0.0
2021/10/02 01:33:12.000   28 35 34.11446  -17 55 01.60285    73.3692   6   8   0.0185   0.0492   0.0574  -0.0107  -0.0347   0.0263   0.00    0.0
2021/10/02 01:33:42.000   28 35 34.11446  -17 55 01.60279    73.3676   6   8   0.0183   0.0489   0.0565  -0.0103  -0.0341   0.0259   0.00    0.0
2021/10/02 01:34:12.000   28 35 34.11449  -17 55 01.60269    73.3662   6   8   0.0179   0.0481   0.0547  -0.0094  -0.0328   0.0250   0.00    0.0
2021/10/02 01:34:42.000   28 35 34.11449  -17 55 01.60257    73.3599   6   8   0.0170   0.0460   0.0514  -0.0079  -0.0300   0.0233   0.00    0.0
2021/10/02 01:35:12.000   28 35 34.11449  -17 55 01.60261    73.3613   6   8   0.0168   0.0454   0.0501  -0.0073  -0.0291   0.0227   0.00    0.0
2021/10/02 01:35:42.000   28 35 34.11449  -17 55 01.60261    73.3616   6   8   0.0167   0.0452   0.0496  -0.0070  -0.0288   0.0225   0.00    0.0
2021/10/02 01:36:12.000   28 35 34.11448  -17 55 01.60258    73.3614   6   8   0.0166   0.0451   0.0494  -0.0069  -0.0286   0.0223   0.00    0.0
2021/10/02 01:36:42.000   28 35 34.11448  -17 55 01.60255    73.3611   6   7   0.0166   0.0450   0.0493  -0.0068  -0.0285   0.0223   0.00    0.0
2021/10/02 01:37:12.000   28 35 34.11448  -17 55 01.60249    73.3606   6   6   0.0166   0.0449   0.0492  -0.0068  -0.0285   0.0223   0.00    0.0
2021/10/02 01:37:42.000   28 35 34.11448  -17 55 01.60246    73.3604   6   6   0.0166   0.0449   0.0492  -0.0067  -0.0284   0.0222   0.00    0.0
2021/10/02 01:38:12.000   28 35 34.11449  -17 55 01.60244    73.3607   6   6   0.0165   0.0448   0.0491  -0.0067  -0.0283   0.0222   0.00    0.0
2021/10/02 01:38:42.000   28 35 34.11450  -17 55 01.60244    73.3615   6   6   0.0165   0.0445   0.0489  -0.0066  -0.0281   0.0221   0.00    0.0
2021/10/02 01:39:12.000   28 35 34.11453  -17 55 01.60245    73.3624   6   6   0.0163   0.0440   0.0483  -0.0062  -0.0276   0.0218   0.00    0.0
2021/10/02 01:39:42.000   28 35 34.11456  -17 55 01.60243    73.3631   6   6   0.0157   0.0423   0.0469  -0.0055  -0.0261   0.0209   0.00    0.0
2021/10/02 01:40:12.000   28 35 34.11459  -17 55 01.60239    73.3631   6   6   0.0155   0.0418   0.0465  -0.0052  -0.0257   0.0207   0.00    0.0
2021/10/02 01:40:42.000   28 35 34.11460  -17 55 01.60236    73.3627   6   6   0.0155   0.0417   0.0464  -0.0051  -0.0256   0.0206   0.00    0.0
2021/10/02 01:41:12.000   28 35 34.11460  -17 55 01.60233    73.3627   6   6   0.0155   0.0416   0.0463  -0.0051  -0.0255   0.0205   0.00    0.0
2021/10/02 01:41:42.000   28 35 34.11460  -17 55 01.60229    73.3623   6   6   0.0154   0.0415   0.0463  -0.0050  -0.0254   0.0205   0.00    0.0
2021/10/02 01:42:12.000   28 35 34.11460  -17 55 01.60224    73.3618   6   6   0.0154   0.0415   0.0462  -0.0050  -0.0254   0.0205   0.00    0.0
2021/10/02 01:42:42.000   28 35 34.11460  -17 55 01.60223    73.3619   6   6   0.0154   0.0414   0.0462  -0.0050  -0.0253   0.0205   0.00    0.0
2021/10/02 01:43:12.000   28 35 34.11460  -17 55 01.60222    73.3620   6   6   0.0154   0.0413   0.0461  -0.0049  -0.0252   0.0204   0.00    0.0
2021/10/02 01:43:42.000   28 35 34.11459  -17 55 01.60224    73.3630   6   6   0.0153   0.0411   0.0459  -0.0048  -0.0251   0.0203   0.00    0.0
2021/10/02 01:44:12.000   28 35 34.11459  -17 55 01.60226    73.3639   6   6   0.0151   0.0406   0.0454  -0.0045  -0.0246   0.0200   0.00    0.0
2021/10/02 01:44:42.000   28 35 34.11463  -17 55 01.60226    73.3643   6   6   0.0146   0.0391   0.0442  -0.0037  -0.0234   0.0191   0.00    0.0
2021/10/02 01:45:12.000   28 35 34.11456  -17 55 01.60227    73.3619   6   6   0.0144   0.0387   0.0438  -0.0034  -0.0231   0.0189   0.00    0.0
2021/10/02 01:45:42.000   28 35 34.11453  -17 55 01.60226    73.3611   6   6   0.0144   0.0385   0.0437  -0.0033  -0.0230   0.0188   0.00    0.0
2021/10/02 01:46:12.000   28 35 34.11451  -17 55 01.60225    73.3607   6   6   0.0143   0.0384   0.0436  -0.0032  -0.0229   0.0188   0.00    0.0
2021/10/02 01:46:42.000   28 35 34.11450  -17 55 01.60225    73.3603   6   6   0.0143   0.0384   0.0436  -0.0032  -0.0229   0.0188   0.00    0.0
2021/10/02 01:47:12.000   28 35 34.11449  -17 55 01.60224    73.3600   6   6   0.0143   0.0383   0.0436  -0.0032  -0.0228   0.0187   0.00    0.0
2021/10/02 01:47:42.000   28 35 34.11448  -17 55 01.60223    73.3598   6   6   0.0143   0.0383   0.0435  -0.0031  -0.0228   0.0187   0.00    0.0
2021/10/02 01:48:12.000   28 35 34.11448  -17 55 01.60221    73.3596   6   6   0.0143   0.0382   0.0435  -0.0031  -0.0227   0.0187   0.00    0.0
2021/10/02 01:48:42.000   28 35 34.11448  -17 55 01.60220    73.3597   6   6   0.0142   0.0380   0.0433  -0.0029  -0.0226   0.0186   0.00    0.0
2021/10/02 01:49:12.000   28 35 34.11449  -17 55 01.60219    73.3606   6   6   0.0140   0.0376   0.0429  -0.0026  -0.0222   0.0183   0.00    0.0
2021/10/02 01:49:42.000   28 35 34.11456  -17 55 01.60221    73.3631   6   6   0.0135   0.0361   0.0418  -0.0012  -0.0212   0.0174   0.00    0.0
2021/10/02 01:50:12.000   28 35 34.11456  -17 55 01.60220    73.3640   6   6   0.0134   0.0358   0.0414  -0.0003  -0.0209   0.0172   0.00    0.0
2021/10/02 01:50:42.000   28 35 34.11456  -17 55 01.60219    73.3644   6   6   0.0133   0.0357   0.0413   0.0006  -0.0208   0.0171   0.00    0.0
2021/10/02 01:51:12.000   28 35 34.11455  -17 55 01.60217    73.3642   6   6   0.0133   0.0356   0.0413   0.0008  -0.0208   0.0171   0.00    0.0
2021/10/02 01:51:42.000   28 35 34.11455  -17 55 01.60216    73.3641   6   6   0.0133   0.0356   0.0413   0.0009  -0.0207   0.0171   0.00    0.0
2021/10/02 01:52:12.000   28 35 34.11455  -17 55 01.60215    73.3640   6   6   0.0133   0.0355   0.0412   0.0009  -0.0207   0.0170   0.00    0.0
2021/10/02 01:52:42.000   28 35 34.11454  -17 55 01.60214    73.3638   6   6   0.0133   0.0355   0.0412   0.0010  -0.0207   0.0170   0.00    0.0
2021/10/02 01:53:12.000   28 35 34.11453  -17 55 01.60215    73.3633   6   6   0.0132   0.0354   0.0411   0.0011  -0.0206   0.0170   0.00    0.0
2021/10/02 01:53:42.000   28 35 34.11450  -17 55 01.60215    73.3626   6   6   0.0132   0.0352   0.0410   0.0013  -0.0205   0.0169   0.00    0.0
2021/10/02 01:54:12.000   28 35 34.11448  -17 55 01.60219    73.3626   6   6   0.0130   0.0348   0.0407   0.0018  -0.0202   0.0166   0.00    0.0
2021/10/02 01:54:42.000   28 35 34.11457  -17 55 01.60216    73.3670   6   6   0.0126   0.0336   0.0397   0.0026  -0.0194   0.0158   0.00    0.0
2021/10/02 01:55:12.000   28 35 34.11459  -17 55 01.60216    73.3689   6   6   0.0124   0.0332   0.0394   0.0028  -0.0192   0.0156   0.00    0.0
2021/10/02 01:55:42.000   28 35 34.11459  -17 55 01.60213    73.3685   6   6   0.0124   0.0331   0.0393   0.0028  -0.0191   0.0155   0.00    0.0
2021/10/02 01:56:12.000   28 35 34.11459  -17 55 01.60210    73.3683   6   6   0.0124   0.0331   0.0393   0.0029  -0.0191   0.0155   0.00    0.0
2021/10/02 01:56:42.000   28 35 34.11460  -17 55 01.60209    73.3682   6   6   0.0124   0.0330   0.0392   0.0029  -0.0190   0.0155   0.00    0.0
2021/10/02 01:57:12.000   28 35 34.11460  -17 55 01.60206    73.3681   6   6   0.0124   0.0330   0.0392   0.0029  -0.0190   0.0155   0.00    0.0
2021/10/02 01:57:42.000   28 35 34.11460  -17 55 01.60203    73.3679   6   6   0.0123   0.0330   0.0392   0.0029  -0.0190   0.0155   0.00    0.0
2021/10/02 01:58:12.000   28 35 34.11460  -17 55 01.60200    73.3676   6   6   0.0123   0.0329   0.0391   0.0029  -0.0189   0.0154   0.00    0.0
2021/10/02 01:58:42.000   28 35 34.11459  -17 55 01.60199    73.3677   6   6   0.0123   0.0328   0.0390   0.0030  -0.0189   0.0153   0.00    0.0
2021/10/02 01:59:12.000   28 35 34.11460  -17 55 01.60200    73.3692   6   6   0.0122   0.0324   0.0387   0.0032  -0.0186   0.0151   0.00    0.0
2021/10/02 01:59:42.000   28 35 34.11466  -17 55 01.60198    73.3725   6   6   0.0117   0.0313   0.0379   0.0035  -0.0180   0.0143   0.00    0.0
2021/10/02 02:00:12.000   28 35 34.11467  -17 55 01.60199    73.3730   6   6   0.0116   0.0310   0.0377   0.0036  -0.0178   0.0142   0.00    0.0
2021/10/02 02:00:42.000   28 35 34.11468  -17 55 01.60198    73.3734   6   6   0.0116   0.0309   0.0376   0.0036  -0.0178   0.0141   0.00    0.0
2021/10/02 02:01:12.000   28 35 34.11469  -17 55 01.60195    73.3735   6   6   0.0116   0.0308   0.0376   0.0037  -0.0177   0.0141   0.00    0.0
2021/10/02 02:01:42.000   28 35 34.11469  -17 55 01.60192    73.3733   6   6   0.0116   0.0308   0.0375   0.0037  -0.0177   0.0140   0.00    0.0
2021/10/02 02:02:12.000   28 35 34.11469  -17 55 01.60191    73.3731   6   6   0.0116   0.0308   0.0375   0.0037  -0.0177   0.0140   0.00    0.0
2021/10/02 02:02:42.000   28 35 34.11469  -17 55 01.60189    73.3731   6   6   0.0115   0.0307   0.0375   0.0037  -0.0177   0.0140   0.00    0.0
2021/10/02 02:03:12.000   28 35 34.11469  -17 55 01.60188    73.3732   6   6   0.0115   0.0307   0.0374   0.0037  -0.0176   0.0140   0.00    0.0
2021/10/02 02:03:42.000   28 35 34.11469  -17 55 01.60187    73.3727   6   6   0.0115   0.0306   0.0374   0.0037  -0.0176   0.0139   0.00    0.0
2021/10/02 02:04:12.000   28 35 34.11465  -17 55 01.60189    73.3696   6   6   0.0114   0.0302   0.0371   0.0038  -0.0174   0.0137   0.00    0.0
2021/10/02 02:04:42.000   28 35 34.11470  -17 55 01.60187    73.3717   6   6   0.0110   0.0292   0.0363   0.0041  -0.0169   0.0129   0.00    0.0
2021/10/02 02:05:12.000   28 35 34.11472  -17 55 01.60187    73.3732   6   6   0.0109   0.0290   0.0361   0.0041  -0.0167   0.0128   0.00    0.0
2021/10/02 02:05:42.000   28 35 34.11473  -17 55 01.60185    73.3736   6   6   0.0109   0.0289   0.0360   0.0042  -0.0167   0.0127   0.00    0.0
2021/10/02 02:06:12.000   28 35 34.11474  -17 55 01.60181    73.3738   6   6   0.0109   0.0288   0.0360   0.0042  -0.0166   0.0127   0.00    0.0
2021/10/02 02:06:42.000   28 35 34.11474  -17 55 01.60178    73.3738   6   6   0.0109   0.0288   0.0360   0.0042  -0.0166   0.0127   0.00    0.0
2021/10/02 02:07:12.000   28 35 34.11475  -17 55 01.60175    73.3739   6   6   0.0109   0.0288   0.0360   0.0042  -0.0166   0.0126   0.00    0.0
2021/10/02 02:07:42.000   28 35 34.11476  -17 55 01.60173    73.3744   6   6   0.0108   0.0287   0.0359   0.0042  -0.0166   0.0126   0.00    0.0
2021/10/02 02:08:12.000   28 35 34.11477  -17 55 01.60171    73.3753   6   6   0.0108   0.0287   0.0359   0.0042  -0.0166   0.0126   0.00    0.0
2021/10/02 02:08:42.000   28 35 34.11477  -17 55 01.60170    73.3755   6   6   0.0108   0.0286   0.0358   0.0042  -0.0165   0.0125   0.00    0.0
2021/10/02 02:09:12.000   28 35 34.11476  -17 55 01.60169    73.3752   6   6   0.0107   0.0283   0.0356   0.0043  -0.0164   0.0123   0.00    0.0
2021/10/02 02:09:42.000   28 35 34.11478  -17 55 01.60163    73.3755   6   6   0.0104   0.0274   0.0349   0.0045  -0.0159   0.0116   0.00    0.0
2021/10/02 02:10:12.000   28 35 34.11479  -17 55 01.60162    73.3767   6   6   0.0103   0.0272   0.0347   0.0045  -0.0158   0.0115   0.00    0.0
2021/10/02 02:10:42.000   28 35 34.11478  -17 55 01.60163    73.3770   6   6   0.0103   0.0271   0.0346   0.0045  -0.0158   0.0114   0.00    0.0
2021/10/02 02:11:12.000   28 35 34.11478  -17 55 01.60162    73.3767   6   6   0.0103   0.0270   0.0346   0.0045  -0.0158   0.0114   0.00    0.0
2021/10/02 02:11:42.000   28 35 34.11478  -17 55 01.60161    73.3765   6   6   0.0102   0.0270   0.0345   0.0045  -0.0157   0.0113   0.00    0.0
2021/10/02 02:12:12.000   28 35 34.11478  -17 55 01.60161    73.3764   6   6   0.0102   0.0270   0.0345   0.0045  -0.0157   0.0113   0.00    0.0
2021/10/02 02:12:42.000   28 35 34.11478  -17 55 01.60158    73.3763   6   6   0.0102   0.0270   0.0345   0.0045  -0.0157   0.0113   0.00    0.0
2021/10/02 02:13:12.000   28 35 34.11478  -17 55 01.60157    73.3768   6   6   0.0102   0.0269   0.0344   0.0045  -0.0157   0.0113   0.00    0.0
2021/10/02 02:13:42.000   28 35 34.11479  -17 55 01.60155    73.3771   6   6   0.0102   0.0268   0.0343   0.0046  -0.0156   0.0112   0.00    0.0
2021/10/02 02:14:12.000   28 35 34.11480  -17 55 01.60152    73.3773   6   6   0.0101   0.0266   0.0341   0.0046  -0.0155   0.0110   0.00    0.0
2021/10/02 02:14:42.000   28 35 34.11483  -17 55 01.60151    73.3790   6   6   0.0098   0.0258   0.0335   0.0047  -0.0152   0.0104   0.00    0.0
2021/10/02 02:15:12.000   28 35 34.11483  -17 55 01.60151    73.3791   6   6   0.0098   0.0256   0.0333   0.0048  -0.0151   0.0102   0.00    0.0
2021/10/02 02:15:42.000   28 35 34.11483  -17 55 01.60150    73.3797   6   6   0.0097   0.0255   0.0332   0.0048  -0.0150   0.0101   0.00    0.0
2021/10/02 02:16:12.000   28 35 34.11483  -17 55 01.60149    73.3797   6   6   0.0097   0.0255   0.0331   0.0048  -0.0150   0.0101   0.00    0.0
2021/10/02 02:16:42.000   28 35 34.11483  -17 55 01.60148    73.3799   6   6   0.0097   0.0254   0.0331   0.0048  -0.0150   0.0101   0.00    0.0
2021/10/02 02:17:12.000   28 35 34.11483  -17 55 01.60148    73.3801   6   6   0.0097   0.0254   0.0331   0.0048  -0.0150   0.0101   0.00    0.0
2021/10/02 02:17:42.000   28 35 34.11483  -17 55 01.60147    73.3801   6   5   0.0097   0.0254   0.0331   0.0048  -0.0150   0.0101   0.00    0.0
2021/10/02 02:18:12.000   28 35 34.11483  -17 55 01.60147    73.3799   6   5   0.0097   0.0254   0.0331   0.0048  -0.0150   0.0101   0.00    0.0
2021/10/02 02:18:42.000   28 35 34.11482  -17 55 01.60149    73.3796   6   5   0.0097   0.0253   0.0330   0.0048  -0.0149   0.0100   0.00    0.0
2021/10/02 02:19:12.000   28 35 34.11483  -17 55 01.60151    73.3802   6   5   0.0096   0.0251   0.0329   0.0049  -0.0148   0.0099   0.00    0.0
2021/10/02 02:19:42.000   28 35 34.11485  -17 55 01.60153    73.3807   6   5   0.0094   0.0243   0.0326   0.0049  -0.0146   0.0094   0.00    0.0
2021/10/02 02:20:12.000   28 35 34.11486  -17 55 01.60152    73.3805   6   5   0.0093   0.0241   0.0325   0.0050  -0.0145   0.0093   0.00    0.0
2021/10/02 02:20:42.000   28 35 34.11487  -17 55 01.60149    73.3805   6   5   0.0093   0.0241   0.0324   0.0050  -0.0145   0.0093   0.00    0.0
2021/10/02 02:21:12.000   28 35 34.11487  -17 55 01.60147    73.3806   6   5   0.0093   0.0241   0.0324   0.0050  -0.0145   0.0093   0.00    0.0
2021/10/02 02:21:42.000   28 35 34.11488  -17 55 01.60145    73.3807   6   5   0.0093   0.0240   0.0324   0.0050  -0.0145   0.0092   0.00    0.0
2021/10/02 02:22:12.000   28 35 34.11488  -17 55 01.60143    73.3807   6   5   0.0093   0.0240   0.0324   0.0050  -0.0145   0.0092   0.00    0.0
2021/10/02 02:22:42.000   28 35 34.11488  -17 55 01.60142    73.3809   6   5   0.0093   0.0240   0.0324   0.0050  -0.0145   0.0092   0.00    0.0
2021/10/02 02:23:12.000   28 35 34.11489  -17 55 01.60139    73.3809   6   5   0.0093   0.0240   0.0324   0.0050  -0.0145   0.0092   0.00    0.0
2021/10/02 02:23:42.000   28 35 34.11490  -17 55 01.60137    73.3811   6   5   0.0093   0.0239   0.0324   0.0050  -0.0144   0.0092   0.00    0.0
2021/10/02 02:24:12.000   28 35 34.11491  -17 55 01.60137    73.3813   6   5   0.0092   0.0237   0.0323   0.0050  -0.0144   0.0090   0.00    0.0
2021/10/02 02:24:42.000   28 35 34.11492  -17 55 01.60137    73.3820   6   5   0.0090   0.0231   0.0320   0.0050  -0.0142   0.0086   0.00    0.0
2021/10/02 02:25:12.000   28 35 34.11492  -17 55 01.60139    73.3818   6   5   0.0089   0.0229   0.0319   0.0051  -0.0142   0.0085   0.00    0.0
2021/10/02 02:25:42.000   28 35 34.11491  -17 55 01.60139    73.3815   6   5   0.0089   0.0229   0.0319   0.0051  -0.0141   0.0085   0.00    0.0
2021/10/02 02:26:12.000   28 35 34.11491  -17 55 01.60139    73.3813   6   5   0.0089   0.0228   0.0319   0.0051  -0.0141   0.0084   0.00    0.0
2021/10/02 02:26:42.000   28 35 34.11491  -17 55 01.60137    73.3812   6   5   0.0089   0.0228   0.0319   0.0051  -0.0141   0.0084   0.00    0.0
2021/10/02 02:27:12.000   28 35 34.11491  -17 55 01.60136    73.3812   6   5   0.0089   0.0228   0.0318   0.0051  -0.0141   0.0084   0.00    0.0
2021/10/02 02:27:42.000   28 35 34.11491  -17 55 01.60136    73.3812   6   5   0.0089   0.0228   0.0318   0.0051  -0.0141   0.0084   0.00    0.0
2021/10/02 02:28:12.000   28 35 34.11491  -17 55 01.60135    73.3812   6   5   0.0089   0.0228   0.0318   0.0051  -0.0141   0.0084   0.00    0.0
2021/10/02 02:28:42.000   28 35 34.11492  -17 55 01.60134    73.3813   6   5   0.0089   0.0227   0.0318   0.0051  -0.0141   0.0084   0.00    0.0
2021/10/02 02:29:12.000   28 35 34.11495  -17 55 01.60130    73.3830   6   5   0.0088   0.0225   0.0317   0.0051  -0.0141   0.0083   0.00    0.0
2021/10/02 02:29:42.000   28 35 34.11495  -17 55 01.60128    73.3828   6   5   0.0086   0.0220   0.0315   0.0051  -0.0140   0.0078   0.00    0.0
2021/10/02 02:30:12.000   28 35 34.11490  -17 55 01.60131    73.3799   6   5   0.0086   0.0218   0.0314   0.0051  -0.0139   0.0077   0.00    0.0
2021/10/02 02:30:42.000   28 35 34.11489  -17 55 01.60132    73.3789   6   5   0.0086   0.0218   0.0314   0.0051  -0.0139   0.0077   0.00    0.0
2021/10/02 02:31:12.000   28 35 34.11488  -17 55 01.60132    73.3786   6   5   0.0086   0.0218   0.0314   0.0051  -0.0139   0.0077   0.00    0.0
2021/10/02 02:31:42.000   28 35 34.11488  -17 55 01.60132    73.3786   6   5   0.0086   0.0217   0.0314   0.0051  -0.0139   0.0077   0.00    0.0
2021/10/02 02:32:12.000   28 35 34.11488  -17 55 01.60131    73.3784   6   5   0.0086   0.0217   0.0314   0.0051  -0.0139   0.0077   0.00    0.0
2021/10/02 02:32:42.000   28 35 34.11488  -17 55 01.60130    73.3783   6   5   0.0086   0.0217   0.0313   0.0051  -0.0139   0.0076   0.00    0.0
2021/10/02 02:33:12.000   28 35 34.11488  -17 55 01.60129    73.3784   6   5   0.0086   0.0217   0.0313   0.0051  -0.0139   0.0076   0.00    0.0
2021/10/02 02:33:42.000   28 35 34.11489  -17 55 01.60127    73.3786   6   5   0.0086   0.0216   0.0313   0.0051  -0.0139   0.0076   0.00    0.0
2021/10/02 02:34:12.000   28 35 34.11489  -17 55 01.60126    73.3785   6   5   0.0085   0.0215   0.0312   0.0052  -0.0139   0.0075   0.00    0.0
2021/10/02 02:34:42.000   28 35 34.11489  -17 55 01.60128    73.3790   6   5   0.0083   0.0210   0.0310   0.0052  -0.0138   0.0070   0.00    0.0
2021/10/02 02:35:12.000   28 35 34.11489  -17 55 01.60128    73.3785   6   5   0.0083   0.0209   0.0309   0.0052  -0.0138   0.0069   0.00    0.0
2021/10/02 02:35:42.000   28 35 34.11488  -17 55 01.60128    73.3779   6   5   0.0083   0.0208   0.0309   0.0052  -0.0138   0.0069   0.00    0.0
2021/10/02 02:36:12.000   28 35 34.11487  -17 55 01.60128    73.3774   6   5   0.0083   0.0208   0.0309   0.0052  -0.0138   0.0069   0.00    0.0
2021/10/02 02:36:42.000   28 35 34.11487  -17 55 01.60128    73.3771   6   5   0.0083   0.0208   0.0309   0.0052  -0.0138   0.0069   0.00    0.0
2021/10/02 02:37:12.000   28 35 34.11486  -17 55 01.60128    73.3770   6   5   0.0083   0.0208   0.0309   0.0052  -0.0138   0.0069   0.00    0.0
2021/10/02 02:37:42.000   28 35 34.11486  -17 55 01.60128    73.3770   6   5   0.0083   0.0208   0.0309   0.0052  -0.0138   0.0069   0.00    0.0
2021/10/02 02:38:12.000   28 35 34.11486  -17 55 01.60128    73.3768   6   5   0.0083   0.0208   0.0309   0.0052  -0.0138   0.0068   0.00    0.0
2021/10/02 02:38:42.000   28 35 34.11485  -17 55 01.60129    73.3763   6   5   0.0082   0.0207   0.0309   0.0052  -0.0138   0.0068   0.00    0.0
2021/10/02 02:39:12.000   28 35 34.11482  -17 55 01.60127    73.3738   6   5   0.0082   0.0206   0.0308   0.0052  -0.0138   0.0067   0.00    0.0
2021/10/02 02:39:42.000   28 35 34.11483  -17 55 01.60126    73.3745   6   5   0.0080   0.0202   0.0306   0.0053  -0.0137   0.0062   0.00    0.0
2021/10/02 02:40:12.000   28 35 34.11483  -17 55 01.60131    73.3751   6   5   0.0080   0.0201   0.0305   0.0053  -0.0137   0.0061   0.00    0.0
2021/10/02 02:40:42.000   28 35 34.11483  -17 55 01.60133    73.3752   6   5   0.0080   0.0200   0.0305   0.0053  -0.0137   0.0061   0.00    0.0
2021/10/02 02:41:12.000   28 35 34.11483  -17 55 01.60134    73.3752   6   5   0.0080   0.0200   0.0305   0.0053  -0.0137   0.0061   0.00    0.0
2021/10/02 02:41:42.000   28 35 34.11483  -17 55 01.60134    73.3753   6   5   0.0080   0.0200   0.0305   0.0053  -0.0137   0.0061   0.00    0.0
2021/10/02 02:42:12.000   28 35 34.11483  -17 55 01.60134    73.3753   6   5   0.0080   0.0200   0.0305   0.0053  -0.0137   0.0061   0.00    0.0
2021/10/02 02:42:42.000   28 35 34.11483  -17 55 01.60134    73.3753   6   5   0.0080   0.0200   0.0305   0.0053  -0.0137   0.0061   0.00    0.0
2021/10/02 02:43:12.000   28 35 34.11483  -17 55 01.60133    73.3755   6   5   0.0080   0.0200   0.0305   0.0053  -0.0137   0.0060   0.00    0.0
2021/10/02 02:43:42.000   28 35 34.11484  -17 55 01.60133    73.3760   6   5   0.0080   0.0199   0.0304   0.0053  -0.0137   0.0060   0.00    0.0
2021/10/02 02:44:12.000   28 35 34.11484  -17 55 01.60135    73.3761   6   5   0.0079   0.0198   0.0304   0.0053  -0.0137   0.0059   0.00    0.0
2021/10/02 02:44:42.000   28 35 34.11486  -17 55 01.60137    73.3775   6   5   0.0078   0.0194   0.0302   0.0053  -0.0137   0.0054   0.00    0.0
2021/10/02 02:45:12.000   28 35 34.11487  -17 55 01.60134    73.3781   6   5   0.0078   0.0194   0.0301   0.0053  -0.0137   0.0053   0.00    0.0
2021/10/02 02:45:42.000   28 35 34.11488  -17 55 01.60133    73.3788   6   5   0.0077   0.0193   0.0301   0.0053  -0.0137   0.0053   0.00    0.0
2021/10/02 02:46:12.000   28 35 34.11489  -17 55 01.60132    73.3792   6   5   0.0077   0.0193   0.0301   0.0053  -0.0137   0.0053   0.00    0.0
2021/10/02 02:46:42.000   28 35 34.11489  -17 55 01.60131    73.3791   6   5   0.0077   0.0193   0.0301   0.0053  -0.0137   0.0052   0.00    0.0
2021/10/02 02:47:12.000   28 35 34.11489  -17 55 01.60130    73.3790   6   5   0.0077   0.0193   0.0301   0.0053  -0.0137   0.0052   0.00    0.0
2021/10/02 02:47:42.000   28 35 34.11489  -17 55 01.60129    73.3790   6   5   0.0077   0.0193   0.0301   0.0053  -0.0137   0.0052   0.00    0.0
2021/10/02 02:48:12.000   28 35 34.11489  -17 55 01.60129    73.3792   6   5   0.0077   0.0193   0.0301   0.0053  -0.0137   0.0052   0.00    0.0
2021/10/02 02:48:42.000   28 35 34.11489  -17 55 01.60129    73.3792   6   5   0.0077   0.0192   0.0300   0.0053  -0.0137   0.0052   0.00    0.0
2021/10/02 02:49:12.000   28 35 34.11490  -17 55 01.60134    73.3798   6   5   0.0077   0.0191   0.0300   0.0053  -0.0138   0.0050   0.00    0.0
2021/10/02 02:49:42.000   28 35 34.11489  -17 55 01.60136    73.3789   6   5   0.0075   0.0188   0.0298   0.0054  -0.0138   0.0045   0.00    0.0
2021/10/02 02:50:12.000   28 35 34.11487  -17 55 01.60136    73.3776   6   5   0.0075   0.0188   0.0297   0.0054  -0.0138   0.0044   0.00    0.0
2021/10/02 02:50:42.000   28 35 34.11487  -17 55 01.60136    73.3772   6   5   0.0075   0.0187   0.0297   0.0054  -0.0138   0.0044   0.00    0.0
2021/10/02 02:51:12.000   28 35 34.11487  -17 55 01.60135    73.3772   6   5   0.0075   0.0187   0.0297   0.0054  -0.0138   0.0044   0.00    0.0
2021/10/02 02:51:42.000   28 35 34.11487  -17 55 01.60135    73.3774   6   5   0.0075   0.0187   0.0297   0.0054  -0.0138   0.0044   0.00    0.0
2021/10/02 02:52:12.000   28 35 34.11488  -17 55 01.60134    73.3773   6   5   0.0075   0.0187   0.0297   0.0054  -0.0138   0.0044   0.00    0.0
2021/10/02 02:52:42.000   28 35 34.11488  -17 55 01.60133    73.3773   6   5   0.0075   0.0187   0.0297   0.0054  -0.0138   0.0043   0.00    0.0
2021/10/02 02:53:12.000   28 35 34.11488  -17 55 01.60132    73.3777   6   5   0.0075   0.0187   0.0297   0.0054  -0.0138   0.0043   0.00    0.0
2021/10/02 02:53:42.000   28 35 34.11488  -17 55 01.60131    73.3778   6   5   0.0075   0.0187   0.0296   0.0054  -0.0138   0.0043   0.00    0.0
2021/10/02 02:54:12.000   28 35 34.11489  -17 55 01.60131    73.3788   6   5   0.0074   0.0186   0.0296   0.0054  -0.0138   0.0041   0.00    0.0
2021/10/02 02:54:42.000   28 35 34.11489  -17 55 01.60133    73.3789   6   5   0.0073   0.0183   0.0294   0.0054  -0.0139   0.0036   0.00    0.0
2021/10/02 02:55:12.000   28 35 34.11491  -17 55 01.60134    73.3803   6   5   0.0073   0.0182   0.0293   0.0054  -0.0139   0.0035   0.00    0.0
2021/10/02 02:55:42.000   28 35 34.11491  -17 55 01.60134    73.3805   6   6   0.0073   0.0182   0.0293   0.0054  -0.0139   0.0034   0.00    0.0
2021/10/02 02:56:12.000   28 35 34.11492  -17 55 01.60133    73.3806   6   6   0.0073   0.0182   0.0293   0.0054  -0.0139   0.0034   0.00    0.0
2021/10/02 02:56:42.000   28 35 34.11492  -17 55 01.60133    73.3807   6   6   0.0073   0.0182   0.0293   0.0054  -0.0139   0.0034   0.00    0.0
2021/10/02 02:57:12.000   28 35 34.11492  -17 55 01.60132    73.3806   6   6   0.0073   0.0182   0.0293   0.0054  -0.0139   0.0034   0.00    0.0
2021/10/02 02:57:42.000   28 35 34.11492  -17 55 01.60132    73.3804   6   6   0.0073   0.0182   0.0293   0.0054  -0.0139   0.0034   0.00    0.0
2021/10/02 02:58:12.000   28 35 34.11491  -17 55 01.60133    73.3801   6   6   0.0073   0.0182   0.0293   0.0054  -0.0139   0.0033   0.00    0.0
2021/10/02 02:58:42.000   28 35 34.11491  -17 55 01.60133    73.3798   6   6   0.0073   0.0182   0.0293   0.0054  -0.0139   0.0033   0.00    0.0
2021/10/02 02:59:12.000   28 35 34.11491  -17 55 01.60130    73.3799   6   6   0.0072   0.0181   0.0292   0.0055  -0.0139   0.0031   0.00    0.0
2021/10/02 02:59:42.000   28 35 34.11491  -17 55 01.60132    73.3800   6   6   0.0072   0.0179   0.0290   0.0055  -0.0140   0.0025   0.00    0.0
2021/10/02 03:00:12.000   28 35 34.11491  -17 55 01.60132    73.3798   6   6   0.0071   0.0178   0.0290   0.0055  -0.0140   0.0023   0.00    0.0
2021/10/02 03:00:42.000   28 35 34.11491  -17 55 01.60132    73.3796   6   6   0.0071   0.0178   0.0289   0.0055  -0.0140   0.0022   0.00    0.0
2021/10/02 03:01:12.000   28 35 34.11491  -17 55 01.60132    73.3796   6   6   0.0071   0.0178   0.0289   0.0055  -0.0140   0.0022   0.00    0.0
2021/10/02 03:01:42.000   28 35 34.11491  -17 55 01.60131    73.3794   6   6   0.0071   0.0178   0.0289   0.0055  -0.0140   0.0022   0.00    0.0
2021/10/02 03:02:12.000   28 35 34.11491  -17 55 01.60130    73.3792   6   6   0.0071   0.0178   0.0289   0.0055  -0.0140   0.0022   0.00    0.0
2021/10/02 03:02:42.000   28 35 34.11491  -17 55 01.60130    73.3790   6   6   0.0071   0.0178   0.0289   0.0055  -0.0140   0.0022   0.00    0.0
2021/10/02 03:03:12.000   28 35 34.11491  -17 55 01.60129    73.3788   6   6   0.0071   0.0178   0.0289   0.0055  -0.0140   0.0021   0.00    0.0
2021/10/02 03:03:42.000   28 35 34.11491  -17 55 01.60128    73.3786   6   6   0.0071   0.0177   0.0289   0.0055  -0.0140   0.0021   0.00    0.0
2021/10/02 03:04:12.000   28 35 34.11490  -17 55 01.60127    73.3776   6   6   0.0071   0.0177   0.0288   0.0055  -0.0140   0.0018   0.00    0.0
2021/10/02 03:04:42.000   28 35 34.11490  -17 55 01.60128    73.3778   6   6   0.0070   0.0175   0.0286   0.0056  -0.0141   0.0004   0.00    0.0
2021/10/02 03:05:12.000   28 35 34.11492  -17 55 01.60128    73.3790   6   7   0.0070   0.0175   0.0286   0.0056  -0.0141  -0.0008   0.00    0.0
2021/10/02 03:05:42.000   28 35 34.11493  -17 55 01.60126    73.3797   6   7   0.0070   0.0174   0.0286   0.0056  -0.0141  -0.0009   0.00    0.0
2021/10/02 03:06:12.000   28 35 34.11493  -17 55 01.60125    73.3798   6   7   0.0070   0.0174   0.0285   0.0056  -0.0141  -0.0010   0.00    0.0
2021/10/02 03:06:42.000   28 35 34.11493  -17 55 01.60125    73.3796   6   7   0.0069   0.0174   0.0285   0.0056  -0.0141  -0.0010   0.00    0.0
2021/10/02 03:07:12.000   28 35 34.11493  -17 55 01.60124    73.3793   6   7   0.0069   0.0174   0.0285   0.0056  -0.0141  -0.0010   0.00    0.0
2021/10/02 03:07:42.000   28 35 34.11493  -17 55 01.60123    73.3790   6   7   0.0069   0.0174   0.0285   0.0056  -0.0141  -0.0011   0.00    0.0
2021/10/02 03:08:12.000   28 35 34.11493  -17 55 01.60122    73.3787   6   7   0.0069   0.0174   0.0285   0.0056  -0.0141  -0.0011   0.00    0.0
2021/10/02 03:08:42.000   28 35 34.11492  -17 55 01.60122    73.3784   6   7   0.0069   0.0174   0.0285   0.0056  -0.0141  -0.0012   0.00    0.0
2021/10/02 03:09:12.000   28 35 34.11492  -17 55 01.60123    73.3781   6   7   0.0069   0.0173   0.0284   0.0056  -0.0141  -0.0015   0.00    0.0
2021/10/02 03:09:42.000   28 35 34.11492  -17 55 01.60123    73.3774   6   7   0.0068   0.0172   0.0282   0.0056  -0.0142  -0.0022   0.00    0.0
2021/10/02 03:10:12.000   28 35 34.11494  -17 55 01.60118    73.3790   6   7   0.0068   0.0172   0.0282   0.0056  -0.0142  -0.0024   0.00    0.0
2021/10/02 03:10:42.000   28 35 34.11494  -17 55 01.60116    73.3792   6   7   0.0068   0.0172   0.0282   0.0056  -0.0142  -0.0024   0.00    0.0
2021/10/02 03:11:12.000   28 35 34.11494  -17 55 01.60115    73.3790   6   7   0.0068   0.0171   0.0281   0.0056  -0.0142  -0.0024   0.00    0.0
2021/10/02 03:11:42.000   28 35 34.11494  -17 55 01.60115    73.3787   6   7   0.0068   0.0171   0.0281   0.0056  -0.0142  -0.0024   0.00    0.0
2021/10/02 03:12:12.000   28 35 34.11494  -17 55 01.60115    73.3784   6   7   0.0068   0.0171   0.0281   0.0056  -0.0142  -0.0025   0.00    0.0
2021/10/02 03:12:42.000   28 35 34.11494  -17 55 01.60115    73.3781   6   7   0.0068   0.0171   0.0281   0.0056  -0.0142  -0.0025   0.00    0.0
2021/10/02 03:13:12.000   28 35 34.11494  -17 55 01.60115    73.3777   6   7   0.0068   0.0171   0.0281   0.0056  -0.0142  -0.0025   0.00    0.0
2021/10/02 03:13:42.000   28 35 34.11493  -17 55 01.60116    73.3773   6   7   0.0068   0.0171   0.0281   0.0056  -0.0142  -0.0025   0.00    0.0
2021/10/02 03:14:12.000   28 35 34.11493  -17 55 01.60116    73.3765   6   7   0.0068   0.0171   0.0280   0.0057  -0.0143  -0.0027   0.00    0.0
2021/10/02 03:14:42.000   28 35 34.11493  -17 55 01.60117    73.3764   6   7   0.0067   0.0170   0.0278   0.0057  -0.0143  -0.0031   0.00    0.0
2021/10/02 03:15:12.000   28 35 34.11494  -17 55 01.60116    73.3779   6   7   0.0067   0.0169   0.0278   0.0057  -0.0143  -0.0031   0.00    0.0
2021/10/02 03:15:42.000   28 35 34.11494  -17 55 01.60116    73.3788   6   7   0.0067   0.0169   0.0278   0.0057  -0.0143  -0.0032   0.00    0.0
2021/10/02 03:16:12.000   28 35 34.11495  -17 55 01.60115    73.3791   6   7   0.0067   0.0169   0.0277   0.0057  -0.0143  -0.0032   0.00    0.0
2021/10/02 03:16:42.000   28 35 34.11495  -17 55 01.60114    73.3791   6   7   0.0067   0.0169   0.0277   0.0057  -0.0143  -0.0032   0.00    0.0
2021/10/02 03:17:12.000   28 35 34.11495  -17 55 01.60114    73.3791   6   7   0.0067   0.0169   0.0277   0.0057  -0.0143  -0.0032   0.00    0.0
2021/10/02 03:17:42.000   28 35 34.11495  -17 55 01.60114    73.3790   6   7   0.0067   0.0169   0.0277   0.0057  -0.0143  -0.0032   0.00    0.0
2021/10/02 03:18:12.000   28 35 34.11495  -17 55 01.60114    73.3788   6   7   0.0067   0.0169   0.0277   0.0057  -0.0143  -0.0032   0.00    0.0
2021/10/02 03:18:42.000   28 35 34.11495  -17 55 01.60114    73.3788   6   7   0.0067   0.0169   0.0277   0.0057  -0.0143  -0.0032   0.00    0.0
2021/10/02 03:19:12.000   28 35 34.11494  -17 55 01.60113    73.3784   6   7   0.0066   0.0169   0.0276   0.0057  -0.0144  -0.0033   0.00    0.0
2021/10/02 03:19:42.000   28 35 34.11494  -17 55 01.60115    73.3769   6   7   0.0066   0.0168   0.0274   0.0058  -0.0144  -0.0036   0.00    0.0
2021/10/02 03:20:12.000   28 35 34.11493  -17 55 01.60118    73.3740   6   8   0.0066   0.0167   0.0274   0.0058  -0.0144  -0.0037   0.00    0.0
2021/10/02 03:20:42.000   28 35 34.11493  -17 55 01.60118    73.3731   6   8   0.0066   0.0167   0.0274   0.0058  -0.0144  -0.0037   0.00    0.0
2021/10/02 03:21:12.000   28 35 34.11493  -17 55 01.60118    73.3726   6   8   0.0066   0.0167   0.0274   0.0058  -0.0144  -0.0037   0.00    0.0
2021/10/02 03:21:42.000   28 35 34.11492  -17 55 01.60118    73.3722   6   8   0.0066   0.0167   0.0274   0.0058  -0.0144  -0.0037   0.00    0.0
2021/10/02 03:22:12.000   28 35 34.11492  -17 55 01.60118    73.3719   6   8   0.0066   0.0167   0.0274   0.0058  -0.0144  -0.0037   0.00    0.0
2021/10/02 03:22:42.000   28 35 34.11492  -17 55 01.60118    73.3717   6   8   0.0066   0.0167   0.0273   0.0058  -0.0144  -0.0037   0.00    0.0
2021/10/02 03:23:12.000   28 35 34.11492  -17 55 01.60118    73.3713   6   8   0.0065   0.0167   0.0273   0.0058  -0.0144  -0.0037   0.00    0.0
