% program   : RTKLIB ver.2.4.2
% inp file  : C:\IPNA\data\OBS\CVBB2900.o
% inp file  : C:\IPNA\data\NAV\CVBB2900.n
% inp file  : C:\IPNA\data\SP3\CVBB2900.sp3
% inp file  : C:\IPNA\data\CLOCK\CVBB2900.clk
% obs start : 2021/10/16 23:59:42.0 UTC (week2180      0.0s)
% obs end   : 2021/10/17 23:59:12.0 UTC (week2180  86370.0s)
% pos mode  : ppp-static
% solution  : forward
% elev mask : 15.0 deg
% dynamics  : off
% tidecorr  : on
% tropo opt : est ztd
% ephemeris : precise
% antenna1  :                       ( 0.0000  0.0000  0.0000)
%
% (lat/lon/height=WGS84/ellipsoidal,Q=1:fix,2:float,3:sbas,4:dgps,5:single,6:ppp,ns=# of satellites)
%  UTC                     latitude(d'")   longitude(d'")  height(m)   Q  ns   sdn(m)   sde(m)   sdu(m)  sdne(m)  sdeu(m)  sdue(m) age(s)  ratio
2021/10/16 23:59:42.000   28 35 34.09604  -17 55 01.61616    75.3091   6   6   1.5867   1.5505   4.5595  -0.3886   1.4127  -1.7532   0.00    0.0
2021/10/17 00:00:12.000   28 35 34.10030  -17 55 01.61416    73.1737   6   6   1.1008   1.0904   3.0295  -0.2360   0.9307  -1.1617   0.00    0.0
2021/10/17 00:00:42.000   28 35 34.10504  -17 55 01.61372    72.9358   6   6   0.8905   0.8886   2.3970  -0.1751   0.7329  -0.9172   0.00    0.0
2021/10/17 00:01:12.000   28 35 34.09802  -17 55 01.61094    73.3342   6   6   0.7668   0.7690   2.0362  -0.1407   0.6205  -0.7768   0.00    0.0
2021/10/17 00:01:42.000   28 35 34.09489  -17 55 01.61574    73.5494   6   6   0.6832   0.6879   1.7976  -0.1180   0.5464  -0.6834   0.00    0.0
2021/10/17 00:02:12.000   28 35 34.09453  -17 55 01.61488    73.6902   6   6   0.6220   0.6282   1.6257  -0.1014   0.4930  -0.6155   0.00    0.0
2021/10/17 00:02:42.000   28 35 34.09546  -17 55 01.61409    73.5842   6   6   0.5697   0.5804   1.4553  -0.0793   0.4379  -0.5492   0.00    0.0
2021/10/17 00:03:12.000   28 35 34.09759  -17 55 01.61754    73.5116   6   6   0.5205   0.5399   1.2692  -0.0424   0.3748  -0.4771   0.00    0.0
2021/10/17 00:03:42.000   28 35 34.10125  -17 55 01.61641    73.3017   6   6   0.4669   0.5036   1.0516   0.0551   0.2961  -0.3899   0.00    0.0
2021/10/17 00:04:12.000   28 35 34.10486  -17 55 01.61454    73.2003   6   6   0.3964   0.4689   0.8018   0.0833   0.1958  -0.2738   0.00    0.0
2021/10/17 00:04:42.000   28 35 34.11167  -17 55 01.61330    73.0274   6   6   0.3171   0.4354   0.6079   0.0812   0.0960  -0.1441   0.00    0.0
2021/10/17 00:05:12.000   28 35 34.11128  -17 55 01.61309    73.1318   6   6   0.2993   0.4161   0.5784   0.0794   0.0882  -0.1296   0.00    0.0
2021/10/17 00:05:42.000   28 35 34.11083  -17 55 01.61260    73.1503   6   6   0.2896   0.4005   0.5658   0.0777   0.0896  -0.1247   0.00    0.0
2021/10/17 00:06:12.000   28 35 34.11013  -17 55 01.61140    73.1413   6   6   0.2822   0.3869   0.5574   0.0762   0.0922  -0.1219   0.00    0.0
2021/10/17 00:06:42.000   28 35 34.11010  -17 55 01.61036    73.1567   6   6   0.2759   0.3748   0.5509   0.0747   0.0949  -0.1199   0.00    0.0
2021/10/17 00:07:12.000   28 35 34.10984  -17 55 01.61013    73.1959   6   6   0.2703   0.3639   0.5455   0.0733   0.0973  -0.1183   0.00    0.0
2021/10/17 00:07:42.000   28 35 34.11022  -17 55 01.60898    73.2066   6   6   0.2641   0.3537   0.5379   0.0722   0.0981  -0.1150   0.00    0.0
2021/10/17 00:08:12.000   28 35 34.11061  -17 55 01.60769    73.2028   6   6   0.2563   0.3438   0.5264   0.0712   0.0964  -0.1085   0.00    0.0
2021/10/17 00:08:42.000   28 35 34.11095  -17 55 01.60741    73.2347   6   6   0.2445   0.3336   0.5061   0.0703   0.0900  -0.0934   0.00    0.0
2021/10/17 00:09:12.000   28 35 34.11093  -17 55 01.60688    73.2909   6   6   0.2216   0.3208   0.4667   0.0683   0.0720  -0.0433   0.00    0.0
2021/10/17 00:09:42.000   28 35 34.11197  -17 55 01.60620    73.2597   6   6   0.1837   0.3018   0.4097   0.0576   0.0289   0.0881   0.00    0.0
2021/10/17 00:10:12.000   28 35 34.11163  -17 55 01.60625    73.3141   6   6   0.1759   0.2932   0.3983   0.0573   0.0298   0.0923   0.00    0.0
2021/10/17 00:10:42.000   28 35 34.11146  -17 55 01.60709    73.3252   6   6   0.1725   0.2869   0.3937   0.0572   0.0341   0.0929   0.00    0.0
2021/10/17 00:11:12.000   28 35 34.11133  -17 55 01.60632    73.3275   6   7   0.1702   0.2807   0.3909   0.0575   0.0384   0.0928   0.00    0.0
2021/10/17 00:11:42.000   28 35 34.11117  -17 55 01.60668    73.3353   6   7   0.1684   0.2750   0.3888   0.0576   0.0420   0.0924   0.00    0.0
2021/10/17 00:12:12.000   28 35 34.11071  -17 55 01.60603    73.3309   6   7   0.1668   0.2698   0.3871   0.0578   0.0450   0.0920   0.00    0.0
2021/10/17 00:12:42.000   28 35 34.11031  -17 55 01.60583    73.3318   6   7   0.1649   0.2647   0.3846   0.0579   0.0475   0.0918   0.00    0.0
2021/10/17 00:13:12.000   28 35 34.10978  -17 55 01.60653    73.3376   6   7   0.1622   0.2595   0.3806   0.0579   0.0493   0.0921   0.00    0.0
2021/10/17 00:13:42.000   28 35 34.10954  -17 55 01.60635    73.3191   6   7   0.1576   0.2536   0.3729   0.0579   0.0502   0.0935   0.00    0.0
2021/10/17 00:14:12.000   28 35 34.10988  -17 55 01.60598    73.2501   6   7   0.1473   0.2452   0.3554   0.0565   0.0478   0.0970   0.00    0.0
2021/10/17 00:14:42.000   28 35 34.10908  -17 55 01.60567    73.2467   6   7   0.1261   0.2299   0.3213   0.0467   0.0287   0.1004   0.00    0.0
2021/10/17 00:15:12.000   28 35 34.10833  -17 55 01.60591    73.1989   6   7   0.1215   0.2240   0.3120   0.0467   0.0306   0.0994   0.00    0.0
2021/10/17 00:15:42.000   28 35 34.10835  -17 55 01.60534    73.1959   6   7   0.1197   0.2202   0.3081   0.0469   0.0328   0.0987   0.00    0.0
2021/10/17 00:16:12.000   28 35 34.10805  -17 55 01.60459    73.1934   6   7   0.1186   0.2171   0.3058   0.0469   0.0347   0.0980   0.00    0.0
2021/10/17 00:16:42.000   28 35 34.10784  -17 55 01.60486    73.1942   6   7   0.1178   0.2144   0.3041   0.0470   0.0362   0.0975   0.00    0.0
2021/10/17 00:17:12.000   28 35 34.10775  -17 55 01.60473    73.1937   6   7   0.1171   0.2118   0.3028   0.0470   0.0376   0.0970   0.00    0.0
2021/10/17 00:17:42.000   28 35 34.10779  -17 55 01.60401    73.1897   6   7   0.1162   0.2091   0.3006   0.0470   0.0388   0.0963   0.00    0.0
2021/10/17 00:18:12.000   28 35 34.10775  -17 55 01.60355    73.1800   6   7   0.1149   0.2062   0.2968   0.0470   0.0394   0.0952   0.00    0.0
2021/10/17 00:18:42.000   28 35 34.10787  -17 55 01.60330    73.1835   6   7   0.1124   0.2026   0.2893   0.0468   0.0392   0.0932   0.00    0.0
2021/10/17 00:19:12.000   28 35 34.10764  -17 55 01.60301    73.2125   6   7   0.1063   0.1964   0.2730   0.0454   0.0364   0.0894   0.00    0.0
2021/10/17 00:19:42.000   28 35 34.10793  -17 55 01.60257    73.2135   6   7   0.0921   0.1831   0.2432   0.0368   0.0163   0.0821   0.00    0.0
2021/10/17 00:20:12.000   28 35 34.10814  -17 55 01.60255    73.2101   6   7   0.0891   0.1788   0.2344   0.0366   0.0175   0.0795   0.00    0.0
2021/10/17 00:20:42.000   28 35 34.10822  -17 55 01.60265    73.2163   6   7   0.0879   0.1765   0.2310   0.0366   0.0190   0.0784   0.00    0.0
2021/10/17 00:21:12.000   28 35 34.10811  -17 55 01.60277    73.2206   6   7   0.0873   0.1747   0.2290   0.0367   0.0203   0.0777   0.00    0.0
2021/10/17 00:21:42.000   28 35 34.10804  -17 55 01.60276    73.2233   6   7   0.0868   0.1731   0.2277   0.0367   0.0214   0.0773   0.00    0.0
2021/10/17 00:22:12.000   28 35 34.10792  -17 55 01.60286    73.2248   6   7   0.0865   0.1717   0.2267   0.0367   0.0224   0.0769   0.00    0.0
2021/10/17 00:22:42.000   28 35 34.10787  -17 55 01.60290    73.2250   6   7   0.0860   0.1701   0.2251   0.0367   0.0232   0.0763   0.00    0.0
2021/10/17 00:23:12.000   28 35 34.10772  -17 55 01.60293    73.2106   6   7   0.0852   0.1683   0.2224   0.0367   0.0238   0.0754   0.00    0.0
2021/10/17 00:23:42.000   28 35 34.10789  -17 55 01.60262    73.1992   6   7   0.0836   0.1658   0.2169   0.0365   0.0238   0.0734   0.00    0.0
2021/10/17 00:24:12.000   28 35 34.10871  -17 55 01.60249    73.2177   6   7   0.0797   0.1610   0.2049   0.0354   0.0217   0.0692   0.00    0.0
2021/10/17 00:24:42.000   28 35 34.10943  -17 55 01.60236    73.2312   6   7   0.0700   0.1496   0.1832   0.0286  -0.0101   0.0612   0.00    0.0
2021/10/17 00:25:12.000   28 35 34.10939  -17 55 01.60235    73.2283   6   7   0.0679   0.1462   0.1766   0.0284  -0.0083   0.0589   0.00    0.0
2021/10/17 00:25:42.000   28 35 34.10933  -17 55 01.60215    73.2233   6   8   0.0671   0.1445   0.1741   0.0284  -0.0059   0.0580   0.00    0.0
2021/10/17 00:26:12.000   28 35 34.10929  -17 55 01.60227    73.2231   6   8   0.0667   0.1433   0.1727   0.0283  -0.0031   0.0575   0.00    0.0
2021/10/17 00:26:42.000   28 35 34.10929  -17 55 01.60232    73.2267   6   8   0.0664   0.1422   0.1718   0.0283   0.0032   0.0572   0.00    0.0
2021/10/17 00:27:12.000   28 35 34.10932  -17 55 01.60236    73.2292   6   8   0.0662   0.1413   0.1711   0.0282   0.0052   0.0570   0.00    0.0
2021/10/17 00:27:42.000   28 35 34.10936  -17 55 01.60226    73.2338   6   8   0.0659   0.1402   0.1701   0.0282   0.0067   0.0566   0.00    0.0
2021/10/17 00:28:12.000   28 35 34.10943  -17 55 01.60227    73.2410   6   8   0.0654   0.1389   0.1683   0.0281   0.0079   0.0559   0.00    0.0
2021/10/17 00:28:42.000   28 35 34.10940  -17 55 01.60231    73.2515   6   8   0.0643   0.1371   0.1648   0.0280   0.0089   0.0545   0.00    0.0
2021/10/17 00:29:12.000   28 35 34.10947  -17 55 01.60239    73.2696   6   8   0.0617   0.1331   0.1567   0.0273   0.0082   0.0513   0.00    0.0
2021/10/17 00:29:42.000   28 35 34.11054  -17 55 01.60205    73.2989   6   8   0.0551   0.1236   0.1431   0.0223  -0.0143   0.0458   0.00    0.0
2021/10/17 00:30:12.000   28 35 34.11091  -17 55 01.60187    73.3187   6   8   0.0536   0.1209   0.1386   0.0224  -0.0118   0.0442   0.00    0.0
2021/10/17 00:30:42.000   28 35 34.11105  -17 55 01.60177    73.3163   6   8   0.0530   0.1196   0.1370   0.0225  -0.0104   0.0436   0.00    0.0
2021/10/17 00:31:12.000   28 35 34.11110  -17 55 01.60175    73.3176   6   8   0.0528   0.1188   0.1361   0.0225  -0.0095   0.0433   0.00    0.0
2021/10/17 00:31:42.000   28 35 34.11114  -17 55 01.60158    73.3196   6   8   0.0526   0.1181   0.1355   0.0225  -0.0089   0.0431   0.00    0.0
2021/10/17 00:32:12.000   28 35 34.11114  -17 55 01.60154    73.3208   6   8   0.0525   0.1175   0.1351   0.0224  -0.0085   0.0430   0.00    0.0
2021/10/17 00:32:42.000   28 35 34.11109  -17 55 01.60160    73.3212   6   8   0.0523   0.1168   0.1344   0.0224  -0.0080   0.0427   0.00    0.0
2021/10/17 00:33:12.000   28 35 34.11116  -17 55 01.60164    73.3223   6   8   0.0519   0.1160   0.1333   0.0224  -0.0069   0.0424   0.00    0.0
2021/10/17 00:33:42.000   28 35 34.11128  -17 55 01.60159    73.3164   6   8   0.0513   0.1146   0.1312   0.0224  -0.0049   0.0416   0.00    0.0
2021/10/17 00:34:12.000   28 35 34.11156  -17 55 01.60147    73.2959   6   8   0.0495   0.1115   0.1262   0.0221   0.0031   0.0395   0.00    0.0
2021/10/17 00:34:42.000   28 35 34.11223  -17 55 01.60120    73.3067   6   8   0.0446   0.1033   0.1161   0.0192  -0.0100   0.0346   0.00    0.0
2021/10/17 00:35:12.000   28 35 34.11256  -17 55 01.60104    73.3022   6   8   0.0435   0.1012   0.1129   0.0191  -0.0082   0.0335   0.00    0.0
2021/10/17 00:35:42.000   28 35 34.11268  -17 55 01.60095    73.3002   6   8   0.0431   0.1003   0.1117   0.0191  -0.0073   0.0331   0.00    0.0
2021/10/17 00:36:12.000   28 35 34.11273  -17 55 01.60071    73.3030   6   7   0.0430   0.0998   0.1111   0.0191  -0.0066   0.0329   0.00    0.0
2021/10/17 00:36:42.000   28 35 34.11276  -17 55 01.60060    73.3061   6   7   0.0428   0.0993   0.1107   0.0191  -0.0061   0.0328   0.00    0.0
2021/10/17 00:37:12.000   28 35 34.11276  -17 55 01.60044    73.3098   6   7   0.0427   0.0989   0.1104   0.0191  -0.0057   0.0327   0.00    0.0
2021/10/17 00:37:42.000   28 35 34.11274  -17 55 01.60037    73.3149   6   7   0.0426   0.0985   0.1100   0.0191  -0.0050   0.0326   0.00    0.0
2021/10/17 00:38:12.000   28 35 34.11275  -17 55 01.60027    73.3164   6   6   0.0424   0.0979   0.1095   0.0191  -0.0042   0.0324   0.00    0.0
2021/10/17 00:38:42.000   28 35 34.11278  -17 55 01.60009    73.3148   6   6   0.0420   0.0969   0.1086   0.0191  -0.0026   0.0319   0.00    0.0
2021/10/17 00:39:12.000   28 35 34.11285  -17 55 01.60013    73.3193   6   6   0.0407   0.0946   0.1063   0.0190   0.0016   0.0305   0.00    0.0
2021/10/17 00:39:42.000   28 35 34.11325  -17 55 01.60041    73.3371   6   6   0.0372   0.0880   0.1008   0.0167  -0.0109   0.0270   0.00    0.0
2021/10/17 00:40:12.000   28 35 34.11335  -17 55 01.60057    73.3438   6   6   0.0364   0.0863   0.0993   0.0167  -0.0102   0.0261   0.00    0.0
2021/10/17 00:40:42.000   28 35 34.11337  -17 55 01.60060    73.3506   6   6   0.0362   0.0857   0.0987   0.0167  -0.0098   0.0258   0.00    0.0
2021/10/17 00:41:12.000   28 35 34.11337  -17 55 01.60060    73.3533   6   6   0.0360   0.0853   0.0984   0.0167  -0.0096   0.0256   0.00    0.0
2021/10/17 00:41:42.000   28 35 34.11337  -17 55 01.60054    73.3554   6   6   0.0359   0.0850   0.0983   0.0167  -0.0095   0.0255   0.00    0.0
2021/10/17 00:42:12.000   28 35 34.11337  -17 55 01.60047    73.3577   6   6   0.0359   0.0847   0.0981   0.0167  -0.0094   0.0255   0.00    0.0
2021/10/17 00:42:42.000   28 35 34.11339  -17 55 01.60034    73.3601   6   6   0.0358   0.0844   0.0980   0.0167  -0.0093   0.0254   0.00    0.0
2021/10/17 00:43:12.000   28 35 34.11343  -17 55 01.60019    73.3647   6   6   0.0356   0.0840   0.0977   0.0167  -0.0091   0.0252   0.00    0.0
2021/10/17 00:43:42.000   28 35 34.11349  -17 55 01.60005    73.3702   6   6   0.0353   0.0832   0.0970   0.0166  -0.0089   0.0248   0.00    0.0
2021/10/17 00:44:12.000   28 35 34.11350  -17 55 01.60008    73.3721   6   6   0.0344   0.0813   0.0954   0.0164  -0.0090   0.0237   0.00    0.0
2021/10/17 00:44:42.000   28 35 34.11359  -17 55 01.60030    73.3901   6   6   0.0317   0.0758   0.0915   0.0147  -0.0137   0.0205   0.00    0.0
2021/10/17 00:45:12.000   28 35 34.11378  -17 55 01.60020    73.3932   6   6   0.0311   0.0744   0.0904   0.0146  -0.0133   0.0197   0.00    0.0
2021/10/17 00:45:42.000   28 35 34.11382  -17 55 01.60016    73.3929   6   6   0.0309   0.0739   0.0900   0.0146  -0.0132   0.0194   0.00    0.0
2021/10/17 00:46:12.000   28 35 34.11380  -17 55 01.60014    73.3924   6   6   0.0308   0.0736   0.0898   0.0146  -0.0131   0.0193   0.00    0.0
2021/10/17 00:46:42.000   28 35 34.11379  -17 55 01.60009    73.3914   6   6   0.0307   0.0733   0.0897   0.0146  -0.0130   0.0192   0.00    0.0
2021/10/17 00:47:12.000   28 35 34.11378  -17 55 01.60009    73.3908   6   6   0.0307   0.0732   0.0896   0.0146  -0.0130   0.0192   0.00    0.0
2021/10/17 00:47:42.000   28 35 34.11377  -17 55 01.60010    73.3902   6   6   0.0306   0.0729   0.0895   0.0146  -0.0130   0.0191   0.00    0.0
2021/10/17 00:48:12.000   28 35 34.11376  -17 55 01.60008    73.3909   6   6   0.0305   0.0726   0.0892   0.0146  -0.0129   0.0189   0.00    0.0
2021/10/17 00:48:42.000   28 35 34.11374  -17 55 01.60005    73.3923   6   6   0.0302   0.0720   0.0888   0.0146  -0.0129   0.0186   0.00    0.0
2021/10/17 00:49:12.000   28 35 34.11377  -17 55 01.60014    73.3950   6   6   0.0295   0.0704   0.0877   0.0145  -0.0131   0.0175   0.00    0.0
2021/10/17 00:49:42.000   28 35 34.11387  -17 55 01.60048    73.4005   6   6   0.0274   0.0656   0.0848   0.0135  -0.0157   0.0141   0.00    0.0
2021/10/17 00:50:12.000   28 35 34.11385  -17 55 01.60051    73.4011   6   6   0.0270   0.0645   0.0840   0.0135  -0.0157   0.0133   0.00    0.0
2021/10/17 00:50:42.000   28 35 34.11383  -17 55 01.60051    73.4049   6   6   0.0268   0.0641   0.0837   0.0135  -0.0156   0.0130   0.00    0.0
2021/10/17 00:51:12.000   28 35 34.11383  -17 55 01.60049    73.4079   6   6   0.0267   0.0639   0.0836   0.0134  -0.0156   0.0129   0.00    0.0
2021/10/17 00:51:42.000   28 35 34.11383  -17 55 01.60047    73.4097   6   6   0.0267   0.0637   0.0835   0.0134  -0.0156   0.0128   0.00    0.0
2021/10/17 00:52:12.000   28 35 34.11384  -17 55 01.60044    73.4106   6   6   0.0267   0.0636   0.0834   0.0134  -0.0156   0.0128   0.00    0.0
2021/10/17 00:52:42.000   28 35 34.11384  -17 55 01.60040    73.4116   6   6   0.0266   0.0634   0.0833   0.0134  -0.0156   0.0127   0.00    0.0
2021/10/17 00:53:12.000   28 35 34.11384  -17 55 01.60041    73.4123   6   6   0.0265   0.0631   0.0832   0.0134  -0.0156   0.0125   0.00    0.0
2021/10/17 00:53:42.000   28 35 34.11382  -17 55 01.60041    73.4140   6   6   0.0263   0.0626   0.0829   0.0134  -0.0157   0.0122   0.00    0.0
2021/10/17 00:54:12.000   28 35 34.11389  -17 55 01.60042    73.4202   6   6   0.0258   0.0614   0.0821   0.0133  -0.0160   0.0110   0.00    0.0
2021/10/17 00:54:42.000   28 35 34.11399  -17 55 01.60063    73.4243   6   6   0.0242   0.0575   0.0800   0.0126  -0.0182   0.0066   0.00    0.0
2021/10/17 00:55:12.000   28 35 34.11401  -17 55 01.60065    73.4277   6   6   0.0239   0.0566   0.0795   0.0125  -0.0183   0.0052   0.00    0.0
2021/10/17 00:55:42.000   28 35 34.11400  -17 55 01.60064    73.4281   6   6   0.0237   0.0562   0.0793   0.0125  -0.0183   0.0047   0.00    0.0
2021/10/17 00:56:12.000   28 35 34.11400  -17 55 01.60059    73.4279   6   6   0.0237   0.0561   0.0792   0.0125  -0.0183   0.0044   0.00    0.0
2021/10/17 00:56:42.000   28 35 34.11399  -17 55 01.60056    73.4280   6   6   0.0236   0.0559   0.0791   0.0125  -0.0183   0.0043   0.00    0.0
2021/10/17 00:57:12.000   28 35 34.11399  -17 55 01.60051    73.4282   6   6   0.0236   0.0558   0.0791   0.0125  -0.0183   0.0041   0.00    0.0
2021/10/17 00:57:42.000   28 35 34.11399  -17 55 01.60049    73.4282   6   6   0.0236   0.0557   0.0790   0.0125  -0.0184   0.0039   0.00    0.0
2021/10/17 00:58:12.000   28 35 34.11398  -17 55 01.60044    73.4288   6   6   0.0235   0.0555   0.0789   0.0125  -0.0184   0.0035   0.00    0.0
2021/10/17 00:58:42.000   28 35 34.11400  -17 55 01.60037    73.4304   6   6   0.0234   0.0551   0.0787   0.0125  -0.0185   0.0023   0.00    0.0
2021/10/17 00:59:12.000   28 35 34.11402  -17 55 01.60035    73.4342   6   6   0.0230   0.0540   0.0782   0.0124  -0.0188  -0.0038   0.00    0.0
2021/10/17 00:59:42.000   28 35 34.11408  -17 55 01.60055    73.4368   6   6   0.0217   0.0509   0.0766   0.0120  -0.0205  -0.0087   0.00    0.0
2021/10/17 01:00:12.000   28 35 34.11409  -17 55 01.60056    73.4357   6   6   0.0214   0.0501   0.0762   0.0120  -0.0207  -0.0094   0.00    0.0
2021/10/17 01:00:42.000   28 35 34.11407  -17 55 01.60055    73.4342   6   6   0.0213   0.0498   0.0761   0.0120  -0.0207  -0.0096   0.00    0.0
2021/10/17 01:01:12.000   28 35 34.11408  -17 55 01.60050    73.4347   6   6   0.0213   0.0497   0.0760   0.0120  -0.0207  -0.0097   0.00    0.0
2021/10/17 01:01:42.000   28 35 34.11408  -17 55 01.60046    73.4354   6   6   0.0213   0.0496   0.0759   0.0120  -0.0207  -0.0098   0.00    0.0
2021/10/17 01:02:12.000   28 35 34.11408  -17 55 01.60042    73.4360   6   6   0.0212   0.0495   0.0759   0.0120  -0.0207  -0.0098   0.00    0.0
2021/10/17 01:02:42.000   28 35 34.11407  -17 55 01.60039    73.4363   6   6   0.0212   0.0494   0.0759   0.0120  -0.0207  -0.0099   0.00    0.0
2021/10/17 01:03:12.000   28 35 34.11406  -17 55 01.60038    73.4366   6   6   0.0212   0.0492   0.0758   0.0120  -0.0208  -0.0100   0.00    0.0
2021/10/17 01:03:42.000   28 35 34.11406  -17 55 01.60037    73.4381   6   6   0.0210   0.0489   0.0756   0.0120  -0.0209  -0.0103   0.00    0.0
2021/10/17 01:04:12.000   28 35 34.11403  -17 55 01.60048    73.4395   6   6   0.0207   0.0481   0.0752   0.0120  -0.0212  -0.0110   0.00    0.0
2021/10/17 01:04:42.000   28 35 34.11405  -17 55 01.60072    73.4400   6   6   0.0197   0.0455   0.0739   0.0118  -0.0224  -0.0131   0.00    0.0
2021/10/17 01:05:12.000   28 35 34.11402  -17 55 01.60080    73.4409   6   6   0.0195   0.0449   0.0736   0.0118  -0.0226  -0.0135   0.00    0.0
2021/10/17 01:05:42.000   28 35 34.11401  -17 55 01.60081    73.4426   6   6   0.0194   0.0447   0.0735   0.0118  -0.0226  -0.0136   0.00    0.0
2021/10/17 01:06:12.000   28 35 34.11401  -17 55 01.60080    73.4435   6   6   0.0194   0.0445   0.0735   0.0118  -0.0227  -0.0137   0.00    0.0
2021/10/17 01:06:42.000   28 35 34.11401  -17 55 01.60074    73.4442   6   6   0.0194   0.0445   0.0734   0.0118  -0.0227  -0.0137   0.00    0.0
2021/10/17 01:07:12.000   28 35 34.11401  -17 55 01.60074    73.4447   6   6   0.0194   0.0444   0.0734   0.0118  -0.0227  -0.0137   0.00    0.0
2021/10/17 01:07:42.000   28 35 34.11401  -17 55 01.60072    73.4459   6   6   0.0193   0.0443   0.0734   0.0118  -0.0227  -0.0137   0.00    0.0
2021/10/17 01:08:12.000   28 35 34.11402  -17 55 01.60071    73.4475   6   6   0.0193   0.0442   0.0733   0.0118  -0.0227  -0.0138   0.00    0.0
2021/10/17 01:08:42.000   28 35 34.11404  -17 55 01.60073    73.4498   6   6   0.0192   0.0439   0.0731   0.0118  -0.0228  -0.0140   0.00    0.0
2021/10/17 01:09:12.000   28 35 34.11407  -17 55 01.60080    73.4553   6   6   0.0190   0.0433   0.0727   0.0119  -0.0231  -0.0144   0.00    0.0
2021/10/17 01:09:42.000   28 35 34.11411  -17 55 01.60099    73.4569   6   6   0.0182   0.0412   0.0716   0.0118  -0.0242  -0.0157   0.00    0.0
2021/10/17 01:10:12.000   28 35 34.11417  -17 55 01.60095    73.4554   6   6   0.0180   0.0407   0.0713   0.0119  -0.0243  -0.0159   0.00    0.0
2021/10/17 01:10:42.000   28 35 34.11417  -17 55 01.60090    73.4538   6   6   0.0180   0.0405   0.0712   0.0119  -0.0243  -0.0160   0.00    0.0
2021/10/17 01:11:12.000   28 35 34.11417  -17 55 01.60088    73.4538   6   6   0.0180   0.0404   0.0711   0.0119  -0.0244  -0.0161   0.00    0.0
2021/10/17 01:11:42.000   28 35 34.11417  -17 55 01.60086    73.4544   6   6   0.0179   0.0403   0.0711   0.0119  -0.0244  -0.0161   0.00    0.0
2021/10/17 01:12:12.000   28 35 34.11417  -17 55 01.60085    73.4544   6   6   0.0179   0.0403   0.0710   0.0119  -0.0244  -0.0161   0.00    0.0
2021/10/17 01:12:42.000   28 35 34.11416  -17 55 01.60081    73.4546   6   6   0.0179   0.0402   0.0710   0.0119  -0.0244  -0.0161   0.00    0.0
2021/10/17 01:13:12.000   28 35 34.11416  -17 55 01.60078    73.4555   6   6   0.0179   0.0401   0.0709   0.0119  -0.0244  -0.0162   0.00    0.0
2021/10/17 01:13:42.000   28 35 34.11417  -17 55 01.60076    73.4558   6   6   0.0178   0.0399   0.0707   0.0119  -0.0245  -0.0162   0.00    0.0
2021/10/17 01:14:12.000   28 35 34.11418  -17 55 01.60082    73.4570   6   5   0.0176   0.0394   0.0705   0.0119  -0.0247  -0.0165   0.00    0.0
2021/10/17 01:14:42.000   28 35 34.11419  -17 55 01.60099    73.4569   6   5   0.0170   0.0377   0.0697   0.0120  -0.0255  -0.0173   0.00    0.0
2021/10/17 01:15:12.000   28 35 34.11418  -17 55 01.60095    73.4577   6   5   0.0169   0.0374   0.0695   0.0120  -0.0257  -0.0175   0.00    0.0
2021/10/17 01:15:42.000   28 35 34.11417  -17 55 01.60094    73.4576   6   5   0.0169   0.0372   0.0695   0.0120  -0.0257  -0.0175   0.00    0.0
2021/10/17 01:16:12.000   28 35 34.11416  -17 55 01.60095    73.4581   6   5   0.0168   0.0372   0.0695   0.0120  -0.0257  -0.0175   0.00    0.0
2021/10/17 01:16:42.000   28 35 34.11415  -17 55 01.60096    73.4585   6   5   0.0168   0.0371   0.0694   0.0120  -0.0257  -0.0175   0.00    0.0
2021/10/17 01:17:12.000   28 35 34.11414  -17 55 01.60096    73.4589   6   5   0.0168   0.0371   0.0694   0.0120  -0.0257  -0.0175   0.00    0.0
2021/10/17 01:17:42.000   28 35 34.11413  -17 55 01.60099    73.4589   6   5   0.0168   0.0370   0.0694   0.0120  -0.0257  -0.0176   0.00    0.0
2021/10/17 01:18:12.000   28 35 34.11412  -17 55 01.60102    73.4591   6   5   0.0168   0.0369   0.0694   0.0120  -0.0257  -0.0176   0.00    0.0
2021/10/17 01:18:42.000   28 35 34.11414  -17 55 01.60105    73.4603   6   5   0.0167   0.0368   0.0693   0.0120  -0.0258  -0.0177   0.00    0.0
2021/10/17 01:19:12.000   28 35 34.11415  -17 55 01.60115    73.4628   6   5   0.0166   0.0364   0.0691   0.0121  -0.0260  -0.0178   0.00    0.0
2021/10/17 01:19:42.000   28 35 34.11420  -17 55 01.60129    73.4626   6   5   0.0161   0.0350   0.0684   0.0122  -0.0267  -0.0184   0.00    0.0
2021/10/17 01:20:12.000   28 35 34.11423  -17 55 01.60126    73.4625   6   5   0.0160   0.0347   0.0682   0.0122  -0.0269  -0.0186   0.00    0.0
2021/10/17 01:20:42.000   28 35 34.11425  -17 55 01.60124    73.4630   6   5   0.0159   0.0346   0.0682   0.0122  -0.0269  -0.0186   0.00    0.0
2021/10/17 01:21:12.000   28 35 34.11425  -17 55 01.60122    73.4634   6   5   0.0159   0.0345   0.0682   0.0122  -0.0269  -0.0186   0.00    0.0
2021/10/17 01:21:42.000   28 35 34.11426  -17 55 01.60118    73.4636   6   5   0.0159   0.0345   0.0681   0.0122  -0.0269  -0.0186   0.00    0.0
2021/10/17 01:22:12.000   28 35 34.11426  -17 55 01.60115    73.4637   6   5   0.0159   0.0345   0.0681   0.0122  -0.0269  -0.0186   0.00    0.0
2021/10/17 01:22:42.000   28 35 34.11426  -17 55 01.60114    73.4638   6   5   0.0159   0.0344   0.0681   0.0122  -0.0269  -0.0187   0.00    0.0
2021/10/17 01:23:12.000   28 35 34.11427  -17 55 01.60113    73.4642   6   5   0.0159   0.0344   0.0681   0.0122  -0.0270  -0.0187   0.00    0.0
2021/10/17 01:23:42.000   28 35 34.11427  -17 55 01.60115    73.4653   6   5   0.0158   0.0342   0.0680   0.0123  -0.0270  -0.0187   0.00    0.0
2021/10/17 01:24:12.000   28 35 34.11429  -17 55 01.60119    73.4669   6   5   0.0157   0.0339   0.0678   0.0123  -0.0272  -0.0189   0.00    0.0
2021/10/17 01:24:42.000   28 35 34.11429  -17 55 01.60133    73.4642   6   5   0.0153   0.0329   0.0671   0.0124  -0.0278  -0.0193   0.00    0.0
2021/10/17 01:25:12.000   28 35 34.11430  -17 55 01.60135    73.4653   6   5   0.0152   0.0326   0.0670   0.0125  -0.0279  -0.0194   0.00    0.0
2021/10/17 01:25:42.000   28 35 34.11430  -17 55 01.60135    73.4657   6   5   0.0152   0.0325   0.0669   0.0125  -0.0280  -0.0194   0.00    0.0
2021/10/17 01:26:12.000   28 35 34.11430  -17 55 01.60137    73.4660   6   5   0.0152   0.0325   0.0669   0.0125  -0.0280  -0.0194   0.00    0.0
2021/10/17 01:26:42.000   28 35 34.11430  -17 55 01.60138    73.4661   6   5   0.0152   0.0325   0.0669   0.0125  -0.0280  -0.0194   0.00    0.0
2021/10/17 01:27:12.000   28 35 34.11430  -17 55 01.60137    73.4660   6   5   0.0152   0.0324   0.0669   0.0125  -0.0280  -0.0194   0.00    0.0
2021/10/17 01:27:42.000   28 35 34.11430  -17 55 01.60135    73.4657   6   5   0.0151   0.0324   0.0669   0.0125  -0.0280  -0.0194   0.00    0.0
2021/10/17 01:28:12.000   28 35 34.11430  -17 55 01.60135    73.4656   6   5   0.0151   0.0324   0.0668   0.0125  -0.0280  -0.0195   0.00    0.0
2021/10/17 01:28:42.000   28 35 34.11430  -17 55 01.60135    73.4662   6   5   0.0151   0.0323   0.0668   0.0125  -0.0281  -0.0195   0.00    0.0
2021/10/17 01:29:12.000   28 35 34.11433  -17 55 01.60135    73.4674   6   5   0.0150   0.0320   0.0666   0.0125  -0.0282  -0.0196   0.00    0.0
2021/10/17 01:29:42.000   28 35 34.11432  -17 55 01.60149    73.4620   6   5   0.0147   0.0312   0.0658   0.0127  -0.0288  -0.0199   0.00    0.0
2021/10/17 01:30:12.000   28 35 34.11429  -17 55 01.60154    73.4585   6   5   0.0146   0.0310   0.0657   0.0127  -0.0289  -0.0200   0.00    0.0
2021/10/17 01:30:42.000   28 35 34.11429  -17 55 01.60155    73.4574   6   5   0.0146   0.0309   0.0656   0.0127  -0.0289  -0.0200   0.00    0.0
2021/10/17 01:31:12.000   28 35 34.11429  -17 55 01.60154    73.4568   6   5   0.0146   0.0309   0.0656   0.0127  -0.0289  -0.0200   0.00    0.0
2021/10/17 01:31:42.000   28 35 34.11428  -17 55 01.60154    73.4565   6   5   0.0146   0.0309   0.0656   0.0127  -0.0289  -0.0200   0.00    0.0
2021/10/17 01:32:12.000   28 35 34.11428  -17 55 01.60153    73.4565   6   5   0.0146   0.0309   0.0656   0.0127  -0.0289  -0.0200   0.00    0.0
2021/10/17 01:32:42.000   28 35 34.11428  -17 55 01.60154    73.4561   6   5   0.0145   0.0308   0.0655   0.0127  -0.0289  -0.0200   0.00    0.0
2021/10/17 01:33:12.000   28 35 34.11428  -17 55 01.60155    73.4558   6   5   0.0145   0.0308   0.0655   0.0127  -0.0289  -0.0200   0.00    0.0
2021/10/17 01:33:42.000   28 35 34.11426  -17 55 01.60162    73.4543   6   5   0.0145   0.0307   0.0654   0.0127  -0.0290  -0.0200   0.00    0.0
2021/10/17 01:34:12.000   28 35 34.11423  -17 55 01.60170    73.4489   6   5   0.0144   0.0305   0.0652   0.0128  -0.0291  -0.0201   0.00    0.0
2021/10/17 01:34:42.000   28 35 34.11424  -17 55 01.60177    73.4441   6   5   0.0141   0.0299   0.0644   0.0129  -0.0295  -0.0203   0.00    0.0
2021/10/17 01:35:12.000   28 35 34.11424  -17 55 01.60185    73.4431   6   5   0.0141   0.0298   0.0642   0.0130  -0.0296  -0.0203   0.00    0.0
2021/10/17 01:35:42.000   28 35 34.11423  -17 55 01.60188    73.4431   6   5   0.0141   0.0297   0.0642   0.0130  -0.0296  -0.0204   0.00    0.0
2021/10/17 01:36:12.000   28 35 34.11423  -17 55 01.60188    73.4429   6   5   0.0140   0.0297   0.0641   0.0130  -0.0297  -0.0204   0.00    0.0
2021/10/17 01:36:42.000   28 35 34.11423  -17 55 01.60188    73.4428   6   5   0.0140   0.0297   0.0641   0.0130  -0.0297  -0.0204   0.00    0.0
2021/10/17 01:37:12.000   28 35 34.11423  -17 55 01.60187    73.4426   6   5   0.0140   0.0297   0.0641   0.0130  -0.0297  -0.0204   0.00    0.0
2021/10/17 01:37:42.000   28 35 34.11423  -17 55 01.60188    73.4425   6   5   0.0140   0.0296   0.0641   0.0130  -0.0297  -0.0204   0.00    0.0
2021/10/17 01:38:12.000   28 35 34.11423  -17 55 01.60189    73.4426   6   5   0.0140   0.0296   0.0640   0.0130  -0.0297  -0.0204   0.00    0.0
2021/10/17 01:38:42.000   28 35 34.11423  -17 55 01.60190    73.4430   6   5   0.0140   0.0296   0.0640   0.0130  -0.0297  -0.0204   0.00    0.0
2021/10/17 01:39:12.000   28 35 34.11425  -17 55 01.60191    73.4435   6   5   0.0139   0.0294   0.0637   0.0130  -0.0298  -0.0204   0.00    0.0
2021/10/17 01:39:42.000   28 35 34.11428  -17 55 01.60199    73.4407   6   5   0.0137   0.0289   0.0629   0.0132  -0.0302  -0.0205   0.00    0.0
2021/10/17 01:40:12.000   28 35 34.11428  -17 55 01.60202    73.4397   6   5   0.0136   0.0288   0.0627   0.0132  -0.0302  -0.0205   0.00    0.0
2021/10/17 01:40:42.000   28 35 34.11430  -17 55 01.60201    73.4402   6   5   0.0136   0.0288   0.0626   0.0132  -0.0302  -0.0205   0.00    0.0
2021/10/17 01:41:12.000   28 35 34.11430  -17 55 01.60201    73.4407   6   5   0.0136   0.0288   0.0626   0.0132  -0.0302  -0.0205   0.00    0.0
2021/10/17 01:41:42.000   28 35 34.11430  -17 55 01.60201    73.4407   6   5   0.0136   0.0287   0.0625   0.0132  -0.0302  -0.0205   0.00    0.0
2021/10/17 01:42:12.000   28 35 34.11430  -17 55 01.60201    73.4410   6   5   0.0136   0.0287   0.0625   0.0132  -0.0302  -0.0205   0.00    0.0
2021/10/17 01:42:42.000   28 35 34.11430  -17 55 01.60202    73.4412   6   5   0.0136   0.0287   0.0625   0.0132  -0.0302  -0.0205   0.00    0.0
2021/10/17 01:43:12.000   28 35 34.11430  -17 55 01.60201    73.4410   6   5   0.0136   0.0287   0.0624   0.0132  -0.0303  -0.0205   0.00    0.0
2021/10/17 01:43:42.000   28 35 34.11430  -17 55 01.60201    73.4403   6   5   0.0136   0.0287   0.0624   0.0132  -0.0303  -0.0205   0.00    0.0
2021/10/17 01:44:12.000   28 35 34.11431  -17 55 01.60204    73.4389   6   5   0.0135   0.0286   0.0621   0.0132  -0.0303  -0.0205   0.00    0.0
2021/10/17 01:44:42.000   28 35 34.11433  -17 55 01.60208    73.4342   6   5   0.0133   0.0282   0.0612   0.0134  -0.0306  -0.0205   0.00    0.0
2021/10/17 01:45:12.000   28 35 34.11432  -17 55 01.60207    73.4307   6   5   0.0132   0.0281   0.0609   0.0134  -0.0306  -0.0205   0.00    0.0
2021/10/17 01:45:42.000   28 35 34.11433  -17 55 01.60206    73.4296   6   5   0.0132   0.0281   0.0609   0.0134  -0.0306  -0.0205   0.00    0.0
2021/10/17 01:46:12.000   28 35 34.11433  -17 55 01.60205    73.4290   6   5   0.0132   0.0281   0.0608   0.0134  -0.0306  -0.0205   0.00    0.0
2021/10/17 01:46:42.000   28 35 34.11433  -17 55 01.60205    73.4287   6   5   0.0132   0.0281   0.0608   0.0134  -0.0306  -0.0205   0.00    0.0
2021/10/17 01:47:12.000   28 35 34.11433  -17 55 01.60204    73.4283   6   5   0.0132   0.0280   0.0608   0.0134  -0.0306  -0.0205   0.00    0.0
2021/10/17 01:47:42.000   28 35 34.11434  -17 55 01.60202    73.4280   6   5   0.0132   0.0280   0.0608   0.0134  -0.0306  -0.0205   0.00    0.0
2021/10/17 01:48:12.000   28 35 34.11434  -17 55 01.60200    73.4283   6   5   0.0132   0.0280   0.0607   0.0134  -0.0306  -0.0205   0.00    0.0
2021/10/17 01:48:42.000   28 35 34.11435  -17 55 01.60201    73.4291   6   5   0.0132   0.0280   0.0606   0.0134  -0.0306  -0.0205   0.00    0.0
2021/10/17 01:49:12.000   28 35 34.11436  -17 55 01.60201    73.4294   6   5   0.0131   0.0279   0.0603   0.0134  -0.0307  -0.0205   0.00    0.0
2021/10/17 01:49:42.000   28 35 34.11437  -17 55 01.60203    73.4270   6   5   0.0129   0.0276   0.0594   0.0135  -0.0308  -0.0204   0.00    0.0
2021/10/17 01:50:12.000   28 35 34.11438  -17 55 01.60200    73.4268   6   5   0.0129   0.0276   0.0591   0.0135  -0.0309  -0.0204   0.00    0.0
2021/10/17 01:50:42.000   28 35 34.11438  -17 55 01.60199    73.4273   6   5   0.0129   0.0276   0.0590   0.0135  -0.0309  -0.0204   0.00    0.0
2021/10/17 01:51:12.000   28 35 34.11439  -17 55 01.60199    73.4270   6   5   0.0128   0.0275   0.0590   0.0135  -0.0309  -0.0204   0.00    0.0
2021/10/17 01:51:42.000   28 35 34.11439  -17 55 01.60199    73.4265   6   5   0.0128   0.0275   0.0590   0.0135  -0.0309  -0.0204   0.00    0.0
2021/10/17 01:52:12.000   28 35 34.11439  -17 55 01.60198    73.4260   6   5   0.0128   0.0275   0.0590   0.0135  -0.0309  -0.0204   0.00    0.0
2021/10/17 01:52:42.000   28 35 34.11439  -17 55 01.60198    73.4254   6   5   0.0128   0.0275   0.0589   0.0135  -0.0309  -0.0204   0.00    0.0
2021/10/17 01:53:12.000   28 35 34.11439  -17 55 01.60197    73.4248   6   5   0.0128   0.0275   0.0589   0.0135  -0.0309  -0.0204   0.00    0.0
2021/10/17 01:53:42.000   28 35 34.11440  -17 55 01.60198    73.4234   6   5   0.0128   0.0275   0.0588   0.0135  -0.0309  -0.0204   0.00    0.0
2021/10/17 01:54:12.000   28 35 34.11442  -17 55 01.60198    73.4234   6   6   0.0128   0.0274   0.0585   0.0136  -0.0309  -0.0203   0.00    0.0
2021/10/17 01:54:42.000   28 35 34.11445  -17 55 01.60197    73.4196   6   6   0.0126   0.0272   0.0575   0.0136  -0.0309  -0.0202   0.00    0.0
2021/10/17 01:55:12.000   28 35 34.11445  -17 55 01.60197    73.4175   6   6   0.0125   0.0272   0.0573   0.0136  -0.0309  -0.0202   0.00    0.0
2021/10/17 01:55:42.000   28 35 34.11445  -17 55 01.60195    73.4170   6   6   0.0125   0.0272   0.0572   0.0136  -0.0309  -0.0202   0.00    0.0
2021/10/17 01:56:12.000   28 35 34.11445  -17 55 01.60194    73.4168   6   6   0.0125   0.0271   0.0571   0.0136  -0.0309  -0.0202   0.00    0.0
2021/10/17 01:56:42.000   28 35 34.11445  -17 55 01.60193    73.4166   6   6   0.0125   0.0271   0.0571   0.0136  -0.0309  -0.0202   0.00    0.0
2021/10/17 01:57:12.000   28 35 34.11445  -17 55 01.60192    73.4165   6   6   0.0125   0.0271   0.0571   0.0136  -0.0309  -0.0201   0.00    0.0
2021/10/17 01:57:42.000   28 35 34.11445  -17 55 01.60191    73.4164   6   6   0.0125   0.0271   0.0571   0.0136  -0.0309  -0.0201   0.00    0.0
2021/10/17 01:58:12.000   28 35 34.11445  -17 55 01.60191    73.4171   6   6   0.0125   0.0271   0.0570   0.0136  -0.0309  -0.0201   0.00    0.0
2021/10/17 01:58:42.000   28 35 34.11445  -17 55 01.60190    73.4171   6   6   0.0125   0.0271   0.0569   0.0136  -0.0309  -0.0201   0.00    0.0
2021/10/17 01:59:12.000   28 35 34.11446  -17 55 01.60188    73.4178   6   6   0.0124   0.0270   0.0566   0.0136  -0.0309  -0.0201   0.00    0.0
2021/10/17 01:59:42.000   28 35 34.11449  -17 55 01.60188    73.4146   6   6   0.0123   0.0269   0.0556   0.0137  -0.0309  -0.0199   0.00    0.0
2021/10/17 02:00:12.000   28 35 34.11450  -17 55 01.60188    73.4126   6   6   0.0122   0.0268   0.0554   0.0137  -0.0309  -0.0199   0.00    0.0
2021/10/17 02:00:42.000   28 35 34.11451  -17 55 01.60187    73.4120   6   6   0.0122   0.0268   0.0553   0.0137  -0.0309  -0.0198   0.00    0.0
2021/10/17 02:01:12.000   28 35 34.11451  -17 55 01.60186    73.4115   6   6   0.0122   0.0268   0.0553   0.0137  -0.0309  -0.0198   0.00    0.0
2021/10/17 02:01:42.000   28 35 34.11451  -17 55 01.60186    73.4112   6   6   0.0122   0.0268   0.0553   0.0137  -0.0309  -0.0198   0.00    0.0
2021/10/17 02:02:12.000   28 35 34.11451  -17 55 01.60185    73.4109   6   6   0.0122   0.0268   0.0552   0.0137  -0.0309  -0.0198   0.00    0.0
2021/10/17 02:02:42.000   28 35 34.11451  -17 55 01.60184    73.4106   6   6   0.0122   0.0268   0.0552   0.0137  -0.0308  -0.0198   0.00    0.0
2021/10/17 02:03:12.000   28 35 34.11451  -17 55 01.60183    73.4099   6   6   0.0122   0.0268   0.0552   0.0137  -0.0308  -0.0198   0.00    0.0
2021/10/17 02:03:42.000   28 35 34.11452  -17 55 01.60182    73.4097   6   7   0.0122   0.0268   0.0551   0.0137  -0.0308  -0.0198   0.00    0.0
2021/10/17 02:04:12.000   28 35 34.11452  -17 55 01.60181    73.4097   6   7   0.0121   0.0267   0.0548   0.0137  -0.0308  -0.0197   0.00    0.0
2021/10/17 02:04:42.000   28 35 34.11454  -17 55 01.60181    73.4058   6   7   0.0119   0.0266   0.0539   0.0137  -0.0308  -0.0195   0.00    0.0
2021/10/17 02:05:12.000   28 35 34.11455  -17 55 01.60181    73.4038   6   7   0.0119   0.0266   0.0536   0.0137  -0.0307  -0.0195   0.00    0.0
2021/10/17 02:05:42.000   28 35 34.11455  -17 55 01.60180    73.4021   6   7   0.0119   0.0266   0.0536   0.0137  -0.0307  -0.0195   0.00    0.0
2021/10/17 02:06:12.000   28 35 34.11456  -17 55 01.60178    73.4006   6   7   0.0119   0.0266   0.0535   0.0137  -0.0307  -0.0194   0.00    0.0
2021/10/17 02:06:42.000   28 35 34.11456  -17 55 01.60177    73.3999   6   7   0.0119   0.0266   0.0535   0.0137  -0.0307  -0.0194   0.00    0.0
2021/10/17 02:07:12.000   28 35 34.11456  -17 55 01.60177    73.3994   6   7   0.0119   0.0266   0.0535   0.0137  -0.0307  -0.0194   0.00    0.0
2021/10/17 02:07:42.000   28 35 34.11457  -17 55 01.60176    73.3985   6   7   0.0119   0.0265   0.0534   0.0137  -0.0307  -0.0194   0.00    0.0
2021/10/17 02:08:12.000   28 35 34.11457  -17 55 01.60174    73.3980   6   7   0.0119   0.0265   0.0534   0.0137  -0.0307  -0.0194   0.00    0.0
2021/10/17 02:08:42.000   28 35 34.11458  -17 55 01.60173    73.3975   6   7   0.0118   0.0265   0.0533   0.0137  -0.0307  -0.0194   0.00    0.0
2021/10/17 02:09:12.000   28 35 34.11460  -17 55 01.60171    73.3954   6   7   0.0118   0.0265   0.0530   0.0137  -0.0306  -0.0193   0.00    0.0
2021/10/17 02:09:42.000   28 35 34.11462  -17 55 01.60170    73.3922   6   7   0.0116   0.0264   0.0521   0.0137  -0.0305  -0.0191   0.00    0.0
2021/10/17 02:10:12.000   28 35 34.11462  -17 55 01.60169    73.3923   6   7   0.0116   0.0264   0.0519   0.0137  -0.0305  -0.0191   0.00    0.0
2021/10/17 02:10:42.000   28 35 34.11462  -17 55 01.60168    73.3912   6   7   0.0116   0.0264   0.0518   0.0137  -0.0305  -0.0190   0.00    0.0
2021/10/17 02:11:12.000   28 35 34.11463  -17 55 01.60167    73.3906   6   7   0.0116   0.0264   0.0518   0.0137  -0.0305  -0.0190   0.00    0.0
2021/10/17 02:11:42.000   28 35 34.11463  -17 55 01.60167    73.3900   6   7   0.0116   0.0264   0.0518   0.0137  -0.0305  -0.0190   0.00    0.0
2021/10/17 02:12:12.000   28 35 34.11463  -17 55 01.60167    73.3897   6   7   0.0116   0.0263   0.0518   0.0137  -0.0305  -0.0190   0.00    0.0
2021/10/17 02:12:42.000   28 35 34.11463  -17 55 01.60166    73.3892   6   7   0.0116   0.0263   0.0517   0.0137  -0.0305  -0.0190   0.00    0.0
2021/10/17 02:13:12.000   28 35 34.11464  -17 55 01.60166    73.3895   6   7   0.0116   0.0263   0.0517   0.0137  -0.0304  -0.0190   0.00    0.0
2021/10/17 02:13:42.000   28 35 34.11464  -17 55 01.60165    73.3893   6   7   0.0115   0.0263   0.0516   0.0137  -0.0304  -0.0190   0.00    0.0
2021/10/17 02:14:12.000   28 35 34.11467  -17 55 01.60163    73.3855   6   7   0.0115   0.0263   0.0513   0.0137  -0.0304  -0.0189   0.00    0.0
2021/10/17 02:14:42.000   28 35 34.11468  -17 55 01.60161    73.3825   6   7   0.0113   0.0262   0.0505   0.0136  -0.0303  -0.0187   0.00    0.0
2021/10/17 02:15:12.000   28 35 34.11468  -17 55 01.60159    73.3784   6   7   0.0113   0.0262   0.0503   0.0136  -0.0302  -0.0186   0.00    0.0
2021/10/17 02:15:42.000   28 35 34.11467  -17 55 01.60159    73.3766   6   7   0.0113   0.0262   0.0502   0.0136  -0.0302  -0.0186   0.00    0.0
2021/10/17 02:16:12.000   28 35 34.11467  -17 55 01.60160    73.3764   6   7   0.0113   0.0262   0.0502   0.0136  -0.0302  -0.0186   0.00    0.0
2021/10/17 02:16:42.000   28 35 34.11467  -17 55 01.60159    73.3759   6   7   0.0113   0.0262   0.0501   0.0136  -0.0302  -0.0186   0.00    0.0
2021/10/17 02:17:12.000   28 35 34.11467  -17 55 01.60159    73.3757   6   7   0.0113   0.0262   0.0501   0.0136  -0.0302  -0.0186   0.00    0.0
2021/10/17 02:17:42.000   28 35 34.11467  -17 55 01.60158    73.3753   6   7   0.0113   0.0262   0.0501   0.0136  -0.0302  -0.0186   0.00    0.0
2021/10/17 02:18:12.000   28 35 34.11467  -17 55 01.60157    73.3738   6   7   0.0113   0.0262   0.0500   0.0136  -0.0302  -0.0185   0.00    0.0
2021/10/17 02:18:42.000   28 35 34.11468  -17 55 01.60155    73.3715   6   8   0.0113   0.0261   0.0500   0.0136  -0.0301  -0.0185   0.00    0.0
2021/10/17 02:19:12.000   28 35 34.11470  -17 55 01.60152    73.3660   6   8   0.0112   0.0261   0.0497   0.0136  -0.0301  -0.0184   0.00    0.0
2021/10/17 02:19:42.000   28 35 34.11471  -17 55 01.60151    73.3639   6   8   0.0111   0.0261   0.0490   0.0136  -0.0300  -0.0182   0.00    0.0
2021/10/17 02:20:12.000   28 35 34.11472  -17 55 01.60150    73.3640   6   8   0.0110   0.0261   0.0488   0.0136  -0.0299  -0.0182   0.00    0.0
2021/10/17 02:20:42.000   28 35 34.11473  -17 55 01.60149    73.3633   6   8   0.0110   0.0260   0.0487   0.0136  -0.0299  -0.0181   0.00    0.0
2021/10/17 02:21:12.000   28 35 34.11473  -17 55 01.60149    73.3634   6   8   0.0110   0.0260   0.0487   0.0136  -0.0299  -0.0181   0.00    0.0
2021/10/17 02:21:42.000   28 35 34.11473  -17 55 01.60149    73.3634   6   8   0.0110   0.0260   0.0486   0.0135  -0.0299  -0.0181   0.00    0.0
2021/10/17 02:22:12.000   28 35 34.11474  -17 55 01.60148    73.3629   6   8   0.0110   0.0260   0.0486   0.0135  -0.0299  -0.0181   0.00    0.0
2021/10/17 02:22:42.000   28 35 34.11474  -17 55 01.60147    73.3621   6   8   0.0110   0.0260   0.0486   0.0135  -0.0299  -0.0181   0.00    0.0
2021/10/17 02:23:12.000   28 35 34.11475  -17 55 01.60146    73.3612   6   8   0.0110   0.0260   0.0485   0.0135  -0.0299  -0.0181   0.00    0.0
2021/10/17 02:23:42.000   28 35 34.11475  -17 55 01.60145    73.3607   6   8   0.0110   0.0260   0.0485   0.0135  -0.0298  -0.0181   0.00    0.0
2021/10/17 02:24:12.000   28 35 34.11474  -17 55 01.60145    73.3633   6   8   0.0109   0.0260   0.0482   0.0135  -0.0298  -0.0180   0.00    0.0
2021/10/17 02:24:42.000   28 35 34.11476  -17 55 01.60143    73.3614   6   8   0.0108   0.0259   0.0475   0.0135  -0.0297  -0.0178   0.00    0.0
2021/10/17 02:25:12.000   28 35 34.11477  -17 55 01.60141    73.3599   6   8   0.0107   0.0259   0.0473   0.0135  -0.0296  -0.0177   0.00    0.0
2021/10/17 02:25:42.000   28 35 34.11478  -17 55 01.60140    73.3574   6   8   0.0107   0.0259   0.0473   0.0135  -0.0296  -0.0177   0.00    0.0
2021/10/17 02:26:12.000   28 35 34.11478  -17 55 01.60139    73.3556   6   8   0.0107   0.0259   0.0472   0.0135  -0.0296  -0.0177   0.00    0.0
2021/10/17 02:26:42.000   28 35 34.11479  -17 55 01.60137    73.3543   6   8   0.0107   0.0259   0.0472   0.0134  -0.0296  -0.0176   0.00    0.0
2021/10/17 02:27:12.000   28 35 34.11479  -17 55 01.60136    73.3534   6   8   0.0107   0.0259   0.0472   0.0134  -0.0296  -0.0176   0.00    0.0
2021/10/17 02:27:42.000   28 35 34.11479  -17 55 01.60136    73.3524   6   8   0.0107   0.0259   0.0472   0.0134  -0.0295  -0.0176   0.00    0.0
2021/10/17 02:28:12.000   28 35 34.11479  -17 55 01.60135    73.3510   6   8   0.0107   0.0259   0.0471   0.0134  -0.0295  -0.0176   0.00    0.0
2021/10/17 02:28:42.000   28 35 34.11478  -17 55 01.60135    73.3511   6   8   0.0107   0.0259   0.0470   0.0134  -0.0295  -0.0176   0.00    0.0
2021/10/17 02:29:12.000   28 35 34.11477  -17 55 01.60134    73.3512   6   8   0.0106   0.0258   0.0468   0.0134  -0.0295  -0.0175   0.00    0.0
2021/10/17 02:29:42.000   28 35 34.11481  -17 55 01.60131    73.3475   6   8   0.0105   0.0258   0.0462   0.0134  -0.0293  -0.0173   0.00    0.0
2021/10/17 02:30:12.000   28 35 34.11484  -17 55 01.60127    73.3454   6   8   0.0105   0.0258   0.0460   0.0133  -0.0293  -0.0172   0.00    0.0
2021/10/17 02:30:42.000   28 35 34.11485  -17 55 01.60126    73.3445   6   8   0.0105   0.0258   0.0460   0.0133  -0.0293  -0.0172   0.00    0.0
2021/10/17 02:31:12.000   28 35 34.11485  -17 55 01.60125    73.3433   6   8   0.0105   0.0258   0.0459   0.0133  -0.0293  -0.0172   0.00    0.0
2021/10/17 02:31:42.000   28 35 34.11486  -17 55 01.60124    73.3423   6   8   0.0105   0.0258   0.0459   0.0133  -0.0292  -0.0172   0.00    0.0
2021/10/17 02:32:12.000   28 35 34.11486  -17 55 01.60124    73.3419   6   8   0.0104   0.0258   0.0459   0.0133  -0.0292  -0.0172   0.00    0.0
2021/10/17 02:32:42.000   28 35 34.11486  -17 55 01.60123    73.3415   6   8   0.0104   0.0257   0.0459   0.0133  -0.0292  -0.0172   0.00    0.0
2021/10/17 02:33:12.000   28 35 34.11487  -17 55 01.60121    73.3404   6   8   0.0104   0.0257   0.0458   0.0133  -0.0292  -0.0172   0.00    0.0
2021/10/17 02:33:42.000   28 35 34.11489  -17 55 01.60119    73.3383   6   8   0.0104   0.0257   0.0458   0.0133  -0.0292  -0.0171   0.00    0.0
2021/10/17 02:34:12.000   28 35 34.11492  -17 55 01.60114    73.3347   6   8   0.0104   0.0257   0.0455   0.0133  -0.0291  -0.0171   0.00    0.0
2021/10/17 02:34:42.000   28 35 34.11495  -17 55 01.60112    73.3336   6   8   0.0102   0.0257   0.0450   0.0132  -0.0290  -0.0168   0.00    0.0
2021/10/17 02:35:12.000   28 35 34.11496  -17 55 01.60110    73.3328   6   8   0.0102   0.0257   0.0449   0.0132  -0.0290  -0.0168   0.00    0.0
2021/10/17 02:35:42.000   28 35 34.11497  -17 55 01.60107    73.3317   6   8   0.0102   0.0256   0.0448   0.0132  -0.0290  -0.0168   0.00    0.0
2021/10/17 02:36:12.000   28 35 34.11498  -17 55 01.60106    73.3312   6   8   0.0102   0.0256   0.0448   0.0132  -0.0289  -0.0168   0.00    0.0
2021/10/17 02:36:42.000   28 35 34.11499  -17 55 01.60105    73.3306   6   8   0.0102   0.0256   0.0447   0.0132  -0.0289  -0.0167   0.00    0.0
2021/10/17 02:37:12.000   28 35 34.11499  -17 55 01.60104    73.3300   6   8   0.0102   0.0256   0.0447   0.0132  -0.0289  -0.0167   0.00    0.0
2021/10/17 02:37:42.000   28 35 34.11500  -17 55 01.60103    73.3292   6   8   0.0102   0.0256   0.0447   0.0132  -0.0289  -0.0167   0.00    0.0
2021/10/17 02:38:12.000   28 35 34.11500  -17 55 01.60103    73.3291   6   8   0.0102   0.0256   0.0447   0.0132  -0.0289  -0.0167   0.00    0.0
2021/10/17 02:38:42.000   28 35 34.11500  -17 55 01.60103    73.3286   6   8   0.0102   0.0256   0.0446   0.0132  -0.0289  -0.0167   0.00    0.0
2021/10/17 02:39:12.000   28 35 34.11501  -17 55 01.60101    73.3269   6   8   0.0101   0.0256   0.0444   0.0131  -0.0288  -0.0166   0.00    0.0
2021/10/17 02:39:42.000   28 35 34.11501  -17 55 01.60101    73.3290   6   8   0.0100   0.0255   0.0439   0.0131  -0.0287  -0.0164   0.00    0.0
2021/10/17 02:40:12.000   28 35 34.11502  -17 55 01.60099    73.3265   6   8   0.0100   0.0255   0.0438   0.0131  -0.0287  -0.0164   0.00    0.0
2021/10/17 02:40:42.000   28 35 34.11503  -17 55 01.60097    73.3246   6   8   0.0099   0.0255   0.0438   0.0130  -0.0287  -0.0163   0.00    0.0
2021/10/17 02:41:12.000   28 35 34.11503  -17 55 01.60096    73.3238   6   8   0.0099   0.0255   0.0437   0.0130  -0.0286  -0.0163   0.00    0.0
2021/10/17 02:41:42.000   28 35 34.11503  -17 55 01.60098    73.3238   6   8   0.0099   0.0255   0.0437   0.0130  -0.0286  -0.0163   0.00    0.0
2021/10/17 02:42:12.000   28 35 34.11503  -17 55 01.60097    73.3233   6   8   0.0099   0.0255   0.0437   0.0130  -0.0286  -0.0163   0.00    0.0
2021/10/17 02:42:42.000   28 35 34.11504  -17 55 01.60095    73.3226   6   8   0.0099   0.0255   0.0437   0.0130  -0.0286  -0.0163   0.00    0.0
2021/10/17 02:43:12.000   28 35 34.11504  -17 55 01.60095    73.3232   6   8   0.0099   0.0255   0.0436   0.0130  -0.0286  -0.0163   0.00    0.0
2021/10/17 02:43:42.000   28 35 34.11503  -17 55 01.60096    73.3241   6   8   0.0099   0.0254   0.0436   0.0130  -0.0286  -0.0163   0.00    0.0
2021/10/17 02:44:12.000   28 35 34.11501  -17 55 01.60098    73.3261   6   8   0.0099   0.0254   0.0434   0.0130  -0.0285  -0.0162   0.00    0.0
2021/10/17 02:44:42.000   28 35 34.11502  -17 55 01.60097    73.3254   6   8   0.0097   0.0254   0.0430   0.0129  -0.0284  -0.0160   0.00    0.0
2021/10/17 02:45:12.000   28 35 34.11504  -17 55 01.60095    73.3225   6   8   0.0097   0.0254   0.0429   0.0129  -0.0284  -0.0160   0.00    0.0
2021/10/17 02:45:42.000   28 35 34.11504  -17 55 01.60094    73.3217   6   8   0.0097   0.0253   0.0428   0.0129  -0.0284  -0.0159   0.00    0.0
2021/10/17 02:46:12.000   28 35 34.11504  -17 55 01.60094    73.3215   6   8   0.0097   0.0253   0.0428   0.0129  -0.0284  -0.0159   0.00    0.0
2021/10/17 02:46:42.000   28 35 34.11504  -17 55 01.60094    73.3216   6   8   0.0097   0.0253   0.0428   0.0129  -0.0283  -0.0159   0.00    0.0
2021/10/17 02:47:12.000   28 35 34.11504  -17 55 01.60094    73.3215   6   8   0.0097   0.0253   0.0428   0.0129  -0.0283  -0.0159   0.00    0.0
2021/10/17 02:47:42.000   28 35 34.11504  -17 55 01.60093    73.3213   6   8   0.0097   0.0253   0.0428   0.0128  -0.0283  -0.0159   0.00    0.0
2021/10/17 02:48:12.000   28 35 34.11504  -17 55 01.60092    73.3205   6   8   0.0097   0.0253   0.0427   0.0128  -0.0283  -0.0159   0.00    0.0
2021/10/17 02:48:42.000   28 35 34.11505  -17 55 01.60090    73.3188   6   8   0.0097   0.0253   0.0427   0.0128  -0.0283  -0.0159   0.00    0.0
2021/10/17 02:49:12.000   28 35 34.11506  -17 55 01.60089    73.3181   6   8   0.0096   0.0253   0.0425   0.0128  -0.0283  -0.0158   0.00    0.0
2021/10/17 02:49:42.000   28 35 34.11506  -17 55 01.60091    73.3189   6   8   0.0095   0.0252   0.0422   0.0127  -0.0281  -0.0156   0.00    0.0
2021/10/17 02:50:12.000   28 35 34.11507  -17 55 01.60090    73.3182   6   8   0.0095   0.0252   0.0421   0.0127  -0.0281  -0.0156   0.00    0.0
2021/10/17 02:50:42.000   28 35 34.11507  -17 55 01.60090    73.3185   6   8   0.0095   0.0252   0.0420   0.0127  -0.0281  -0.0156   0.00    0.0
2021/10/17 02:51:12.000   28 35 34.11507  -17 55 01.60090    73.3186   6   8   0.0095   0.0251   0.0420   0.0127  -0.0281  -0.0155   0.00    0.0
2021/10/17 02:51:42.000   28 35 34.11507  -17 55 01.60090    73.3183   6   8   0.0094   0.0251   0.0420   0.0127  -0.0281  -0.0155   0.00    0.0
2021/10/17 02:52:12.000   28 35 34.11507  -17 55 01.60088    73.3177   6   8   0.0094   0.0251   0.0420   0.0127  -0.0280  -0.0155   0.00    0.0
2021/10/17 02:52:42.000   28 35 34.11508  -17 55 01.60087    73.3170   6   8   0.0094   0.0251   0.0419   0.0127  -0.0280  -0.0155   0.00    0.0
2021/10/17 02:53:12.000   28 35 34.11508  -17 55 01.60086    73.3162   6   8   0.0094   0.0251   0.0419   0.0127  -0.0280  -0.0155   0.00    0.0
2021/10/17 02:53:42.000   28 35 34.11509  -17 55 01.60085    73.3151   6   8   0.0094   0.0251   0.0419   0.0126  -0.0280  -0.0155   0.00    0.0
2021/10/17 02:54:12.000   28 35 34.11510  -17 55 01.60085    73.3134   6   8   0.0094   0.0251   0.0417   0.0126  -0.0280  -0.0154   0.00    0.0
2021/10/17 02:54:42.000   28 35 34.11508  -17 55 01.60086    73.3151   6   8   0.0093   0.0250   0.0413   0.0125  -0.0278  -0.0152   0.00    0.0
2021/10/17 02:55:12.000   28 35 34.11508  -17 55 01.60087    73.3152   6   8   0.0092   0.0249   0.0412   0.0125  -0.0278  -0.0152   0.00    0.0
2021/10/17 02:55:42.000   28 35 34.11509  -17 55 01.60086    73.3142   6   9   0.0092   0.0249   0.0412   0.0125  -0.0277  -0.0152   0.00    0.0
2021/10/17 02:56:12.000   28 35 34.11509  -17 55 01.60086    73.3140   6   9   0.0092   0.0249   0.0412   0.0125  -0.0277  -0.0152   0.00    0.0
2021/10/17 02:56:42.000   28 35 34.11509  -17 55 01.60086    73.3137   6   9   0.0092   0.0249   0.0411   0.0124  -0.0277  -0.0151   0.00    0.0
2021/10/17 02:57:12.000   28 35 34.11509  -17 55 01.60086    73.3134   6   9   0.0092   0.0249   0.0411   0.0124  -0.0277  -0.0151   0.00    0.0
2021/10/17 02:57:42.000   28 35 34.11509  -17 55 01.60085    73.3128   6   9   0.0092   0.0249   0.0411   0.0124  -0.0277  -0.0151   0.00    0.0
2021/10/17 02:58:12.000   28 35 34.11509  -17 55 01.60084    73.3122   6   9   0.0092   0.0249   0.0411   0.0124  -0.0277  -0.0151   0.00    0.0
2021/10/17 02:58:42.000   28 35 34.11510  -17 55 01.60083    73.3108   6   9   0.0092   0.0249   0.0410   0.0124  -0.0277  -0.0151   0.00    0.0
2021/10/17 02:59:12.000   28 35 34.11510  -17 55 01.60084    73.3109   6   9   0.0091   0.0248   0.0409   0.0124  -0.0276  -0.0150   0.00    0.0
2021/10/17 02:59:42.000   28 35 34.11508  -17 55 01.60086    73.3129   6   9   0.0090   0.0247   0.0405   0.0123  -0.0274  -0.0148   0.00    0.0
2021/10/17 03:00:12.000   28 35 34.11510  -17 55 01.60082    73.3092   6   9   0.0090   0.0246   0.0403   0.0122  -0.0274  -0.0148   0.00    0.0
2021/10/17 03:00:42.000   28 35 34.11510  -17 55 01.60080    73.3083   6   9   0.0090   0.0246   0.0403   0.0122  -0.0273  -0.0147   0.00    0.0
2021/10/17 03:01:12.000   28 35 34.11510  -17 55 01.60079    73.3080   6   9   0.0090   0.0246   0.0403   0.0122  -0.0273  -0.0147   0.00    0.0
2021/10/17 03:01:42.000   28 35 34.11510  -17 55 01.60078    73.3077   6   9   0.0090   0.0246   0.0402   0.0122  -0.0273  -0.0147   0.00    0.0
2021/10/17 03:02:12.000   28 35 34.11511  -17 55 01.60077    73.3070   6   9   0.0090   0.0246   0.0402   0.0122  -0.0273  -0.0147   0.00    0.0
2021/10/17 03:02:42.000   28 35 34.11511  -17 55 01.60075    73.3062   6   9   0.0090   0.0246   0.0402   0.0122  -0.0273  -0.0147   0.00    0.0
2021/10/17 03:03:12.000   28 35 34.11512  -17 55 01.60074    73.3055   6   9   0.0090   0.0246   0.0402   0.0122  -0.0273  -0.0147   0.00    0.0
2021/10/17 03:03:42.000   28 35 34.11512  -17 55 01.60073    73.3051   6   9   0.0089   0.0245   0.0401   0.0122  -0.0272  -0.0147   0.00    0.0
2021/10/17 03:04:12.000   28 35 34.11512  -17 55 01.60071    73.3028   6   9   0.0089   0.0245   0.0399   0.0121  -0.0271  -0.0146   0.00    0.0
2021/10/17 03:04:42.000   28 35 34.11510  -17 55 01.60072    73.3042   6   9   0.0088   0.0243   0.0394   0.0120  -0.0269  -0.0144   0.00    0.0
2021/10/17 03:05:12.000   28 35 34.11509  -17 55 01.60075    73.3063   6   9   0.0087   0.0243   0.0393   0.0119  -0.0268  -0.0143   0.00    0.0
2021/10/17 03:05:42.000   28 35 34.11508  -17 55 01.60076    73.3072   6   9   0.0087   0.0242   0.0392   0.0119  -0.0268  -0.0143   0.00    0.0
2021/10/17 03:06:12.000   28 35 34.11507  -17 55 01.60076    73.3077   6   9   0.0087   0.0242   0.0392   0.0119  -0.0268  -0.0142   0.00    0.0
2021/10/17 03:06:42.000   28 35 34.11507  -17 55 01.60076    73.3080   6   9   0.0087   0.0242   0.0392   0.0119  -0.0268  -0.0142   0.00    0.0
2021/10/17 03:07:12.000   28 35 34.11507  -17 55 01.60075    73.3078   6   9   0.0087   0.0242   0.0391   0.0119  -0.0268  -0.0142   0.00    0.0
2021/10/17 03:07:42.000   28 35 34.11507  -17 55 01.60075    73.3077   6   9   0.0087   0.0242   0.0391   0.0119  -0.0267  -0.0142   0.00    0.0
2021/10/17 03:08:12.000   28 35 34.11507  -17 55 01.60075    73.3074   6   9   0.0087   0.0242   0.0391   0.0119  -0.0267  -0.0142   0.00    0.0
2021/10/17 03:08:42.000   28 35 34.11507  -17 55 01.60074    73.3069   6   9   0.0087   0.0242   0.0390   0.0119  -0.0267  -0.0142   0.00    0.0
2021/10/17 03:09:12.000   28 35 34.11507  -17 55 01.60072    73.3048   6   9   0.0087   0.0241   0.0389   0.0118  -0.0266  -0.0141   0.00    0.0
2021/10/17 03:09:42.000   28 35 34.11506  -17 55 01.60073    73.3042   6   9   0.0086   0.0239   0.0385   0.0117  -0.0264  -0.0140   0.00    0.0
2021/10/17 03:10:12.000   28 35 34.11505  -17 55 01.60072    73.3039   6   9   0.0085   0.0239   0.0384   0.0116  -0.0264  -0.0139   0.00    0.0
2021/10/17 03:10:42.000   28 35 34.11506  -17 55 01.60070    73.3026   6   9   0.0085   0.0238   0.0384   0.0116  -0.0263  -0.0139   0.00    0.0
2021/10/17 03:11:12.000   28 35 34.11506  -17 55 01.60069    73.3018   6   9   0.0085   0.0238   0.0384   0.0116  -0.0263  -0.0139   0.00    0.0
2021/10/17 03:11:42.000   28 35 34.11506  -17 55 01.60067    73.3013   6   9   0.0085   0.0238   0.0383   0.0116  -0.0263  -0.0139   0.00    0.0
2021/10/17 03:12:12.000   28 35 34.11507  -17 55 01.60066    73.3008   6   9   0.0085   0.0238   0.0383   0.0116  -0.0263  -0.0139   0.00    0.0
2021/10/17 03:12:42.000   28 35 34.11507  -17 55 01.60065    73.3003   6   9   0.0085   0.0238   0.0383   0.0116  -0.0263  -0.0139   0.00    0.0
2021/10/17 03:13:12.000   28 35 34.11507  -17 55 01.60064    73.3003   6   8   0.0085   0.0238   0.0383   0.0116  -0.0263  -0.0139   0.00    0.0
2021/10/17 03:13:42.000   28 35 34.11506  -17 55 01.60063    73.3004   6   8   0.0085   0.0238   0.0382   0.0116  -0.0262  -0.0139   0.00    0.0
2021/10/17 03:14:12.000   28 35 34.11506  -17 55 01.60060    73.2999   6   8   0.0085   0.0237   0.0381   0.0115  -0.0261  -0.0138   0.00    0.0
2021/10/17 03:14:42.000   28 35 34.11507  -17 55 01.60054    73.2975   6   8   0.0084   0.0234   0.0376   0.0114  -0.0259  -0.0136   0.00    0.0
2021/10/17 03:15:12.000   28 35 34.11507  -17 55 01.60052    73.2966   6   8   0.0083   0.0234   0.0375   0.0113  -0.0258  -0.0136   0.00    0.0
2021/10/17 03:15:42.000   28 35 34.11507  -17 55 01.60051    73.2960   6   8   0.0083   0.0234   0.0374   0.0113  -0.0258  -0.0135   0.00    0.0
2021/10/17 03:16:12.000   28 35 34.11507  -17 55 01.60050    73.2954   6   8   0.0083   0.0233   0.0374   0.0113  -0.0257  -0.0135   0.00    0.0
2021/10/17 03:16:42.000   28 35 34.11507  -17 55 01.60049    73.2950   6   8   0.0083   0.0233   0.0374   0.0113  -0.0257  -0.0135   0.00    0.0
2021/10/17 03:17:12.000   28 35 34.11508  -17 55 01.60048    73.2947   6   8   0.0083   0.0233   0.0373   0.0113  -0.0257  -0.0135   0.00    0.0
2021/10/17 03:17:42.000   28 35 34.11508  -17 55 01.60047    73.2941   6   7   0.0083   0.0233   0.0373   0.0113  -0.0257  -0.0135   0.00    0.0
2021/10/17 03:18:12.000   28 35 34.11508  -17 55 01.60045    73.2940   6   7   0.0083   0.0233   0.0373   0.0113  -0.0257  -0.0135   0.00    0.0
2021/10/17 03:18:42.000   28 35 34.11508  -17 55 01.60045    73.2947   6   7   0.0083   0.0233   0.0373   0.0113  -0.0256  -0.0135   0.00    0.0
2021/10/17 03:19:12.000   28 35 34.11507  -17 55 01.60044    73.2959   6   7   0.0083   0.0232   0.0372   0.0112  -0.0256  -0.0134   0.00    0.0
2021/10/17 03:19:42.000   28 35 34.11508  -17 55 01.60043    73.2965   6   7   0.0081   0.0229   0.0369   0.0111  -0.0253  -0.0132   0.00    0.0
2021/10/17 03:20:12.000   28 35 34.11511  -17 55 01.60037    73.2928   6   7   0.0081   0.0229   0.0368   0.0110  -0.0252  -0.0132   0.00    0.0
2021/10/17 03:20:42.000   28 35 34.11512  -17 55 01.60035    73.2918   6   7   0.0081   0.0228   0.0368   0.0110  -0.0252  -0.0132   0.00    0.0
2021/10/17 03:21:12.000   28 35 34.11512  -17 55 01.60034    73.2911   6   7   0.0081   0.0228   0.0367   0.0110  -0.0252  -0.0131   0.00    0.0
2021/10/17 03:21:42.000   28 35 34.11513  -17 55 01.60033    73.2908   6   7   0.0081   0.0228   0.0367   0.0110  -0.0252  -0.0131   0.00    0.0
2021/10/17 03:22:12.000   28 35 34.11513  -17 55 01.60031    73.2902   6   7   0.0081   0.0228   0.0367   0.0110  -0.0252  -0.0131   0.00    0.0
2021/10/17 03:22:42.000   28 35 34.11513  -17 55 01.60029    73.2898   6   7   0.0081   0.0228   0.0367   0.0110  -0.0251  -0.0131   0.00    0.0
2021/10/17 03:23:12.000   28 35 34.11514  -17 55 01.60027    73.2892   6   7   0.0081   0.0228   0.0367   0.0110  -0.0251  -0.0131   0.00    0.0
