% program   : RTKLIB ver.2.4.2
% inp file  : C:\IPNA\data\OBS\CVBB2860.o
% inp file  : C:\IPNA\data\NAV\CVBB2860.n
% inp file  : C:\IPNA\data\SP3\CVBB2860.sp3
% inp file  : C:\IPNA\data\CLOCK\CVBB2860.clk
% obs start : 2021/10/13 12:11:42.0 UTC (week2179 303120.0s)
% obs end   : 2021/10/13 23:52:12.0 UTC (week2179 345150.0s)
% pos mode  : ppp-static
% solution  : forward
% elev mask : 15.0 deg
% dynamics  : off
% tidecorr  : on
% tropo opt : est ztd
% ephemeris : precise
% antenna1  :                       ( 0.0000  0.0000  0.0000)
%
% (lat/lon/height=WGS84/ellipsoidal,Q=1:fix,2:float,3:sbas,4:dgps,5:single,6:ppp,ns=# of satellites)
%  UTC                     latitude(d'")   longitude(d'")  height(m)   Q  ns   sdn(m)   sde(m)   sdu(m)  sdne(m)  sdeu(m)  sdue(m) age(s)  ratio
2021/10/13 12:11:41.999   28 35 34.13207  -17 55 01.57588    73.8092   6  10   1.0940   1.4087   3.0689   0.5936  -1.0011  -1.0175   0.00    0.0
2021/10/13 12:12:12.000   28 35 34.12968  -17 55 01.57108    74.2974   6   9   0.7937   1.0149   2.1868   0.3793  -0.6814  -0.7439   0.00    0.0
2021/10/13 12:12:42.000   28 35 34.12713  -17 55 01.56621    74.2793   6   9   0.6539   0.8344   1.7853   0.2948  -0.5447  -0.6129   0.00    0.0
2021/10/13 12:13:12.000   28 35 34.12484  -17 55 01.55595    74.6203   6   9   0.5679   0.7249   1.5356   0.2474  -0.4625  -0.5294   0.00    0.0
2021/10/13 12:13:42.000   28 35 34.12286  -17 55 01.55733    74.6810   6   9   0.5071   0.6491   1.3514   0.2156  -0.4030  -0.4668   0.00    0.0
2021/10/13 12:14:12.000   28 35 34.12442  -17 55 01.55571    74.6727   6   9   0.4596   0.5922   1.1947   0.1911  -0.3526  -0.4126   0.00    0.0
2021/10/13 12:14:42.000   28 35 34.12444  -17 55 01.55663    74.6872   6   9   0.4190   0.5473   1.0527   0.1701  -0.3061  -0.3615   0.00    0.0
2021/10/13 12:15:12.000   28 35 34.12399  -17 55 01.55599    74.4979   6   9   0.3911   0.5120   0.9795   0.1575  -0.2822  -0.3352   0.00    0.0
2021/10/13 12:15:42.000   28 35 34.12335  -17 55 01.55221    74.3636   6   9   0.3686   0.4829   0.9268   0.1480  -0.2650  -0.3157   0.00    0.0
2021/10/13 12:16:12.000   28 35 34.12299  -17 55 01.55349    74.2532   6   9   0.3498   0.4583   0.8865   0.1404  -0.2519  -0.3000   0.00    0.0
2021/10/13 12:16:42.000   28 35 34.12222  -17 55 01.55472    74.2213   6   9   0.3337   0.4371   0.8526   0.1340  -0.2409  -0.2868   0.00    0.0
2021/10/13 12:17:12.000   28 35 34.12336  -17 55 01.55479    74.3119   6   9   0.3197   0.4187   0.8233   0.1287  -0.2315  -0.2753   0.00    0.0
2021/10/13 12:17:42.000   28 35 34.12511  -17 55 01.55578    74.3199   6   9   0.3061   0.4022   0.7900   0.1230  -0.2203  -0.2621   0.00    0.0
2021/10/13 12:18:12.000   28 35 34.12584  -17 55 01.55686    74.3551   6   9   0.2917   0.3869   0.7476   0.1164  -0.2052  -0.2446   0.00    0.0
2021/10/13 12:18:42.000   28 35 34.12626  -17 55 01.55736    74.3858   6   9   0.2738   0.3723   0.6867   0.1070  -0.1817  -0.2181   0.00    0.0
2021/10/13 12:19:12.000   28 35 34.12784  -17 55 01.55708    74.3300   6   9   0.2446   0.3571   0.5891   0.0912  -0.1392  -0.1709   0.00    0.0
2021/10/13 12:19:42.000   28 35 34.12532  -17 55 01.55743    74.0847   6   9   0.1985   0.3403   0.4655   0.0694  -0.0684  -0.0943   0.00    0.0
2021/10/13 12:20:12.000   28 35 34.12564  -17 55 01.55586    74.0027   6   9   0.1896   0.3299   0.4469   0.0660  -0.0589  -0.0881   0.00    0.0
2021/10/13 12:20:42.000   28 35 34.12607  -17 55 01.55547    73.9856   6   9   0.1848   0.3211   0.4389   0.0646  -0.0575  -0.0866   0.00    0.0
2021/10/13 12:21:12.000   28 35 34.12632  -17 55 01.55552    73.9952   6   9   0.1812   0.3131   0.4337   0.0638  -0.0581  -0.0861   0.00    0.0
2021/10/13 12:21:42.000   28 35 34.12653  -17 55 01.55450    74.0363   6   9   0.1781   0.3057   0.4296   0.0631  -0.0592  -0.0859   0.00    0.0
2021/10/13 12:22:12.000   28 35 34.12694  -17 55 01.55448    74.0750   6   9   0.1754   0.2989   0.4261   0.0626  -0.0606  -0.0859   0.00    0.0
2021/10/13 12:22:42.000   28 35 34.12687  -17 55 01.55503    74.0942   6   9   0.1722   0.2924   0.4212   0.0619  -0.0606  -0.0852   0.00    0.0
2021/10/13 12:23:12.000   28 35 34.12687  -17 55 01.55335    74.1128   6   9   0.1682   0.2861   0.4130   0.0606  -0.0583  -0.0834   0.00    0.0
2021/10/13 12:23:42.000   28 35 34.12661  -17 55 01.55323    74.0741   6   9   0.1618   0.2796   0.3972   0.0581  -0.0499  -0.0786   0.00    0.0
2021/10/13 12:24:12.000   28 35 34.12507  -17 55 01.55345    73.9754   6   9   0.1482   0.2717   0.3597   0.0524   0.0075  -0.0644   0.00    0.0
2021/10/13 12:24:42.000   28 35 34.12203  -17 55 01.55539    73.9576   6   9   0.1208   0.2604   0.2907   0.0431   0.0681  -0.0159   0.00    0.0
2021/10/13 12:25:12.000   28 35 34.12152  -17 55 01.55604    73.9597   6   9   0.1159   0.2546   0.2777   0.0412   0.0691  -0.0165   0.00    0.0
2021/10/13 12:25:42.000   28 35 34.12130  -17 55 01.55625    73.9695   6   9   0.1139   0.2501   0.2728   0.0405   0.0678  -0.0184   0.00    0.0
2021/10/13 12:26:12.000   28 35 34.12132  -17 55 01.55647    73.9785   6   9   0.1125   0.2460   0.2699   0.0402   0.0662  -0.0199   0.00    0.0
2021/10/13 12:26:42.000   28 35 34.12123  -17 55 01.55614    73.9898   6   9   0.1115   0.2421   0.2679   0.0400   0.0645  -0.0211   0.00    0.0
2021/10/13 12:27:12.000   28 35 34.12138  -17 55 01.55645    74.0042   6   9   0.1106   0.2386   0.2663   0.0399   0.0627  -0.0222   0.00    0.0
2021/10/13 12:27:42.000   28 35 34.12159  -17 55 01.55720    74.0258   6   9   0.1095   0.2350   0.2639   0.0396   0.0612  -0.0232   0.00    0.0
2021/10/13 12:28:12.000   28 35 34.12175  -17 55 01.55698    74.0499   6   9   0.1079   0.2314   0.2597   0.0391   0.0602  -0.0243   0.00    0.0
2021/10/13 12:28:42.000   28 35 34.12190  -17 55 01.55708    74.0651   6   9   0.1051   0.2275   0.2514   0.0380   0.0602  -0.0250   0.00    0.0
2021/10/13 12:29:12.000   28 35 34.12196  -17 55 01.55732    74.0493   6   9   0.0984   0.2221   0.2318   0.0352   0.0637  -0.0228   0.00    0.0
2021/10/13 12:29:42.000   28 35 34.12015  -17 55 01.55923    73.9634   6   9   0.0824   0.2127   0.1936   0.0309   0.0742   0.0161   0.00    0.0
2021/10/13 12:30:12.000   28 35 34.11969  -17 55 01.55948    73.9308   6   9   0.0795   0.2085   0.1851   0.0295   0.0731   0.0130   0.00    0.0
2021/10/13 12:30:42.000   28 35 34.11958  -17 55 01.55976    73.9239   6   9   0.0784   0.2056   0.1819   0.0290   0.0718   0.0108   0.00    0.0
2021/10/13 12:31:12.000   28 35 34.11948  -17 55 01.55971    73.9253   6   9   0.0777   0.2031   0.1801   0.0288   0.0706   0.0091   0.00    0.0
2021/10/13 12:31:42.000   28 35 34.11942  -17 55 01.55921    73.9331   6   8   0.0773   0.2010   0.1793   0.0289   0.0698   0.0090   0.00    0.0
2021/10/13 12:32:12.000   28 35 34.11934  -17 55 01.55898    73.9389   6   8   0.0769   0.1990   0.1787   0.0291   0.0689   0.0089   0.00    0.0
2021/10/13 12:32:42.000   28 35 34.11928  -17 55 01.55906    73.9437   6   8   0.0765   0.1969   0.1779   0.0292   0.0682   0.0089   0.00    0.0
2021/10/13 12:33:12.000   28 35 34.11922  -17 55 01.55975    73.9519   6   8   0.0757   0.1947   0.1765   0.0292   0.0677   0.0092   0.00    0.0
2021/10/13 12:33:42.000   28 35 34.11903  -17 55 01.56030    73.9619   6   8   0.0743   0.1921   0.1737   0.0289   0.0678   0.0104   0.00    0.0
2021/10/13 12:34:12.000   28 35 34.11867  -17 55 01.56159    73.9669   6   8   0.0706   0.1880   0.1665   0.0281   0.0699   0.0143   0.00    0.0
2021/10/13 12:34:42.000   28 35 34.11827  -17 55 01.56329    73.9141   6   8   0.0609   0.1801   0.1500   0.0274   0.0768   0.0245   0.00    0.0
2021/10/13 12:35:12.000   28 35 34.11816  -17 55 01.56414    73.9105   6   8   0.0592   0.1771   0.1468   0.0271   0.0771   0.0249   0.00    0.0
2021/10/13 12:35:42.000   28 35 34.11816  -17 55 01.56396    73.9189   6   8   0.0585   0.1752   0.1456   0.0270   0.0767   0.0250   0.00    0.0
2021/10/13 12:36:12.000   28 35 34.11816  -17 55 01.56379    73.9272   6   8   0.0582   0.1736   0.1450   0.0270   0.0762   0.0250   0.00    0.0
2021/10/13 12:36:42.000   28 35 34.11816  -17 55 01.56356    73.9335   6   8   0.0580   0.1722   0.1446   0.0270   0.0756   0.0249   0.00    0.0
2021/10/13 12:37:12.000   28 35 34.11818  -17 55 01.56339    73.9392   6   8   0.0578   0.1708   0.1443   0.0270   0.0751   0.0249   0.00    0.0
2021/10/13 12:37:42.000   28 35 34.11816  -17 55 01.56342    73.9408   6   7   0.0575   0.1694   0.1438   0.0271   0.0746   0.0249   0.00    0.0
2021/10/13 12:38:12.000   28 35 34.11810  -17 55 01.56340    73.9435   6   7   0.0571   0.1679   0.1431   0.0270   0.0742   0.0250   0.00    0.0
2021/10/13 12:38:42.000   28 35 34.11807  -17 55 01.56331    73.9466   6   7   0.0563   0.1660   0.1416   0.0269   0.0741   0.0251   0.00    0.0
2021/10/13 12:39:12.000   28 35 34.11787  -17 55 01.56368    73.9385   6   7   0.0540   0.1628   0.1380   0.0265   0.0752   0.0258   0.00    0.0
2021/10/13 12:39:42.000   28 35 34.11760  -17 55 01.56590    73.9235   6   7   0.0477   0.1561   0.1292   0.0266   0.0794   0.0285   0.00    0.0
2021/10/13 12:40:12.000   28 35 34.11717  -17 55 01.56644    73.9240   6   7   0.0465   0.1537   0.1273   0.0264   0.0795   0.0286   0.00    0.0
2021/10/13 12:40:42.000   28 35 34.11699  -17 55 01.56643    73.9259   6   7   0.0461   0.1523   0.1267   0.0263   0.0793   0.0287   0.00    0.0
2021/10/13 12:41:12.000   28 35 34.11691  -17 55 01.56603    73.9288   6   7   0.0459   0.1512   0.1263   0.0263   0.0789   0.0286   0.00    0.0
2021/10/13 12:41:42.000   28 35 34.11690  -17 55 01.56567    73.9333   6   7   0.0458   0.1502   0.1260   0.0263   0.0785   0.0286   0.00    0.0
2021/10/13 12:42:12.000   28 35 34.11692  -17 55 01.56548    73.9382   6   7   0.0457   0.1493   0.1258   0.0262   0.0781   0.0286   0.00    0.0
2021/10/13 12:42:42.000   28 35 34.11692  -17 55 01.56522    73.9417   6   7   0.0455   0.1483   0.1255   0.0262   0.0777   0.0286   0.00    0.0
2021/10/13 12:43:12.000   28 35 34.11696  -17 55 01.56520    73.9434   6   7   0.0453   0.1472   0.1251   0.0262   0.0774   0.0286   0.00    0.0
2021/10/13 12:43:42.000   28 35 34.11703  -17 55 01.56528    73.9414   6   7   0.0447   0.1458   0.1243   0.0261   0.0773   0.0286   0.00    0.0
2021/10/13 12:44:12.000   28 35 34.11710  -17 55 01.56622    73.9284   6   7   0.0433   0.1432   0.1224   0.0259   0.0779   0.0288   0.00    0.0
2021/10/13 12:44:42.000   28 35 34.11714  -17 55 01.56862    73.9264   6   7   0.0389   0.1375   0.1174   0.0261   0.0805   0.0295   0.00    0.0
2021/10/13 12:45:12.000   28 35 34.11718  -17 55 01.56856    73.9338   6   7   0.0381   0.1357   0.1163   0.0260   0.0806   0.0296   0.00    0.0
2021/10/13 12:45:42.000   28 35 34.11718  -17 55 01.56838    73.9388   6   7   0.0378   0.1346   0.1158   0.0260   0.0804   0.0296   0.00    0.0
2021/10/13 12:46:12.000   28 35 34.11721  -17 55 01.56853    73.9403   6   7   0.0377   0.1338   0.1156   0.0259   0.0801   0.0295   0.00    0.0
2021/10/13 12:46:42.000   28 35 34.11724  -17 55 01.56840    73.9447   6   7   0.0376   0.1331   0.1154   0.0259   0.0797   0.0295   0.00    0.0
2021/10/13 12:47:12.000   28 35 34.11726  -17 55 01.56815    73.9493   6   7   0.0375   0.1324   0.1152   0.0258   0.0794   0.0295   0.00    0.0
2021/10/13 12:47:42.000   28 35 34.11727  -17 55 01.56798    73.9530   6   7   0.0374   0.1317   0.1150   0.0258   0.0791   0.0295   0.00    0.0
2021/10/13 12:48:12.000   28 35 34.11727  -17 55 01.56807    73.9550   6   7   0.0372   0.1309   0.1147   0.0257   0.0789   0.0295   0.00    0.0
2021/10/13 12:48:42.000   28 35 34.11729  -17 55 01.56804    73.9587   6   7   0.0369   0.1298   0.1142   0.0257   0.0787   0.0294   0.00    0.0
2021/10/13 12:49:12.000   28 35 34.11735  -17 55 01.56838    73.9522   6   7   0.0359   0.1277   0.1130   0.0255   0.0789   0.0294   0.00    0.0
2021/10/13 12:49:42.000   28 35 34.11731  -17 55 01.57060    73.9497   6   7   0.0326   0.1226   0.1097   0.0254   0.0801   0.0292   0.00    0.0
2021/10/13 12:50:12.000   28 35 34.11733  -17 55 01.57133    73.9522   6   7   0.0320   0.1211   0.1089   0.0253   0.0800   0.0292   0.00    0.0
2021/10/13 12:50:42.000   28 35 34.11731  -17 55 01.57153    73.9544   6   7   0.0318   0.1203   0.1085   0.0252   0.0798   0.0291   0.00    0.0
2021/10/13 12:51:12.000   28 35 34.11728  -17 55 01.57155    73.9551   6   7   0.0317   0.1197   0.1083   0.0252   0.0795   0.0291   0.00    0.0
2021/10/13 12:51:42.000   28 35 34.11726  -17 55 01.57157    73.9553   6   7   0.0316   0.1191   0.1081   0.0251   0.0793   0.0291   0.00    0.0
2021/10/13 12:52:12.000   28 35 34.11726  -17 55 01.57135    73.9585   6   7   0.0316   0.1186   0.1080   0.0250   0.0790   0.0290   0.00    0.0
2021/10/13 12:52:42.000   28 35 34.11725  -17 55 01.57117    73.9630   6   7   0.0315   0.1181   0.1078   0.0250   0.0787   0.0290   0.00    0.0
2021/10/13 12:53:12.000   28 35 34.11727  -17 55 01.57114    73.9671   6   7   0.0314   0.1174   0.1076   0.0249   0.0785   0.0290   0.00    0.0
2021/10/13 12:53:42.000   28 35 34.11732  -17 55 01.57166    73.9677   6   7   0.0311   0.1165   0.1072   0.0248   0.0782   0.0289   0.00    0.0
2021/10/13 12:54:12.000   28 35 34.11752  -17 55 01.57270    73.9674   6   7   0.0304   0.1147   0.1061   0.0247   0.0780   0.0287   0.00    0.0
2021/10/13 12:54:42.000   28 35 34.11744  -17 55 01.57471    73.9526   6   7   0.0279   0.1097   0.1029   0.0240   0.0775   0.0278   0.00    0.0
2021/10/13 12:55:12.000   28 35 34.11736  -17 55 01.57470    73.9511   6   7   0.0274   0.1083   0.1020   0.0238   0.0771   0.0276   0.00    0.0
2021/10/13 12:55:42.000   28 35 34.11732  -17 55 01.57471    73.9518   6   8   0.0273   0.1076   0.1017   0.0237   0.0768   0.0276   0.00    0.0
2021/10/13 12:56:12.000   28 35 34.11732  -17 55 01.57465    73.9540   6   8   0.0272   0.1071   0.1014   0.0236   0.0765   0.0275   0.00    0.0
2021/10/13 12:56:42.000   28 35 34.11732  -17 55 01.57458    73.9561   6   8   0.0271   0.1066   0.1013   0.0236   0.0763   0.0275   0.00    0.0
2021/10/13 12:57:12.000   28 35 34.11733  -17 55 01.57447    73.9594   6   8   0.0271   0.1062   0.1011   0.0235   0.0760   0.0274   0.00    0.0
2021/10/13 12:57:42.000   28 35 34.11733  -17 55 01.57440    73.9617   6   8   0.0270   0.1057   0.1009   0.0234   0.0757   0.0274   0.00    0.0
2021/10/13 12:58:12.000   28 35 34.11732  -17 55 01.57429    73.9645   6   8   0.0270   0.1051   0.1006   0.0233   0.0754   0.0273   0.00    0.0
2021/10/13 12:58:42.000   28 35 34.11733  -17 55 01.57412    73.9675   6   8   0.0267   0.1042   0.1000   0.0232   0.0749   0.0271   0.00    0.0
2021/10/13 12:59:12.000   28 35 34.11733  -17 55 01.57509    73.9460   6   8   0.0262   0.1023   0.0985   0.0228   0.0739   0.0267   0.00    0.0
2021/10/13 12:59:42.000   28 35 34.11717  -17 55 01.57819    73.8985   6   8   0.0241   0.0970   0.0943   0.0215   0.0714   0.0251   0.00    0.0
2021/10/13 13:00:12.000   28 35 34.11715  -17 55 01.57868    73.8913   6   8   0.0237   0.0955   0.0931   0.0212   0.0705   0.0247   0.00    0.0
2021/10/13 13:00:42.000   28 35 34.11715  -17 55 01.57884    73.8897   6   8   0.0236   0.0948   0.0926   0.0210   0.0701   0.0246   0.00    0.0
2021/10/13 13:01:12.000   28 35 34.11713  -17 55 01.57884    73.8893   6   8   0.0235   0.0943   0.0923   0.0209   0.0698   0.0245   0.00    0.0
2021/10/13 13:01:42.000   28 35 34.11713  -17 55 01.57897    73.8871   6   8   0.0235   0.0940   0.0922   0.0209   0.0695   0.0245   0.00    0.0
2021/10/13 13:02:12.000   28 35 34.11713  -17 55 01.57905    73.8858   6   8   0.0235   0.0937   0.0920   0.0208   0.0693   0.0244   0.00    0.0
2021/10/13 13:02:42.000   28 35 34.11712  -17 55 01.57906    73.8857   6   8   0.0234   0.0933   0.0918   0.0207   0.0690   0.0244   0.00    0.0
2021/10/13 13:03:12.000   28 35 34.11711  -17 55 01.57920    73.8836   6   8   0.0233   0.0927   0.0915   0.0206   0.0687   0.0242   0.00    0.0
2021/10/13 13:03:42.000   28 35 34.11709  -17 55 01.57953    73.8813   6   8   0.0232   0.0919   0.0909   0.0204   0.0680   0.0240   0.00    0.0
2021/10/13 13:04:12.000   28 35 34.11702  -17 55 01.58052    73.8716   6   8   0.0227   0.0898   0.0893   0.0198   0.0666   0.0234   0.00    0.0
2021/10/13 13:04:42.000   28 35 34.11680  -17 55 01.58312    73.8259   6   8   0.0210   0.0845   0.0851   0.0182   0.0633   0.0215   0.00    0.0
2021/10/13 13:05:12.000   28 35 34.11680  -17 55 01.58394    73.8169   6   8   0.0207   0.0831   0.0840   0.0178   0.0623   0.0211   0.00    0.0
2021/10/13 13:05:42.000   28 35 34.11680  -17 55 01.58414    73.8131   6   8   0.0206   0.0825   0.0836   0.0176   0.0618   0.0209   0.00    0.0
2021/10/13 13:06:12.000   28 35 34.11678  -17 55 01.58423    73.8102   6   8   0.0205   0.0821   0.0833   0.0175   0.0615   0.0208   0.00    0.0
2021/10/13 13:06:42.000   28 35 34.11677  -17 55 01.58433    73.8080   6   8   0.0205   0.0818   0.0831   0.0175   0.0613   0.0207   0.00    0.0
2021/10/13 13:07:12.000   28 35 34.11677  -17 55 01.58427    73.8093   6   8   0.0205   0.0815   0.0830   0.0174   0.0611   0.0207   0.00    0.0
2021/10/13 13:07:42.000   28 35 34.11677  -17 55 01.58418    73.8109   6   8   0.0204   0.0812   0.0828   0.0173   0.0608   0.0206   0.00    0.0
2021/10/13 13:08:12.000   28 35 34.11676  -17 55 01.58416    73.8110   6   8   0.0203   0.0807   0.0825   0.0172   0.0604   0.0205   0.00    0.0
2021/10/13 13:08:42.000   28 35 34.11676  -17 55 01.58442    73.8035   6   8   0.0202   0.0799   0.0818   0.0170   0.0597   0.0203   0.00    0.0
2021/10/13 13:09:12.000   28 35 34.11673  -17 55 01.58525    73.7844   6   8   0.0198   0.0780   0.0800   0.0164   0.0580   0.0196   0.00    0.0
2021/10/13 13:09:42.000   28 35 34.11646  -17 55 01.58784    73.7252   6   8   0.0185   0.0729   0.0757   0.0148   0.0540   0.0176   0.00    0.0
2021/10/13 13:10:12.000   28 35 34.11641  -17 55 01.58848    73.7072   6   8   0.0182   0.0715   0.0745   0.0144   0.0529   0.0172   0.00    0.0
2021/10/13 13:10:42.000   28 35 34.11641  -17 55 01.58873    73.7005   6   8   0.0181   0.0709   0.0741   0.0142   0.0524   0.0170   0.00    0.0
2021/10/13 13:11:12.000   28 35 34.11641  -17 55 01.58881    73.6970   6   8   0.0181   0.0706   0.0738   0.0142   0.0522   0.0169   0.00    0.0
2021/10/13 13:11:42.000   28 35 34.11641  -17 55 01.58886    73.6950   6   8   0.0180   0.0704   0.0737   0.0141   0.0519   0.0169   0.00    0.0
2021/10/13 13:12:12.000   28 35 34.11641  -17 55 01.58891    73.6935   6   8   0.0180   0.0702   0.0736   0.0141   0.0518   0.0168   0.00    0.0
2021/10/13 13:12:42.000   28 35 34.11640  -17 55 01.58891    73.6923   6   8   0.0180   0.0699   0.0734   0.0140   0.0516   0.0168   0.00    0.0
2021/10/13 13:13:12.000   28 35 34.11639  -17 55 01.58892    73.6901   6   8   0.0179   0.0696   0.0731   0.0139   0.0512   0.0167   0.00    0.0
2021/10/13 13:13:42.000   28 35 34.11638  -17 55 01.58925    73.6808   6   8   0.0178   0.0689   0.0725   0.0137   0.0506   0.0165   0.00    0.0
2021/10/13 13:14:12.000   28 35 34.11631  -17 55 01.59009    73.6597   6   8   0.0175   0.0672   0.0709   0.0132   0.0490   0.0159   0.00    0.0
2021/10/13 13:14:42.000   28 35 34.11613  -17 55 01.59207    73.6163   6   8   0.0164   0.0627   0.0669   0.0118   0.0450   0.0140   0.00    0.0
2021/10/13 13:15:12.000   28 35 34.11606  -17 55 01.59276    73.6042   6   8   0.0162   0.0615   0.0659   0.0115   0.0440   0.0137   0.00    0.0
2021/10/13 13:15:42.000   28 35 34.11603  -17 55 01.59296    73.6004   6   8   0.0161   0.0611   0.0655   0.0114   0.0436   0.0135   0.00    0.0
2021/10/13 13:16:12.000   28 35 34.11602  -17 55 01.59309    73.5976   6   8   0.0161   0.0608   0.0653   0.0113   0.0433   0.0135   0.00    0.0
2021/10/13 13:16:42.000   28 35 34.11602  -17 55 01.59322    73.5953   6   7   0.0161   0.0606   0.0652   0.0113   0.0432   0.0134   0.00    0.0
2021/10/13 13:17:12.000   28 35 34.11601  -17 55 01.59326    73.5945   6   7   0.0161   0.0605   0.0651   0.0113   0.0431   0.0134   0.00    0.0
2021/10/13 13:17:42.000   28 35 34.11601  -17 55 01.59335    73.5925   6   7   0.0160   0.0603   0.0649   0.0112   0.0429   0.0133   0.00    0.0
2021/10/13 13:18:12.000   28 35 34.11600  -17 55 01.59344    73.5907   6   7   0.0160   0.0600   0.0647   0.0111   0.0426   0.0132   0.00    0.0
2021/10/13 13:18:42.000   28 35 34.11599  -17 55 01.59382    73.5831   6   7   0.0159   0.0595   0.0642   0.0110   0.0421   0.0131   0.00    0.0
2021/10/13 13:19:12.000   28 35 34.11592  -17 55 01.59432    73.5694   6   7   0.0157   0.0581   0.0629   0.0106   0.0407   0.0126   0.00    0.0
2021/10/13 13:19:42.000   28 35 34.11583  -17 55 01.59539    73.5426   6   7   0.0148   0.0543   0.0595   0.0096   0.0371   0.0110   0.00    0.0
2021/10/13 13:20:12.000   28 35 34.11583  -17 55 01.59531    73.5421   6   7   0.0146   0.0533   0.0586   0.0093   0.0362   0.0106   0.00    0.0
2021/10/13 13:20:42.000   28 35 34.11582  -17 55 01.59530    73.5415   6   7   0.0145   0.0530   0.0583   0.0093   0.0359   0.0105   0.00    0.0
2021/10/13 13:21:12.000   28 35 34.11581  -17 55 01.59533    73.5397   6   7   0.0145   0.0528   0.0581   0.0092   0.0357   0.0105   0.00    0.0
2021/10/13 13:21:42.000   28 35 34.11581  -17 55 01.59527    73.5399   6   7   0.0145   0.0527   0.0580   0.0092   0.0356   0.0104   0.00    0.0
2021/10/13 13:22:12.000   28 35 34.11581  -17 55 01.59527    73.5399   6   8   0.0145   0.0526   0.0580   0.0092   0.0355   0.0104   0.00    0.0
2021/10/13 13:22:42.000   28 35 34.11581  -17 55 01.59526    73.5395   6   8   0.0145   0.0524   0.0578   0.0091   0.0353   0.0104   0.00    0.0
2021/10/13 13:23:12.000   28 35 34.11581  -17 55 01.59524    73.5385   6   8   0.0144   0.0522   0.0577   0.0091   0.0351   0.0103   0.00    0.0
2021/10/13 13:23:42.000   28 35 34.11582  -17 55 01.59534    73.5347   6   8   0.0144   0.0518   0.0573   0.0090   0.0347   0.0102   0.00    0.0
2021/10/13 13:24:12.000   28 35 34.11580  -17 55 01.59561    73.5257   6   8   0.0142   0.0507   0.0563   0.0087   0.0335   0.0098   0.00    0.0
2021/10/13 13:24:42.000   28 35 34.11570  -17 55 01.59654    73.5051   6   8   0.0134   0.0475   0.0534   0.0080   0.0304   0.0084   0.00    0.0
2021/10/13 13:25:12.000   28 35 34.11568  -17 55 01.59658    73.5012   6   8   0.0133   0.0467   0.0527   0.0078   0.0296   0.0081   0.00    0.0
2021/10/13 13:25:42.000   28 35 34.11566  -17 55 01.59666    73.4986   6   8   0.0132   0.0465   0.0525   0.0077   0.0294   0.0080   0.00    0.0
2021/10/13 13:26:12.000   28 35 34.11566  -17 55 01.59671    73.4972   6   8   0.0132   0.0463   0.0524   0.0077   0.0292   0.0080   0.00    0.0
2021/10/13 13:26:42.000   28 35 34.11566  -17 55 01.59675    73.4964   6   8   0.0132   0.0462   0.0523   0.0077   0.0291   0.0079   0.00    0.0
2021/10/13 13:27:12.000   28 35 34.11565  -17 55 01.59680    73.4957   6   8   0.0132   0.0461   0.0522   0.0077   0.0290   0.0079   0.00    0.0
2021/10/13 13:27:42.000   28 35 34.11565  -17 55 01.59682    73.4954   6   8   0.0132   0.0460   0.0522   0.0077   0.0289   0.0079   0.00    0.0
2021/10/13 13:28:12.000   28 35 34.11565  -17 55 01.59682    73.4952   6   8   0.0132   0.0458   0.0520   0.0076   0.0288   0.0078   0.00    0.0
2021/10/13 13:28:42.000   28 35 34.11564  -17 55 01.59681    73.4950   6   8   0.0131   0.0455   0.0517   0.0076   0.0284   0.0077   0.00    0.0
2021/10/13 13:29:12.000   28 35 34.11563  -17 55 01.59692    73.4911   6   8   0.0129   0.0446   0.0509   0.0074   0.0274   0.0073   0.00    0.0
2021/10/13 13:29:42.000   28 35 34.11560  -17 55 01.59766    73.4753   6   8   0.0123   0.0421   0.0485   0.0068   0.0247   0.0060   0.00    0.0
2021/10/13 13:30:12.000   28 35 34.11557  -17 55 01.59777    73.4784   6   8   0.0122   0.0415   0.0479   0.0067   0.0240   0.0057   0.00    0.0
2021/10/13 13:30:42.000   28 35 34.11558  -17 55 01.59779    73.4802   6   8   0.0122   0.0412   0.0477   0.0067   0.0238   0.0057   0.00    0.0
2021/10/13 13:31:12.000   28 35 34.11558  -17 55 01.59779    73.4801   6   8   0.0121   0.0411   0.0476   0.0067   0.0237   0.0056   0.00    0.0
2021/10/13 13:31:42.000   28 35 34.11559  -17 55 01.59777    73.4795   6   8   0.0121   0.0410   0.0475   0.0067   0.0236   0.0056   0.00    0.0
2021/10/13 13:32:12.000   28 35 34.11559  -17 55 01.59776    73.4791   6   8   0.0121   0.0410   0.0475   0.0066   0.0235   0.0056   0.00    0.0
2021/10/13 13:32:42.000   28 35 34.11559  -17 55 01.59778    73.4774   6   8   0.0121   0.0409   0.0474   0.0066   0.0235   0.0055   0.00    0.0
2021/10/13 13:33:12.000   28 35 34.11560  -17 55 01.59783    73.4746   6   8   0.0121   0.0407   0.0473   0.0066   0.0233   0.0055   0.00    0.0
2021/10/13 13:33:42.000   28 35 34.11559  -17 55 01.59791    73.4693   6   8   0.0120   0.0405   0.0471   0.0066   0.0230   0.0054   0.00    0.0
2021/10/13 13:34:12.000   28 35 34.11555  -17 55 01.59824    73.4538   6   8   0.0119   0.0398   0.0464   0.0065   0.0222   0.0050   0.00    0.0
2021/10/13 13:34:42.000   28 35 34.11550  -17 55 01.59885    73.4438   6   8   0.0114   0.0377   0.0443   0.0061   0.0198   0.0037   0.00    0.0
2021/10/13 13:35:12.000   28 35 34.11549  -17 55 01.59897    73.4426   6   8   0.0113   0.0372   0.0439   0.0061   0.0193   0.0034   0.00    0.0
2021/10/13 13:35:42.000   28 35 34.11548  -17 55 01.59900    73.4431   6   8   0.0113   0.0370   0.0437   0.0060   0.0191   0.0033   0.00    0.0
2021/10/13 13:36:12.000   28 35 34.11549  -17 55 01.59900    73.4434   6   8   0.0112   0.0370   0.0436   0.0060   0.0190   0.0032   0.00    0.0
2021/10/13 13:36:42.000   28 35 34.11549  -17 55 01.59899    73.4435   6   8   0.0112   0.0369   0.0436   0.0060   0.0189   0.0032   0.00    0.0
2021/10/13 13:37:12.000   28 35 34.11549  -17 55 01.59898    73.4438   6   8   0.0112   0.0368   0.0435   0.0060   0.0188   0.0032   0.00    0.0
2021/10/13 13:37:42.000   28 35 34.11549  -17 55 01.59893    73.4446   6   8   0.0112   0.0368   0.0435   0.0060   0.0188   0.0031   0.00    0.0
2021/10/13 13:38:12.000   28 35 34.11549  -17 55 01.59890    73.4454   6   8   0.0112   0.0367   0.0434   0.0060   0.0187   0.0031   0.00    0.0
2021/10/13 13:38:42.000   28 35 34.11548  -17 55 01.59883    73.4481   6   8   0.0112   0.0365   0.0432   0.0060   0.0184   0.0029   0.00    0.0
2021/10/13 13:39:12.000   28 35 34.11545  -17 55 01.59865    73.4529   6   8   0.0110   0.0359   0.0426   0.0059   0.0177   0.0025   0.00    0.0
2021/10/13 13:39:42.000   28 35 34.11542  -17 55 01.59914    73.4437   6   8   0.0106   0.0342   0.0408   0.0057   0.0156  -0.0013   0.00    0.0
2021/10/13 13:40:12.000   28 35 34.11541  -17 55 01.59924    73.4413   6   8   0.0105   0.0338   0.0404   0.0057   0.0151  -0.0018   0.00    0.0
2021/10/13 13:40:42.000   28 35 34.11540  -17 55 01.59934    73.4396   6   8   0.0105   0.0337   0.0403   0.0057   0.0149  -0.0019   0.00    0.0
2021/10/13 13:41:12.000   28 35 34.11540  -17 55 01.59937    73.4391   6   8   0.0105   0.0336   0.0402   0.0057   0.0148  -0.0020   0.00    0.0
2021/10/13 13:41:42.000   28 35 34.11540  -17 55 01.59938    73.4391   6   8   0.0105   0.0336   0.0402   0.0057   0.0148  -0.0020   0.00    0.0
2021/10/13 13:42:12.000   28 35 34.11540  -17 55 01.59938    73.4391   6   8   0.0105   0.0335   0.0401   0.0057   0.0147  -0.0020   0.00    0.0
2021/10/13 13:42:42.000   28 35 34.11539  -17 55 01.59936    73.4391   6   8   0.0105   0.0335   0.0401   0.0056   0.0147  -0.0021   0.00    0.0
2021/10/13 13:43:12.000   28 35 34.11538  -17 55 01.59936    73.4389   6   8   0.0104   0.0334   0.0400   0.0056   0.0146  -0.0021   0.00    0.0
2021/10/13 13:43:42.000   28 35 34.11537  -17 55 01.59940    73.4376   6   8   0.0104   0.0332   0.0398   0.0056   0.0144  -0.0023   0.00    0.0
2021/10/13 13:44:12.000   28 35 34.11533  -17 55 01.59948    73.4349   6   8   0.0103   0.0328   0.0393   0.0056   0.0138  -0.0026   0.00    0.0
2021/10/13 13:44:42.000   28 35 34.11531  -17 55 01.59983    73.4276   6   8   0.0099   0.0314   0.0379   0.0055   0.0118  -0.0035   0.00    0.0
2021/10/13 13:45:12.000   28 35 34.11531  -17 55 01.59997    73.4275   6   8   0.0099   0.0310   0.0375   0.0054   0.0113  -0.0036   0.00    0.0
2021/10/13 13:45:42.000   28 35 34.11532  -17 55 01.60006    73.4269   6   8   0.0098   0.0309   0.0374   0.0054   0.0111  -0.0037   0.00    0.0
2021/10/13 13:46:12.000   28 35 34.11532  -17 55 01.60009    73.4261   6   8   0.0098   0.0309   0.0373   0.0054   0.0111  -0.0037   0.00    0.0
2021/10/13 13:46:42.000   28 35 34.11532  -17 55 01.60011    73.4255   6   8   0.0098   0.0308   0.0373   0.0054   0.0110  -0.0037   0.00    0.0
2021/10/13 13:47:12.000   28 35 34.11532  -17 55 01.60013    73.4251   6   8   0.0098   0.0308   0.0372   0.0054   0.0110  -0.0037   0.00    0.0
2021/10/13 13:47:42.000   28 35 34.11532  -17 55 01.60015    73.4247   6   8   0.0098   0.0307   0.0372   0.0054   0.0109  -0.0037   0.00    0.0
2021/10/13 13:48:12.000   28 35 34.11532  -17 55 01.60018    73.4240   6   8   0.0098   0.0307   0.0371   0.0054   0.0108  -0.0037   0.00    0.0
2021/10/13 13:48:42.000   28 35 34.11531  -17 55 01.60021    73.4222   6   8   0.0098   0.0306   0.0370   0.0054   0.0106  -0.0038   0.00    0.0
2021/10/13 13:49:12.000   28 35 34.11532  -17 55 01.60033    73.4188   6   8   0.0097   0.0302   0.0365   0.0054   0.0101  -0.0039   0.00    0.0
2021/10/13 13:49:42.000   28 35 34.11533  -17 55 01.60047    73.4166   6   8   0.0094   0.0290   0.0353   0.0053   0.0081  -0.0044   0.00    0.0
2021/10/13 13:50:12.000   28 35 34.11532  -17 55 01.60050    73.4120   6   8   0.0093   0.0287   0.0349   0.0053   0.0076  -0.0044   0.00    0.0
2021/10/13 13:50:42.000   28 35 34.11531  -17 55 01.60048    73.4116   6   8   0.0093   0.0286   0.0348   0.0053   0.0074  -0.0045   0.00    0.0
2021/10/13 13:51:12.000   28 35 34.11531  -17 55 01.60046    73.4117   6   8   0.0093   0.0286   0.0348   0.0053   0.0073  -0.0045   0.00    0.0
2021/10/13 13:51:42.000   28 35 34.11530  -17 55 01.60044    73.4120   6   8   0.0093   0.0286   0.0347   0.0053   0.0072  -0.0045   0.00    0.0
2021/10/13 13:52:12.000   28 35 34.11530  -17 55 01.60041    73.4123   6   8   0.0093   0.0285   0.0347   0.0053   0.0072  -0.0045   0.00    0.0
2021/10/13 13:52:42.000   28 35 34.11530  -17 55 01.60039    73.4128   6   8   0.0092   0.0285   0.0347   0.0053   0.0071  -0.0045   0.00    0.0
2021/10/13 13:53:12.000   28 35 34.11529  -17 55 01.60038    73.4136   6   8   0.0092   0.0284   0.0346   0.0053   0.0070  -0.0045   0.00    0.0
2021/10/13 13:53:42.000   28 35 34.11528  -17 55 01.60038    73.4147   6   8   0.0092   0.0283   0.0345   0.0053   0.0068  -0.0045   0.00    0.0
2021/10/13 13:54:12.000   28 35 34.11528  -17 55 01.60039    73.4153   6   8   0.0091   0.0280   0.0341   0.0053   0.0062  -0.0046   0.00    0.0
2021/10/13 13:54:42.000   28 35 34.11529  -17 55 01.60055    73.4138   6   8   0.0089   0.0270   0.0330   0.0053   0.0036  -0.0048   0.00    0.0
2021/10/13 13:55:12.000   28 35 34.11528  -17 55 01.60049    73.4133   6   8   0.0088   0.0268   0.0327   0.0053   0.0027  -0.0048   0.00    0.0
2021/10/13 13:55:42.000   28 35 34.11528  -17 55 01.60047    73.4130   6   8   0.0088   0.0267   0.0326   0.0053   0.0023  -0.0049   0.00    0.0
2021/10/13 13:56:12.000   28 35 34.11528  -17 55 01.60047    73.4126   6   8   0.0088   0.0267   0.0325   0.0053   0.0021  -0.0049   0.00    0.0
2021/10/13 13:56:42.000   28 35 34.11529  -17 55 01.60046    73.4122   6   8   0.0088   0.0267   0.0325   0.0053   0.0020  -0.0049   0.00    0.0
2021/10/13 13:57:12.000   28 35 34.11529  -17 55 01.60046    73.4122   6   8   0.0088   0.0266   0.0325   0.0053   0.0019  -0.0049   0.00    0.0
2021/10/13 13:57:42.000   28 35 34.11528  -17 55 01.60046    73.4124   6   8   0.0088   0.0266   0.0324   0.0053   0.0017  -0.0049   0.00    0.0
2021/10/13 13:58:12.000   28 35 34.11528  -17 55 01.60047    73.4129   6   8   0.0087   0.0266   0.0324   0.0053   0.0014  -0.0049   0.00    0.0
2021/10/13 13:58:42.000   28 35 34.11528  -17 55 01.60050    73.4135   6   8   0.0087   0.0265   0.0322   0.0053  -0.0003  -0.0049   0.00    0.0
2021/10/13 13:59:12.000   28 35 34.11527  -17 55 01.60050    73.4154   6   8   0.0087   0.0262   0.0319   0.0053  -0.0024  -0.0049   0.00    0.0
2021/10/13 13:59:42.000   28 35 34.11529  -17 55 01.60068    73.4144   6   8   0.0084   0.0254   0.0309   0.0052  -0.0049  -0.0050   0.00    0.0
2021/10/13 14:00:12.000   28 35 34.11532  -17 55 01.60066    73.4131   6   8   0.0084   0.0252   0.0306   0.0052  -0.0053  -0.0051   0.00    0.0
2021/10/13 14:00:42.000   28 35 34.11533  -17 55 01.60065    73.4133   6   8   0.0083   0.0251   0.0305   0.0052  -0.0055  -0.0051   0.00    0.0
2021/10/13 14:01:12.000   28 35 34.11533  -17 55 01.60065    73.4137   6   8   0.0083   0.0251   0.0305   0.0052  -0.0055  -0.0051   0.00    0.0
2021/10/13 14:01:42.000   28 35 34.11533  -17 55 01.60065    73.4139   6   8   0.0083   0.0250   0.0305   0.0052  -0.0055  -0.0051   0.00    0.0
2021/10/13 14:02:12.000   28 35 34.11533  -17 55 01.60065    73.4140   6   8   0.0083   0.0250   0.0304   0.0052  -0.0056  -0.0051   0.00    0.0
2021/10/13 14:02:42.000   28 35 34.11533  -17 55 01.60065    73.4141   6   8   0.0083   0.0250   0.0304   0.0052  -0.0056  -0.0051   0.00    0.0
2021/10/13 14:03:12.000   28 35 34.11533  -17 55 01.60067    73.4142   6   8   0.0083   0.0250   0.0303   0.0052  -0.0057  -0.0051   0.00    0.0
2021/10/13 14:03:42.000   28 35 34.11533  -17 55 01.60072    73.4142   6   8   0.0083   0.0249   0.0302   0.0052  -0.0058  -0.0051   0.00    0.0
2021/10/13 14:04:12.000   28 35 34.11532  -17 55 01.60076    73.4149   6   8   0.0082   0.0247   0.0299   0.0052  -0.0061  -0.0051   0.00    0.0
2021/10/13 14:04:42.000   28 35 34.11532  -17 55 01.60090    73.4156   6   8   0.0080   0.0239   0.0290   0.0052  -0.0071  -0.0052   0.00    0.0
2021/10/13 14:05:12.000   28 35 34.11531  -17 55 01.60090    73.4176   6   8   0.0080   0.0238   0.0288   0.0052  -0.0073  -0.0052   0.00    0.0
2021/10/13 14:05:42.000   28 35 34.11529  -17 55 01.60089    73.4187   6   7   0.0080   0.0237   0.0287   0.0052  -0.0074  -0.0052   0.00    0.0
2021/10/13 14:06:12.000   28 35 34.11529  -17 55 01.60089    73.4189   6   7   0.0079   0.0237   0.0287   0.0052  -0.0074  -0.0052   0.00    0.0
2021/10/13 14:06:42.000   28 35 34.11529  -17 55 01.60088    73.4188   6   7   0.0079   0.0237   0.0287   0.0052  -0.0074  -0.0052   0.00    0.0
2021/10/13 14:07:12.000   28 35 34.11529  -17 55 01.60089    73.4187   6   7   0.0079   0.0237   0.0287   0.0052  -0.0074  -0.0052   0.00    0.0
2021/10/13 14:07:42.000   28 35 34.11528  -17 55 01.60090    73.4186   6   7   0.0079   0.0236   0.0287   0.0052  -0.0074  -0.0052   0.00    0.0
2021/10/13 14:08:12.000   28 35 34.11528  -17 55 01.60093    73.4181   6   7   0.0079   0.0236   0.0287   0.0052  -0.0074  -0.0052   0.00    0.0
2021/10/13 14:08:42.000   28 35 34.11529  -17 55 01.60098    73.4170   6   7   0.0079   0.0235   0.0286   0.0052  -0.0075  -0.0052   0.00    0.0
2021/10/13 14:09:12.000   28 35 34.11527  -17 55 01.60109    73.4151   6   7   0.0079   0.0234   0.0285   0.0052  -0.0076  -0.0052   0.00    0.0
2021/10/13 14:09:42.000   28 35 34.11527  -17 55 01.60122    73.4139   6   7   0.0077   0.0227   0.0279   0.0052  -0.0082  -0.0052   0.00    0.0
2021/10/13 14:10:12.000   28 35 34.11526  -17 55 01.60118    73.4152   6   7   0.0076   0.0226   0.0278   0.0052  -0.0083  -0.0052   0.00    0.0
2021/10/13 14:10:42.000   28 35 34.11527  -17 55 01.60115    73.4155   6   7   0.0076   0.0225   0.0278   0.0052  -0.0084  -0.0052   0.00    0.0
2021/10/13 14:11:12.000   28 35 34.11527  -17 55 01.60117    73.4153   6   7   0.0076   0.0225   0.0278   0.0052  -0.0084  -0.0053   0.00    0.0
2021/10/13 14:11:42.000   28 35 34.11527  -17 55 01.60118    73.4150   6   7   0.0076   0.0225   0.0277   0.0051  -0.0084  -0.0053   0.00    0.0
2021/10/13 14:12:12.000   28 35 34.11527  -17 55 01.60119    73.4149   6   7   0.0076   0.0225   0.0277   0.0051  -0.0084  -0.0053   0.00    0.0
2021/10/13 14:12:42.000   28 35 34.11527  -17 55 01.60120    73.4147   6   7   0.0076   0.0225   0.0277   0.0051  -0.0084  -0.0053   0.00    0.0
2021/10/13 14:13:12.000   28 35 34.11527  -17 55 01.60122    73.4145   6   7   0.0076   0.0224   0.0277   0.0051  -0.0084  -0.0053   0.00    0.0
2021/10/13 14:13:42.000   28 35 34.11527  -17 55 01.60123    73.4142   6   7   0.0076   0.0224   0.0277   0.0051  -0.0085  -0.0053   0.00    0.0
2021/10/13 14:14:12.000   28 35 34.11526  -17 55 01.60124    73.4150   6   7   0.0075   0.0222   0.0275   0.0051  -0.0086  -0.0053   0.00    0.0
2021/10/13 14:14:42.000   28 35 34.11526  -17 55 01.60136    73.4143   6   7   0.0073   0.0217   0.0271   0.0051  -0.0090  -0.0053   0.00    0.0
2021/10/13 14:15:12.000   28 35 34.11527  -17 55 01.60134    73.4147   6   7   0.0073   0.0216   0.0270   0.0051  -0.0091  -0.0053   0.00    0.0
2021/10/13 14:15:42.000   28 35 34.11527  -17 55 01.60132    73.4150   6   7   0.0073   0.0215   0.0270   0.0051  -0.0091  -0.0053   0.00    0.0
2021/10/13 14:16:12.000   28 35 34.11527  -17 55 01.60132    73.4153   6   7   0.0073   0.0215   0.0270   0.0051  -0.0091  -0.0053   0.00    0.0
2021/10/13 14:16:42.000   28 35 34.11527  -17 55 01.60130    73.4154   6   7   0.0073   0.0215   0.0270   0.0051  -0.0091  -0.0053   0.00    0.0
2021/10/13 14:17:12.000   28 35 34.11527  -17 55 01.60130    73.4155   6   7   0.0073   0.0215   0.0270   0.0051  -0.0091  -0.0053   0.00    0.0
2021/10/13 14:17:42.000   28 35 34.11527  -17 55 01.60129    73.4158   6   7   0.0073   0.0215   0.0269   0.0051  -0.0091  -0.0053   0.00    0.0
2021/10/13 14:18:12.000   28 35 34.11526  -17 55 01.60127    73.4161   6   7   0.0073   0.0214   0.0269   0.0051  -0.0091  -0.0053   0.00    0.0
2021/10/13 14:18:42.000   28 35 34.11526  -17 55 01.60127    73.4165   6   7   0.0073   0.0214   0.0269   0.0051  -0.0091  -0.0053   0.00    0.0
2021/10/13 14:19:12.000   28 35 34.11525  -17 55 01.60131    73.4160   6   7   0.0072   0.0213   0.0268   0.0051  -0.0092  -0.0053   0.00    0.0
2021/10/13 14:19:42.000   28 35 34.11525  -17 55 01.60138    73.4146   6   7   0.0071   0.0208   0.0265   0.0051  -0.0096  -0.0053   0.00    0.0
2021/10/13 14:20:12.000   28 35 34.11524  -17 55 01.60135    73.4153   6   7   0.0070   0.0207   0.0264   0.0051  -0.0096  -0.0053   0.00    0.0
2021/10/13 14:20:42.000   28 35 34.11524  -17 55 01.60135    73.4153   6   7   0.0070   0.0207   0.0263   0.0051  -0.0096  -0.0053   0.00    0.0
2021/10/13 14:21:12.000   28 35 34.11524  -17 55 01.60135    73.4151   6   7   0.0070   0.0206   0.0263   0.0051  -0.0096  -0.0053   0.00    0.0
2021/10/13 14:21:42.000   28 35 34.11524  -17 55 01.60134    73.4148   6   7   0.0070   0.0206   0.0263   0.0051  -0.0096  -0.0053   0.00    0.0
2021/10/13 14:22:12.000   28 35 34.11524  -17 55 01.60133    73.4147   6   7   0.0070   0.0206   0.0263   0.0051  -0.0096  -0.0053   0.00    0.0
2021/10/13 14:22:42.000   28 35 34.11525  -17 55 01.60133    73.4145   6   7   0.0070   0.0206   0.0263   0.0051  -0.0096  -0.0053   0.00    0.0
2021/10/13 14:23:12.000   28 35 34.11525  -17 55 01.60132    73.4144   6   7   0.0070   0.0206   0.0263   0.0051  -0.0097  -0.0053   0.00    0.0
2021/10/13 14:23:42.000   28 35 34.11525  -17 55 01.60129    73.4141   6   7   0.0070   0.0205   0.0263   0.0051  -0.0097  -0.0053   0.00    0.0
2021/10/13 14:24:12.000   28 35 34.11527  -17 55 01.60128    73.4135   6   7   0.0069   0.0204   0.0262   0.0051  -0.0098  -0.0054   0.00    0.0
2021/10/13 14:24:42.000   28 35 34.11528  -17 55 01.60141    73.4116   6   7   0.0068   0.0200   0.0259   0.0051  -0.0100  -0.0054   0.00    0.0
2021/10/13 14:25:12.000   28 35 34.11528  -17 55 01.60141    73.4101   6   7   0.0068   0.0199   0.0259   0.0051  -0.0101  -0.0054   0.00    0.0
2021/10/13 14:25:42.000   28 35 34.11527  -17 55 01.60140    73.4094   6   7   0.0068   0.0199   0.0258   0.0051  -0.0101  -0.0054   0.00    0.0
2021/10/13 14:26:12.000   28 35 34.11527  -17 55 01.60140    73.4091   6   7   0.0068   0.0199   0.0258   0.0051  -0.0101  -0.0054   0.00    0.0
2021/10/13 14:26:42.000   28 35 34.11527  -17 55 01.60141    73.4088   6   7   0.0068   0.0199   0.0258   0.0051  -0.0101  -0.0054   0.00    0.0
2021/10/13 14:27:12.000   28 35 34.11527  -17 55 01.60141    73.4087   6   7   0.0068   0.0199   0.0258   0.0051  -0.0101  -0.0054   0.00    0.0
2021/10/13 14:27:42.000   28 35 34.11527  -17 55 01.60141    73.4086   6   7   0.0068   0.0199   0.0258   0.0051  -0.0101  -0.0054   0.00    0.0
2021/10/13 14:28:12.000   28 35 34.11527  -17 55 01.60141    73.4085   6   7   0.0067   0.0199   0.0258   0.0051  -0.0101  -0.0054   0.00    0.0
2021/10/13 14:28:42.000   28 35 34.11526  -17 55 01.60142    73.4082   6   7   0.0067   0.0198   0.0258   0.0051  -0.0101  -0.0054   0.00    0.0
2021/10/13 14:29:12.000   28 35 34.11525  -17 55 01.60145    73.4075   6   7   0.0067   0.0197   0.0257   0.0051  -0.0102  -0.0054   0.00    0.0
2021/10/13 14:29:42.000   28 35 34.11527  -17 55 01.60155    73.4062   6   7   0.0066   0.0194   0.0255   0.0051  -0.0104  -0.0054   0.00    0.0
2021/10/13 14:30:12.000   28 35 34.11528  -17 55 01.60155    73.4063   6   7   0.0065   0.0193   0.0255   0.0051  -0.0104  -0.0054   0.00    0.0
2021/10/13 14:30:42.000   28 35 34.11528  -17 55 01.60155    73.4065   6   7   0.0065   0.0193   0.0255   0.0051  -0.0104  -0.0054   0.00    0.0
2021/10/13 14:31:12.000   28 35 34.11528  -17 55 01.60156    73.4066   6   7   0.0065   0.0193   0.0255   0.0051  -0.0104  -0.0054   0.00    0.0
2021/10/13 14:31:42.000   28 35 34.11529  -17 55 01.60157    73.4068   6   7   0.0065   0.0193   0.0254   0.0051  -0.0104  -0.0054   0.00    0.0
2021/10/13 14:32:12.000   28 35 34.11529  -17 55 01.60157    73.4068   6   7   0.0065   0.0192   0.0254   0.0050  -0.0104  -0.0054   0.00    0.0
2021/10/13 14:32:42.000   28 35 34.11528  -17 55 01.60157    73.4068   6   7   0.0065   0.0192   0.0254   0.0050  -0.0104  -0.0054   0.00    0.0
2021/10/13 14:33:12.000   28 35 34.11528  -17 55 01.60157    73.4067   6   7   0.0065   0.0192   0.0254   0.0050  -0.0104  -0.0054   0.00    0.0
2021/10/13 14:33:42.000   28 35 34.11529  -17 55 01.60158    73.4062   6   7   0.0065   0.0192   0.0254   0.0050  -0.0105  -0.0054   0.00    0.0
2021/10/13 14:34:12.000   28 35 34.11530  -17 55 01.60162    73.4053   6   7   0.0065   0.0191   0.0254   0.0050  -0.0105  -0.0054   0.00    0.0
2021/10/13 14:34:42.000   28 35 34.11531  -17 55 01.60170    73.4045   6   7   0.0064   0.0188   0.0252   0.0050  -0.0107  -0.0054   0.00    0.0
2021/10/13 14:35:12.000   28 35 34.11529  -17 55 01.60168    73.4054   6   7   0.0063   0.0188   0.0252   0.0050  -0.0107  -0.0054   0.00    0.0
2021/10/13 14:35:42.000   28 35 34.11529  -17 55 01.60169    73.4055   6   7   0.0063   0.0187   0.0252   0.0050  -0.0107  -0.0054   0.00    0.0
2021/10/13 14:36:12.000   28 35 34.11529  -17 55 01.60169    73.4054   6   7   0.0063   0.0187   0.0252   0.0050  -0.0107  -0.0054   0.00    0.0
2021/10/13 14:36:42.000   28 35 34.11529  -17 55 01.60170    73.4054   6   7   0.0063   0.0187   0.0252   0.0050  -0.0107  -0.0054   0.00    0.0
2021/10/13 14:37:12.000   28 35 34.11529  -17 55 01.60170    73.4054   6   7   0.0063   0.0187   0.0252   0.0050  -0.0107  -0.0054   0.00    0.0
2021/10/13 14:37:42.000   28 35 34.11529  -17 55 01.60170    73.4053   6   7   0.0063   0.0187   0.0252   0.0050  -0.0107  -0.0054   0.00    0.0
2021/10/13 14:38:12.000   28 35 34.11529  -17 55 01.60170    73.4052   6   8   0.0063   0.0187   0.0252   0.0050  -0.0107  -0.0054   0.00    0.0
2021/10/13 14:38:42.000   28 35 34.11529  -17 55 01.60172    73.4048   6   8   0.0063   0.0187   0.0252   0.0050  -0.0107  -0.0054   0.00    0.0
2021/10/13 14:39:12.000   28 35 34.11528  -17 55 01.60175    73.4050   6   8   0.0063   0.0186   0.0251   0.0050  -0.0108  -0.0054   0.00    0.0
2021/10/13 14:39:42.000   28 35 34.11529  -17 55 01.60181    73.4047   6   9   0.0062   0.0184   0.0250   0.0050  -0.0109  -0.0054   0.00    0.0
2021/10/13 14:40:12.000   28 35 34.11529  -17 55 01.60181    73.4046   6   9   0.0061   0.0183   0.0250   0.0050  -0.0109  -0.0054   0.00    0.0
2021/10/13 14:40:42.000   28 35 34.11529  -17 55 01.60181    73.4045   6   9   0.0061   0.0183   0.0250   0.0050  -0.0109  -0.0054   0.00    0.0
2021/10/13 14:41:12.000   28 35 34.11529  -17 55 01.60181    73.4044   6   9   0.0061   0.0183   0.0250   0.0050  -0.0109  -0.0054   0.00    0.0
2021/10/13 14:41:42.000   28 35 34.11528  -17 55 01.60181    73.4043   6   9   0.0061   0.0183   0.0250   0.0050  -0.0109  -0.0054   0.00    0.0
2021/10/13 14:42:12.000   28 35 34.11528  -17 55 01.60181    73.4042   6   9   0.0061   0.0183   0.0250   0.0050  -0.0109  -0.0054   0.00    0.0
2021/10/13 14:42:42.000   28 35 34.11528  -17 55 01.60181    73.4042   6   9   0.0061   0.0183   0.0250   0.0050  -0.0109  -0.0054   0.00    0.0
2021/10/13 14:43:12.000   28 35 34.11528  -17 55 01.60181    73.4040   6   9   0.0061   0.0182   0.0250   0.0050  -0.0109  -0.0054   0.00    0.0
2021/10/13 14:43:42.000   28 35 34.11527  -17 55 01.60182    73.4039   6   9   0.0061   0.0182   0.0250   0.0050  -0.0110  -0.0054   0.00    0.0
2021/10/13 14:44:12.000   28 35 34.11526  -17 55 01.60181    73.4043   6   9   0.0061   0.0182   0.0250   0.0050  -0.0110  -0.0053   0.00    0.0
2021/10/13 14:44:42.000   28 35 34.11526  -17 55 01.60183    73.4038   6   9   0.0060   0.0180   0.0249   0.0050  -0.0111  -0.0053   0.00    0.0
2021/10/13 14:45:12.000   28 35 34.11526  -17 55 01.60185    73.4030   6   9   0.0060   0.0179   0.0249   0.0050  -0.0111  -0.0053   0.00    0.0
2021/10/13 14:45:42.000   28 35 34.11526  -17 55 01.60183    73.4027   6   9   0.0060   0.0179   0.0249   0.0050  -0.0111  -0.0053   0.00    0.0
2021/10/13 14:46:12.000   28 35 34.11526  -17 55 01.60182    73.4027   6   9   0.0060   0.0179   0.0249   0.0050  -0.0111  -0.0053   0.00    0.0
2021/10/13 14:46:42.000   28 35 34.11526  -17 55 01.60182    73.4029   6   9   0.0060   0.0179   0.0249   0.0050  -0.0111  -0.0053   0.00    0.0
2021/10/13 14:47:12.000   28 35 34.11526  -17 55 01.60183    73.4030   6   9   0.0060   0.0179   0.0249   0.0050  -0.0111  -0.0053   0.00    0.0
2021/10/13 14:47:42.000   28 35 34.11526  -17 55 01.60183    73.4032   6   9   0.0059   0.0179   0.0249   0.0050  -0.0111  -0.0053   0.00    0.0
2021/10/13 14:48:12.000   28 35 34.11526  -17 55 01.60183    73.4035   6   9   0.0059   0.0179   0.0249   0.0050  -0.0111  -0.0053   0.00    0.0
2021/10/13 14:48:42.000   28 35 34.11526  -17 55 01.60182    73.4039   6   9   0.0059   0.0179   0.0248   0.0050  -0.0111  -0.0053   0.00    0.0
2021/10/13 14:49:12.000   28 35 34.11528  -17 55 01.60181    73.4035   6   9   0.0059   0.0178   0.0248   0.0050  -0.0112  -0.0053   0.00    0.0
2021/10/13 14:49:42.000   28 35 34.11528  -17 55 01.60185    73.4026   6   9   0.0058   0.0177   0.0247   0.0050  -0.0113  -0.0053   0.00    0.0
2021/10/13 14:50:12.000   28 35 34.11527  -17 55 01.60184    73.4020   6   9   0.0058   0.0176   0.0247   0.0050  -0.0113  -0.0053   0.00    0.0
2021/10/13 14:50:42.000   28 35 34.11527  -17 55 01.60184    73.4017   6   9   0.0058   0.0176   0.0247   0.0050  -0.0113  -0.0053   0.00    0.0
2021/10/13 14:51:12.000   28 35 34.11527  -17 55 01.60185    73.4015   6   9   0.0058   0.0176   0.0247   0.0050  -0.0113  -0.0053   0.00    0.0
2021/10/13 14:51:42.000   28 35 34.11527  -17 55 01.60184    73.4014   6   9   0.0058   0.0176   0.0247   0.0050  -0.0113  -0.0053   0.00    0.0
2021/10/13 14:52:12.000   28 35 34.11527  -17 55 01.60184    73.4014   6   9   0.0058   0.0176   0.0247   0.0050  -0.0113  -0.0053   0.00    0.0
2021/10/13 14:52:42.000   28 35 34.11527  -17 55 01.60185    73.4016   6   9   0.0058   0.0176   0.0247   0.0050  -0.0113  -0.0053   0.00    0.0
2021/10/13 14:53:12.000   28 35 34.11527  -17 55 01.60185    73.4017   6   9   0.0058   0.0176   0.0247   0.0050  -0.0113  -0.0053   0.00    0.0
2021/10/13 14:53:42.000   28 35 34.11527  -17 55 01.60185    73.4016   6   9   0.0058   0.0176   0.0247   0.0050  -0.0113  -0.0053   0.00    0.0
2021/10/13 14:54:12.000   28 35 34.11527  -17 55 01.60187    73.4013   6   9   0.0058   0.0175   0.0246   0.0050  -0.0113  -0.0052   0.00    0.0
2021/10/13 14:54:42.000   28 35 34.11527  -17 55 01.60189    73.4007   6   9   0.0057   0.0174   0.0245   0.0050  -0.0114  -0.0052   0.00    0.0
2021/10/13 14:55:12.000   28 35 34.11526  -17 55 01.60184    73.4003   6   9   0.0057   0.0174   0.0245   0.0050  -0.0114  -0.0052   0.00    0.0
2021/10/13 14:55:42.000   28 35 34.11526  -17 55 01.60183    73.4006   6   9   0.0057   0.0174   0.0244   0.0050  -0.0114  -0.0052   0.00    0.0
2021/10/13 14:56:12.000   28 35 34.11525  -17 55 01.60183    73.4009   6   9   0.0057   0.0174   0.0244   0.0050  -0.0114  -0.0052   0.00    0.0
2021/10/13 14:56:42.000   28 35 34.11525  -17 55 01.60183    73.4010   6   9   0.0057   0.0174   0.0244   0.0050  -0.0114  -0.0052   0.00    0.0
2021/10/13 14:57:12.000   28 35 34.11525  -17 55 01.60183    73.4010   6   9   0.0057   0.0174   0.0244   0.0050  -0.0114  -0.0052   0.00    0.0
2021/10/13 14:57:42.000   28 35 34.11525  -17 55 01.60183    73.4011   6   9   0.0057   0.0174   0.0244   0.0050  -0.0114  -0.0052   0.00    0.0
2021/10/13 14:58:12.000   28 35 34.11525  -17 55 01.60183    73.4012   6   9   0.0057   0.0174   0.0244   0.0050  -0.0114  -0.0052   0.00    0.0
2021/10/13 14:58:42.000   28 35 34.11525  -17 55 01.60184    73.4013   6   9   0.0057   0.0173   0.0244   0.0050  -0.0114  -0.0052   0.00    0.0
2021/10/13 14:59:12.000   28 35 34.11525  -17 55 01.60184    73.4020   6   9   0.0056   0.0173   0.0243   0.0050  -0.0114  -0.0052   0.00    0.0
2021/10/13 14:59:42.000   28 35 34.11527  -17 55 01.60188    73.4026   6   9   0.0056   0.0172   0.0242   0.0050  -0.0115  -0.0052   0.00    0.0
2021/10/13 15:00:12.000   28 35 34.11526  -17 55 01.60190    73.4014   6   9   0.0056   0.0172   0.0242   0.0050  -0.0115  -0.0051   0.00    0.0
2021/10/13 15:00:42.000   28 35 34.11526  -17 55 01.60191    73.4012   6   9   0.0056   0.0172   0.0242   0.0050  -0.0115  -0.0051   0.00    0.0
2021/10/13 15:01:12.000   28 35 34.11526  -17 55 01.60192    73.4015   6   9   0.0056   0.0172   0.0242   0.0050  -0.0115  -0.0051   0.00    0.0
2021/10/13 15:01:42.000   28 35 34.11526  -17 55 01.60192    73.4016   6   9   0.0055   0.0172   0.0242   0.0050  -0.0115  -0.0051   0.00    0.0
2021/10/13 15:02:12.000   28 35 34.11526  -17 55 01.60193    73.4017   6   9   0.0055   0.0172   0.0241   0.0050  -0.0115  -0.0051   0.00    0.0
2021/10/13 15:02:42.000   28 35 34.11525  -17 55 01.60193    73.4017   6   9   0.0055   0.0172   0.0241   0.0050  -0.0115  -0.0051   0.00    0.0
2021/10/13 15:03:12.000   28 35 34.11525  -17 55 01.60194    73.4016   6   9   0.0055   0.0172   0.0241   0.0050  -0.0115  -0.0051   0.00    0.0
2021/10/13 15:03:42.000   28 35 34.11525  -17 55 01.60194    73.4009   6   9   0.0055   0.0172   0.0241   0.0050  -0.0115  -0.0051   0.00    0.0
2021/10/13 15:04:12.000   28 35 34.11524  -17 55 01.60192    73.3998   6   9   0.0055   0.0171   0.0240   0.0050  -0.0115  -0.0051   0.00    0.0
2021/10/13 15:04:42.000   28 35 34.11525  -17 55 01.60193    73.3989   6   9   0.0055   0.0171   0.0239   0.0050  -0.0116  -0.0051   0.00    0.0
2021/10/13 15:05:12.000   28 35 34.11525  -17 55 01.60193    73.3984   6   9   0.0054   0.0170   0.0238   0.0050  -0.0116  -0.0051   0.00    0.0
2021/10/13 15:05:42.000   28 35 34.11525  -17 55 01.60192    73.3984   6   9   0.0054   0.0170   0.0238   0.0050  -0.0116  -0.0051   0.00    0.0
2021/10/13 15:06:12.000   28 35 34.11525  -17 55 01.60192    73.3986   6   9   0.0054   0.0170   0.0238   0.0050  -0.0116  -0.0051   0.00    0.0
2021/10/13 15:06:42.000   28 35 34.11525  -17 55 01.60192    73.3987   6   9   0.0054   0.0170   0.0238   0.0050  -0.0116  -0.0051   0.00    0.0
2021/10/13 15:07:12.000   28 35 34.11525  -17 55 01.60192    73.3988   6   9   0.0054   0.0170   0.0238   0.0050  -0.0116  -0.0051   0.00    0.0
2021/10/13 15:07:42.000   28 35 34.11525  -17 55 01.60192    73.3988   6   9   0.0054   0.0170   0.0238   0.0050  -0.0116  -0.0051   0.00    0.0
2021/10/13 15:08:12.000   28 35 34.11525  -17 55 01.60192    73.3987   6   9   0.0054   0.0170   0.0238   0.0050  -0.0116  -0.0051   0.00    0.0
2021/10/13 15:08:42.000   28 35 34.11525  -17 55 01.60192    73.3981   6   9   0.0054   0.0170   0.0237   0.0050  -0.0116  -0.0051   0.00    0.0
2021/10/13 15:09:12.000   28 35 34.11524  -17 55 01.60192    73.3971   6   9   0.0054   0.0170   0.0237   0.0050  -0.0116  -0.0050   0.00    0.0
2021/10/13 15:09:42.000   28 35 34.11525  -17 55 01.60193    73.3969   6   9   0.0053   0.0169   0.0235   0.0049  -0.0117  -0.0050   0.00    0.0
2021/10/13 15:10:12.000   28 35 34.11526  -17 55 01.60195    73.3976   6   9   0.0053   0.0169   0.0234   0.0049  -0.0117  -0.0050   0.00    0.0
2021/10/13 15:10:42.000   28 35 34.11526  -17 55 01.60196    73.3984   6   9   0.0053   0.0169   0.0234   0.0049  -0.0117  -0.0050   0.00    0.0
2021/10/13 15:11:12.000   28 35 34.11526  -17 55 01.60197    73.3987   6   9   0.0053   0.0169   0.0234   0.0049  -0.0117  -0.0050   0.00    0.0
2021/10/13 15:11:42.000   28 35 34.11526  -17 55 01.60197    73.3988   6   9   0.0053   0.0169   0.0234   0.0049  -0.0117  -0.0050   0.00    0.0
2021/10/13 15:12:12.000   28 35 34.11526  -17 55 01.60197    73.3989   6   9   0.0053   0.0169   0.0234   0.0049  -0.0117  -0.0050   0.00    0.0
2021/10/13 15:12:42.000   28 35 34.11526  -17 55 01.60198    73.3989   6   8   0.0053   0.0169   0.0233   0.0049  -0.0117  -0.0050   0.00    0.0
2021/10/13 15:13:12.000   28 35 34.11526  -17 55 01.60199    73.3988   6   8   0.0053   0.0169   0.0233   0.0049  -0.0117  -0.0050   0.00    0.0
2021/10/13 15:13:42.000   28 35 34.11526  -17 55 01.60199    73.3982   6   8   0.0053   0.0169   0.0233   0.0049  -0.0117  -0.0050   0.00    0.0
2021/10/13 15:14:12.000   28 35 34.11526  -17 55 01.60198    73.3954   6   8   0.0053   0.0169   0.0232   0.0049  -0.0117  -0.0049   0.00    0.0
2021/10/13 15:14:42.000   28 35 34.11528  -17 55 01.60198    73.3940   6   8   0.0052   0.0168   0.0230   0.0049  -0.0118  -0.0049   0.00    0.0
2021/10/13 15:15:12.000   28 35 34.11528  -17 55 01.60199    73.3955   6   8   0.0052   0.0168   0.0229   0.0049  -0.0118  -0.0049   0.00    0.0
2021/10/13 15:15:42.000   28 35 34.11528  -17 55 01.60200    73.3965   6   8   0.0052   0.0168   0.0229   0.0049  -0.0118  -0.0049   0.00    0.0
2021/10/13 15:16:12.000   28 35 34.11528  -17 55 01.60200    73.3966   6   8   0.0052   0.0168   0.0228   0.0049  -0.0118  -0.0049   0.00    0.0
2021/10/13 15:16:42.000   28 35 34.11528  -17 55 01.60200    73.3967   6   8   0.0052   0.0168   0.0228   0.0049  -0.0118  -0.0049   0.00    0.0
2021/10/13 15:17:12.000   28 35 34.11528  -17 55 01.60200    73.3967   6   8   0.0052   0.0168   0.0228   0.0049  -0.0117  -0.0049   0.00    0.0
2021/10/13 15:17:42.000   28 35 34.11528  -17 55 01.60201    73.3967   6   8   0.0052   0.0168   0.0228   0.0049  -0.0117  -0.0049   0.00    0.0
2021/10/13 15:18:12.000   28 35 34.11528  -17 55 01.60201    73.3967   6   8   0.0052   0.0168   0.0228   0.0049  -0.0117  -0.0048   0.00    0.0
2021/10/13 15:18:42.000   28 35 34.11528  -17 55 01.60202    73.3969   6   8   0.0052   0.0168   0.0227   0.0049  -0.0117  -0.0048   0.00    0.0
2021/10/13 15:19:12.000   28 35 34.11529  -17 55 01.60204    73.3976   6   8   0.0052   0.0168   0.0226   0.0049  -0.0117  -0.0048   0.00    0.0
2021/10/13 15:19:42.000   28 35 34.11530  -17 55 01.60204    73.3981   6   8   0.0051   0.0167   0.0224   0.0048  -0.0118  -0.0047   0.00    0.0
2021/10/13 15:20:12.000   28 35 34.11531  -17 55 01.60203    73.3991   6   8   0.0051   0.0167   0.0223   0.0048  -0.0118  -0.0047   0.00    0.0
2021/10/13 15:20:42.000   28 35 34.11531  -17 55 01.60202    73.3998   6   8   0.0051   0.0167   0.0222   0.0048  -0.0118  -0.0047   0.00    0.0
2021/10/13 15:21:12.000   28 35 34.11531  -17 55 01.60202    73.4004   6   8   0.0051   0.0167   0.0222   0.0048  -0.0118  -0.0047   0.00    0.0
2021/10/13 15:21:42.000   28 35 34.11531  -17 55 01.60202    73.4006   6   8   0.0051   0.0167   0.0222   0.0048  -0.0118  -0.0047   0.00    0.0
2021/10/13 15:22:12.000   28 35 34.11532  -17 55 01.60202    73.4007   6   8   0.0051   0.0167   0.0222   0.0048  -0.0118  -0.0047   0.00    0.0
2021/10/13 15:22:42.000   28 35 34.11532  -17 55 01.60202    73.4008   6   8   0.0051   0.0167   0.0222   0.0048  -0.0118  -0.0047   0.00    0.0
2021/10/13 15:23:12.000   28 35 34.11532  -17 55 01.60202    73.4011   6   8   0.0051   0.0167   0.0222   0.0048  -0.0118  -0.0047   0.00    0.0
2021/10/13 15:23:42.000   28 35 34.11532  -17 55 01.60201    73.4015   6   8   0.0051   0.0167   0.0221   0.0048  -0.0118  -0.0047   0.00    0.0
2021/10/13 15:24:12.000   28 35 34.11533  -17 55 01.60199    73.4028   6   7   0.0051   0.0167   0.0221   0.0048  -0.0118  -0.0047   0.00    0.0
2021/10/13 15:24:42.000   28 35 34.11535  -17 55 01.60199    73.4016   6   7   0.0050   0.0167   0.0219   0.0048  -0.0118  -0.0046   0.00    0.0
2021/10/13 15:25:12.000   28 35 34.11535  -17 55 01.60199    73.4009   6   7   0.0050   0.0166   0.0219   0.0048  -0.0118  -0.0046   0.00    0.0
2021/10/13 15:25:42.000   28 35 34.11536  -17 55 01.60199    73.4008   6   7   0.0050   0.0166   0.0219   0.0048  -0.0118  -0.0046   0.00    0.0
2021/10/13 15:26:12.000   28 35 34.11536  -17 55 01.60200    73.4008   6   7   0.0050   0.0166   0.0218   0.0048  -0.0118  -0.0046   0.00    0.0
2021/10/13 15:26:42.000   28 35 34.11536  -17 55 01.60199    73.4009   6   7   0.0050   0.0166   0.0218   0.0048  -0.0118  -0.0046   0.00    0.0
2021/10/13 15:27:12.000   28 35 34.11536  -17 55 01.60199    73.4009   6   7   0.0050   0.0166   0.0218   0.0048  -0.0118  -0.0046   0.00    0.0
2021/10/13 15:27:42.000   28 35 34.11536  -17 55 01.60199    73.4011   6   7   0.0050   0.0166   0.0218   0.0048  -0.0118  -0.0046   0.00    0.0
2021/10/13 15:28:12.000   28 35 34.11536  -17 55 01.60199    73.4010   6   7   0.0050   0.0166   0.0218   0.0048  -0.0118  -0.0046   0.00    0.0
2021/10/13 15:28:42.000   28 35 34.11536  -17 55 01.60199    73.4009   6   7   0.0050   0.0166   0.0218   0.0048  -0.0118  -0.0045   0.00    0.0
2021/10/13 15:29:12.000   28 35 34.11537  -17 55 01.60199    73.4007   6   7   0.0050   0.0166   0.0218   0.0047  -0.0119  -0.0045   0.00    0.0
2021/10/13 15:29:42.000   28 35 34.11538  -17 55 01.60198    73.4011   6   7   0.0049   0.0166   0.0216   0.0047  -0.0119  -0.0044   0.00    0.0
2021/10/13 15:30:12.000   28 35 34.11538  -17 55 01.60198    73.4015   6   7   0.0049   0.0166   0.0216   0.0047  -0.0119  -0.0044   0.00    0.0
2021/10/13 15:30:42.000   28 35 34.11538  -17 55 01.60198    73.4016   6   7   0.0049   0.0166   0.0216   0.0047  -0.0119  -0.0044   0.00    0.0
2021/10/13 15:31:12.000   28 35 34.11538  -17 55 01.60198    73.4016   6   7   0.0049   0.0166   0.0216   0.0047  -0.0119  -0.0044   0.00    0.0
2021/10/13 15:31:42.000   28 35 34.11538  -17 55 01.60198    73.4017   6   7   0.0049   0.0166   0.0216   0.0047  -0.0119  -0.0044   0.00    0.0
2021/10/13 15:32:12.000   28 35 34.11538  -17 55 01.60199    73.4017   6   7   0.0049   0.0166   0.0216   0.0047  -0.0119  -0.0044   0.00    0.0
2021/10/13 15:32:42.000   28 35 34.11538  -17 55 01.60199    73.4017   6   7   0.0049   0.0166   0.0216   0.0047  -0.0119  -0.0044   0.00    0.0
2021/10/13 15:33:12.000   28 35 34.11539  -17 55 01.60199    73.4016   6   7   0.0049   0.0166   0.0216   0.0047  -0.0119  -0.0044   0.00    0.0
2021/10/13 15:33:42.000   28 35 34.11539  -17 55 01.60198    73.4011   6   7   0.0049   0.0166   0.0215   0.0047  -0.0119  -0.0044   0.00    0.0
2021/10/13 15:34:12.000   28 35 34.11540  -17 55 01.60198    73.4000   6   7   0.0049   0.0165   0.0215   0.0047  -0.0119  -0.0044   0.00    0.0
2021/10/13 15:34:42.000   28 35 34.11540  -17 55 01.60197    73.4000   6   7   0.0048   0.0165   0.0214   0.0046  -0.0119  -0.0043   0.00    0.0
2021/10/13 15:35:12.000   28 35 34.11541  -17 55 01.60198    73.3976   6   7   0.0048   0.0165   0.0213   0.0046  -0.0119  -0.0043   0.00    0.0
