% program   : RTKLIB ver.2.4.2
% inp file  : C:\IPNA\data\OBS\CVBB2770.o
% inp file  : C:\IPNA\data\NAV\CVBB2770.n
% inp file  : C:\IPNA\data\SP3\CVBB2770.sp3
% inp file  : C:\IPNA\data\CLOCK\CVBB2770.clk
% obs start : 2021/10/03 23:59:42.0 UTC (week2178  86400.0s)
% obs end   : 2021/10/04 23:59:12.0 UTC (week2178 172770.0s)
% pos mode  : ppp-static
% solution  : forward
% elev mask : 15.0 deg
% dynamics  : off
% tidecorr  : on
% tropo opt : est ztd
% ephemeris : precise
% antenna1  :                       ( 0.0000  0.0000  0.0000)
%
% (lat/lon/height=WGS84/ellipsoidal,Q=1:fix,2:float,3:sbas,4:dgps,5:single,6:ppp,ns=# of satellites)
%  UTC                     latitude(d'")   longitude(d'")  height(m)   Q  ns   sdn(m)   sde(m)   sdu(m)  sdne(m)  sdeu(m)  sdue(m) age(s)  ratio
2021/10/03 23:59:42.000   28 35 34.08536  -17 55 01.61513    75.9521   6   6   1.6118   1.5053   4.0972  -0.6236  -0.9812  -0.8074   0.00    0.0
2021/10/04 00:00:12.000   28 35 34.08105  -17 55 01.61183    75.3315   6   6   1.1227   1.0607   2.7832  -0.4291  -0.6645  -0.5874   0.00    0.0
2021/10/04 00:00:42.000   28 35 34.08488  -17 55 01.62016    74.5877   6   6   0.9093   0.8642   2.2320  -0.3446  -0.5289  -0.4891   0.00    0.0
2021/10/04 00:01:12.000   28 35 34.09032  -17 55 01.62226    74.5866   6   6   0.7833   0.7473   1.9154  -0.2950  -0.4499  -0.4302   0.00    0.0
2021/10/04 00:01:42.000   28 35 34.08799  -17 55 01.62399    74.6102   6   6   0.6979   0.6676   1.7053  -0.2614  -0.3967  -0.3900   0.00    0.0
2021/10/04 00:02:12.000   28 35 34.08573  -17 55 01.62553    74.4060   6   6   0.6353   0.6089   1.5536  -0.2368  -0.3579  -0.3604   0.00    0.0
2021/10/04 00:02:42.000   28 35 34.08431  -17 55 01.62221    74.1913   6   6   0.5824   0.5624   1.4091  -0.2151  -0.3232  -0.3359   0.00    0.0
2021/10/04 00:03:12.000   28 35 34.08317  -17 55 01.62030    74.2577   6   6   0.5327   0.5239   1.2537  -0.1936  -0.2900  -0.3116   0.00    0.0
2021/10/04 00:03:42.000   28 35 34.08633  -17 55 01.62012    74.2080   6   6   0.4778   0.4900   1.0678  -0.1677  -0.2575  -0.2801   0.00    0.0
2021/10/04 00:04:12.000   28 35 34.09293  -17 55 01.62114    74.2619   6   6   0.4029   0.4569   0.8343  -0.1292  -0.2307  -0.2261   0.00    0.0
2021/10/04 00:04:42.000   28 35 34.10037  -17 55 01.62015    73.9362   6   6   0.3149   0.4225   0.6222  -0.0835  -0.2196  -0.1591   0.00    0.0
2021/10/04 00:05:12.000   28 35 34.10220  -17 55 01.62082    73.8154   6   6   0.2968   0.4031   0.5920  -0.0763  -0.2108  -0.1463   0.00    0.0
2021/10/04 00:05:42.000   28 35 34.10166  -17 55 01.62101    73.8369   6   6   0.2872   0.3876   0.5790  -0.0745  -0.2036  -0.1403   0.00    0.0
2021/10/04 00:06:12.000   28 35 34.10051  -17 55 01.61892    73.8469   6   6   0.2800   0.3742   0.5702  -0.0739  -0.1973  -0.1362   0.00    0.0
2021/10/04 00:06:42.000   28 35 34.10012  -17 55 01.61907    73.8894   6   6   0.2739   0.3622   0.5634  -0.0736  -0.1916  -0.1329   0.00    0.0
2021/10/04 00:07:12.000   28 35 34.09979  -17 55 01.61924    73.9198   6   6   0.2685   0.3513   0.5575  -0.0734  -0.1864  -0.1302   0.00    0.0
2021/10/04 00:07:42.000   28 35 34.09932  -17 55 01.61990    73.9370   6   6   0.2623   0.3411   0.5494  -0.0722  -0.1816  -0.1267   0.00    0.0
2021/10/04 00:08:12.000   28 35 34.09853  -17 55 01.61938    73.9237   6   6   0.2543   0.3313   0.5367  -0.0696  -0.1770  -0.1213   0.00    0.0
2021/10/04 00:08:42.000   28 35 34.09783  -17 55 01.61916    73.8356   6   6   0.2417   0.3212   0.5130  -0.0636  -0.1729  -0.1109   0.00    0.0
2021/10/04 00:09:12.000   28 35 34.09580  -17 55 01.61754    73.8531   6   6   0.2167   0.3088   0.4609  -0.0491  -0.1696  -0.0858   0.00    0.0
2021/10/04 00:09:42.000   28 35 34.10282  -17 55 01.61806    73.6921   6   6   0.1751   0.2909   0.3745  -0.0248  -0.1678  -0.0418   0.00    0.0
2021/10/04 00:10:12.000   28 35 34.10392  -17 55 01.61757    73.6425   6   6   0.1670   0.2826   0.3602  -0.0193  -0.1641  -0.0331   0.00    0.0
2021/10/04 00:10:42.000   28 35 34.10375  -17 55 01.61684    73.6386   6   6   0.1635   0.2765   0.3549  -0.0191  -0.1610  -0.0302   0.00    0.0
2021/10/04 00:11:12.000   28 35 34.10323  -17 55 01.61706    73.6529   6   6   0.1613   0.2711   0.3517  -0.0202  -0.1582  -0.0287   0.00    0.0
2021/10/04 00:11:42.000   28 35 34.10312  -17 55 01.61770    73.6632   6   6   0.1596   0.2662   0.3494  -0.0214  -0.1556  -0.0277   0.00    0.0
2021/10/04 00:12:12.000   28 35 34.10304  -17 55 01.61790    73.6659   6   6   0.1582   0.2616   0.3475  -0.0226  -0.1531  -0.0271   0.00    0.0
2021/10/04 00:12:42.000   28 35 34.10284  -17 55 01.61762    73.6747   6   6   0.1563   0.2571   0.3449  -0.0232  -0.1508  -0.0259   0.00    0.0
2021/10/04 00:13:12.000   28 35 34.10347  -17 55 01.61723    73.6523   6   6   0.1536   0.2525   0.3405  -0.0229  -0.1485  -0.0232   0.00    0.0
2021/10/04 00:13:42.000   28 35 34.10470  -17 55 01.61752    73.6149   6   6   0.1489   0.2474   0.3319  -0.0207  -0.1462  -0.0150   0.00    0.0
2021/10/04 00:14:12.000   28 35 34.10679  -17 55 01.61727    73.5223   6   6   0.1380   0.2404   0.3103  -0.0126  -0.1440   0.0243   0.00    0.0
2021/10/04 00:14:42.000   28 35 34.10947  -17 55 01.61667    73.4908   6   6   0.1163   0.2283   0.2651   0.0103  -0.1414   0.0415   0.00    0.0
2021/10/04 00:15:12.000   28 35 34.11030  -17 55 01.61743    73.5238   6   6   0.1117   0.2233   0.2567   0.0126  -0.1390   0.0425   0.00    0.0
2021/10/04 00:15:42.000   28 35 34.11046  -17 55 01.61782    73.5512   6   6   0.1100   0.2198   0.2536   0.0124  -0.1372   0.0425   0.00    0.0
2021/10/04 00:16:12.000   28 35 34.11032  -17 55 01.61767    73.5643   6   6   0.1089   0.2169   0.2518   0.0116  -0.1355   0.0425   0.00    0.0
2021/10/04 00:16:42.000   28 35 34.11025  -17 55 01.61734    73.5595   6   6   0.1082   0.2143   0.2505   0.0106  -0.1340   0.0424   0.00    0.0
2021/10/04 00:17:12.000   28 35 34.11023  -17 55 01.61774    73.5609   6   6   0.1076   0.2117   0.2495   0.0095  -0.1325   0.0422   0.00    0.0
2021/10/04 00:17:42.000   28 35 34.11028  -17 55 01.61735    73.5524   6   6   0.1068   0.2092   0.2481   0.0085  -0.1311   0.0422   0.00    0.0
2021/10/04 00:18:12.000   28 35 34.11028  -17 55 01.61717    73.5433   6   6   0.1055   0.2066   0.2459   0.0080  -0.1296   0.0423   0.00    0.0
2021/10/04 00:18:42.000   28 35 34.11071  -17 55 01.61707    73.5196   6   6   0.1032   0.2035   0.2415   0.0084  -0.1281   0.0428   0.00    0.0
2021/10/04 00:19:12.000   28 35 34.11142  -17 55 01.61757    73.5120   6   6   0.0976   0.1989   0.2304   0.0104  -0.1263   0.0448   0.00    0.0
2021/10/04 00:19:42.000   28 35 34.11235  -17 55 01.61668    73.4844   6   6   0.0846   0.1902   0.2044   0.0097  -0.1238   0.0476   0.00    0.0
2021/10/04 00:20:12.000   28 35 34.11239  -17 55 01.61623    73.4814   6   6   0.0819   0.1868   0.1991   0.0095  -0.1221   0.0473   0.00    0.0
2021/10/04 00:20:42.000   28 35 34.11232  -17 55 01.61616    73.4864   6   6   0.0809   0.1846   0.1971   0.0091  -0.1209   0.0471   0.00    0.0
2021/10/04 00:21:12.000   28 35 34.11228  -17 55 01.61625    73.4885   6   6   0.0803   0.1828   0.1960   0.0086  -0.1198   0.0469   0.00    0.0
2021/10/04 00:21:42.000   28 35 34.11225  -17 55 01.61631    73.4874   6   6   0.0800   0.1811   0.1952   0.0080  -0.1188   0.0468   0.00    0.0
2021/10/04 00:22:12.000   28 35 34.11223  -17 55 01.61645    73.4893   6   6   0.0796   0.1795   0.1945   0.0074  -0.1178   0.0467   0.00    0.0
2021/10/04 00:22:42.000   28 35 34.11225  -17 55 01.61660    73.4896   6   6   0.0792   0.1779   0.1937   0.0068  -0.1169   0.0465   0.00    0.0
2021/10/04 00:23:12.000   28 35 34.11230  -17 55 01.61637    73.4826   6   6   0.0786   0.1762   0.1924   0.0061  -0.1159   0.0464   0.00    0.0
2021/10/04 00:23:42.000   28 35 34.11245  -17 55 01.61649    73.4785   6   6   0.0773   0.1742   0.1900   0.0052  -0.1149   0.0463   0.00    0.0
2021/10/04 00:24:12.000   28 35 34.11328  -17 55 01.61604    73.4589   6   6   0.0740   0.1709   0.1838  -0.0014  -0.1137   0.0463   0.00    0.0
2021/10/04 00:24:42.000   28 35 34.11402  -17 55 01.61446    73.4582   6   6   0.0660   0.1646   0.1680  -0.0104  -0.1117   0.0467   0.00    0.0
2021/10/04 00:25:12.000   28 35 34.11412  -17 55 01.61408    73.4627   6   6   0.0642   0.1621   0.1647  -0.0113  -0.1105   0.0462   0.00    0.0
2021/10/04 00:25:42.000   28 35 34.11404  -17 55 01.61401    73.4653   6   6   0.0636   0.1606   0.1634  -0.0116  -0.1097   0.0460   0.00    0.0
2021/10/04 00:26:12.000   28 35 34.11402  -17 55 01.61339    73.4625   6   6   0.0632   0.1593   0.1626  -0.0117  -0.1089   0.0459   0.00    0.0
2021/10/04 00:26:42.000   28 35 34.11402  -17 55 01.61304    73.4603   6   6   0.0630   0.1582   0.1621  -0.0118  -0.1082   0.0458   0.00    0.0
2021/10/04 00:27:12.000   28 35 34.11399  -17 55 01.61289    73.4587   6   6   0.0628   0.1571   0.1616  -0.0119  -0.1075   0.0457   0.00    0.0
2021/10/04 00:27:42.000   28 35 34.11392  -17 55 01.61316    73.4659   6   6   0.0626   0.1560   0.1611  -0.0120  -0.1068   0.0456   0.00    0.0
2021/10/04 00:28:12.000   28 35 34.11393  -17 55 01.61313    73.4692   6   6   0.0621   0.1548   0.1602  -0.0122  -0.1061   0.0455   0.00    0.0
2021/10/04 00:28:42.000   28 35 34.11403  -17 55 01.61302    73.4688   6   6   0.0614   0.1533   0.1587  -0.0126  -0.1054   0.0455   0.00    0.0
2021/10/04 00:29:12.000   28 35 34.11372  -17 55 01.61295    73.5024   6   6   0.0594   0.1510   0.1550  -0.0138  -0.1044   0.0455   0.00    0.0
2021/10/04 00:29:42.000   28 35 34.11396  -17 55 01.61216    73.4963   6   6   0.0542   0.1463   0.1450  -0.0175  -0.1030   0.0457   0.00    0.0
2021/10/04 00:30:12.000   28 35 34.11447  -17 55 01.61179    73.4716   6   6   0.0530   0.1444   0.1428  -0.0180  -0.1021   0.0455   0.00    0.0
2021/10/04 00:30:42.000   28 35 34.11466  -17 55 01.61161    73.4663   6   6   0.0525   0.1433   0.1419  -0.0181  -0.1015   0.0454   0.00    0.0
2021/10/04 00:31:12.000   28 35 34.11470  -17 55 01.61143    73.4623   6   6   0.0523   0.1424   0.1414  -0.0181  -0.1010   0.0453   0.00    0.0
2021/10/04 00:31:42.000   28 35 34.11471  -17 55 01.61147    73.4617   6   6   0.0522   0.1416   0.1410  -0.0181  -0.1004   0.0452   0.00    0.0
2021/10/04 00:32:12.000   28 35 34.11474  -17 55 01.61184    73.4682   6   6   0.0520   0.1408   0.1407  -0.0180  -0.0999   0.0451   0.00    0.0
2021/10/04 00:32:42.000   28 35 34.11475  -17 55 01.61220    73.4726   6   6   0.0519   0.1400   0.1403  -0.0180  -0.0994   0.0451   0.00    0.0
2021/10/04 00:33:12.000   28 35 34.11482  -17 55 01.61261    73.4779   6   6   0.0516   0.1391   0.1397  -0.0181  -0.0989   0.0450   0.00    0.0
2021/10/04 00:33:42.000   28 35 34.11497  -17 55 01.61263    73.4731   6   6   0.0511   0.1380   0.1387  -0.0183  -0.0984   0.0449   0.00    0.0
2021/10/04 00:34:12.000   28 35 34.11509  -17 55 01.61246    73.4608   6   6   0.0498   0.1362   0.1364  -0.0192  -0.0977   0.0449   0.00    0.0
2021/10/04 00:34:42.000   28 35 34.11504  -17 55 01.61209    73.4590   6   6   0.0461   0.1326   0.1302  -0.0220  -0.0969   0.0452   0.00    0.0
2021/10/04 00:35:12.000   28 35 34.11494  -17 55 01.61201    73.4566   6   6   0.0453   0.1312   0.1287  -0.0224  -0.0963   0.0450   0.00    0.0
2021/10/04 00:35:42.000   28 35 34.11491  -17 55 01.61212    73.4566   6   6   0.0450   0.1303   0.1281  -0.0225  -0.0959   0.0449   0.00    0.0
2021/10/04 00:36:12.000   28 35 34.11493  -17 55 01.61211    73.4550   6   6   0.0448   0.1296   0.1278  -0.0225  -0.0955   0.0449   0.00    0.0
2021/10/04 00:36:42.000   28 35 34.11494  -17 55 01.61210    73.4541   6   6   0.0447   0.1290   0.1274  -0.0224  -0.0950   0.0448   0.00    0.0
2021/10/04 00:37:12.000   28 35 34.11491  -17 55 01.61200    73.4522   6   6   0.0446   0.1284   0.1272  -0.0224  -0.0946   0.0447   0.00    0.0
2021/10/04 00:37:42.000   28 35 34.11487  -17 55 01.61172    73.4485   6   6   0.0445   0.1278   0.1269  -0.0223  -0.0943   0.0447   0.00    0.0
2021/10/04 00:38:12.000   28 35 34.11482  -17 55 01.61154    73.4479   6   6   0.0443   0.1271   0.1265  -0.0224  -0.0939   0.0446   0.00    0.0
2021/10/04 00:38:42.000   28 35 34.11489  -17 55 01.61156    73.4461   6   6   0.0440   0.1263   0.1259  -0.0225  -0.0935   0.0446   0.00    0.0
2021/10/04 00:39:12.000   28 35 34.11501  -17 55 01.61150    73.4439   6   6   0.0431   0.1249   0.1244  -0.0232  -0.0930   0.0447   0.00    0.0
2021/10/04 00:39:42.000   28 35 34.11505  -17 55 01.61121    73.4478   6   6   0.0406   0.1220   0.1206  -0.0254  -0.0926   0.0451   0.00    0.0
2021/10/04 00:40:12.000   28 35 34.11496  -17 55 01.61113    73.4517   6   6   0.0400   0.1209   0.1197  -0.0258  -0.0922   0.0451   0.00    0.0
2021/10/04 00:40:42.000   28 35 34.11495  -17 55 01.61105    73.4513   6   6   0.0398   0.1202   0.1193  -0.0258  -0.0919   0.0450   0.00    0.0
2021/10/04 00:41:12.000   28 35 34.11494  -17 55 01.61099    73.4509   6   6   0.0397   0.1197   0.1190  -0.0258  -0.0915   0.0450   0.00    0.0
2021/10/04 00:41:42.000   28 35 34.11491  -17 55 01.61113    73.4543   6   6   0.0396   0.1192   0.1187  -0.0258  -0.0912   0.0449   0.00    0.0
2021/10/04 00:42:12.000   28 35 34.11490  -17 55 01.61126    73.4568   6   6   0.0396   0.1187   0.1185  -0.0257  -0.0909   0.0449   0.00    0.0
2021/10/04 00:42:42.000   28 35 34.11489  -17 55 01.61128    73.4567   6   6   0.0395   0.1183   0.1183  -0.0256  -0.0905   0.0448   0.00    0.0
2021/10/04 00:43:12.000   28 35 34.11491  -17 55 01.61123    73.4553   6   6   0.0394   0.1177   0.1180  -0.0256  -0.0902   0.0448   0.00    0.0
2021/10/04 00:43:42.000   28 35 34.11494  -17 55 01.61121    73.4545   6   6   0.0391   0.1170   0.1176  -0.0258  -0.0899   0.0448   0.00    0.0
2021/10/04 00:44:12.000   28 35 34.11510  -17 55 01.61106    73.4486   6   6   0.0385   0.1159   0.1167  -0.0263  -0.0896   0.0449   0.00    0.0
2021/10/04 00:44:42.000   28 35 34.11517  -17 55 01.61057    73.4546   6   6   0.0369   0.1135   0.1145  -0.0281  -0.0894   0.0455   0.00    0.0
2021/10/04 00:45:12.000   28 35 34.11522  -17 55 01.61040    73.4523   6   6   0.0364   0.1125   0.1139  -0.0284  -0.0891   0.0455   0.00    0.0
2021/10/04 00:45:42.000   28 35 34.11520  -17 55 01.61026    73.4501   6   6   0.0363   0.1120   0.1136  -0.0284  -0.0888   0.0455   0.00    0.0
2021/10/04 00:46:12.000   28 35 34.11515  -17 55 01.61012    73.4477   6   6   0.0362   0.1115   0.1134  -0.0284  -0.0885   0.0454   0.00    0.0
2021/10/04 00:46:42.000   28 35 34.11512  -17 55 01.60997    73.4449   6   6   0.0362   0.1111   0.1132  -0.0284  -0.0883   0.0454   0.00    0.0
2021/10/04 00:47:12.000   28 35 34.11514  -17 55 01.60996    73.4445   6   6   0.0361   0.1108   0.1130  -0.0283  -0.0880   0.0453   0.00    0.0
2021/10/04 00:47:42.000   28 35 34.11514  -17 55 01.60997    73.4433   6   6   0.0361   0.1104   0.1128  -0.0282  -0.0877   0.0453   0.00    0.0
2021/10/04 00:48:12.000   28 35 34.11518  -17 55 01.61001    73.4414   6   6   0.0360   0.1099   0.1126  -0.0282  -0.0874   0.0453   0.00    0.0
2021/10/04 00:48:42.000   28 35 34.11526  -17 55 01.60998    73.4355   6   6   0.0358   0.1093   0.1123  -0.0283  -0.0872   0.0453   0.00    0.0
2021/10/04 00:49:12.000   28 35 34.11539  -17 55 01.60989    73.4268   6   6   0.0354   0.1083   0.1118  -0.0287  -0.0869   0.0454   0.00    0.0
2021/10/04 00:49:42.000   28 35 34.11530  -17 55 01.60941    73.4287   6   6   0.0342   0.1060   0.1104  -0.0300  -0.0865   0.0461   0.00    0.0
2021/10/04 00:50:12.000   28 35 34.11515  -17 55 01.60932    73.4368   6   6   0.0340   0.1051   0.1100  -0.0302  -0.0862   0.0461   0.00    0.0
2021/10/04 00:50:42.000   28 35 34.11510  -17 55 01.60934    73.4404   6   6   0.0339   0.1046   0.1098  -0.0302  -0.0860   0.0461   0.00    0.0
2021/10/04 00:51:12.000   28 35 34.11507  -17 55 01.60924    73.4394   6   6   0.0338   0.1043   0.1096  -0.0302  -0.0857   0.0461   0.00    0.0
2021/10/04 00:51:42.000   28 35 34.11505  -17 55 01.60923    73.4392   6   6   0.0338   0.1039   0.1095  -0.0301  -0.0855   0.0461   0.00    0.0
2021/10/04 00:52:12.000   28 35 34.11503  -17 55 01.60919    73.4388   6   6   0.0337   0.1036   0.1093  -0.0300  -0.0852   0.0460   0.00    0.0
2021/10/04 00:52:42.000   28 35 34.11499  -17 55 01.60899    73.4351   6   6   0.0337   0.1033   0.1091  -0.0300  -0.0850   0.0460   0.00    0.0
2021/10/04 00:53:12.000   28 35 34.11497  -17 55 01.60894    73.4343   6   6   0.0336   0.1029   0.1089  -0.0299  -0.0847   0.0459   0.00    0.0
2021/10/04 00:53:42.000   28 35 34.11497  -17 55 01.60891    73.4345   6   6   0.0335   0.1023   0.1087  -0.0299  -0.0845   0.0459   0.00    0.0
2021/10/04 00:54:12.000   28 35 34.11496  -17 55 01.60894    73.4375   6   6   0.0332   0.1013   0.1082  -0.0302  -0.0840   0.0461   0.00    0.0
2021/10/04 00:54:42.000   28 35 34.11504  -17 55 01.60875    73.4354   6   6   0.0324   0.0987   0.1071  -0.0309  -0.0831   0.0465   0.00    0.0
2021/10/04 00:55:12.000   28 35 34.11508  -17 55 01.60862    73.4343   6   6   0.0322   0.0978   0.1067  -0.0310  -0.0827   0.0466   0.00    0.0
2021/10/04 00:55:42.000   28 35 34.11509  -17 55 01.60858    73.4331   6   6   0.0321   0.0974   0.1065  -0.0310  -0.0825   0.0465   0.00    0.0
2021/10/04 00:56:12.000   28 35 34.11511  -17 55 01.60861    73.4334   6   6   0.0320   0.0970   0.1063  -0.0309  -0.0822   0.0465   0.00    0.0
2021/10/04 00:56:42.000   28 35 34.11511  -17 55 01.60864    73.4338   6   6   0.0320   0.0967   0.1062  -0.0308  -0.0820   0.0465   0.00    0.0
2021/10/04 00:57:12.000   28 35 34.11511  -17 55 01.60862    73.4326   6   6   0.0320   0.0965   0.1060  -0.0308  -0.0818   0.0464   0.00    0.0
2021/10/04 00:57:42.000   28 35 34.11513  -17 55 01.60862    73.4316   6   6   0.0319   0.0962   0.1059  -0.0307  -0.0815   0.0464   0.00    0.0
2021/10/04 00:58:12.000   28 35 34.11513  -17 55 01.60856    73.4290   6   6   0.0319   0.0958   0.1057  -0.0306  -0.0813   0.0463   0.00    0.0
2021/10/04 00:58:42.000   28 35 34.11511  -17 55 01.60857    73.4305   6   6   0.0318   0.0953   0.1054  -0.0306  -0.0809   0.0463   0.00    0.0
2021/10/04 00:59:12.000   28 35 34.11507  -17 55 01.60856    73.4383   6   6   0.0316   0.0942   0.1048  -0.0305  -0.0803   0.0463   0.00    0.0
2021/10/04 00:59:42.000   28 35 34.11516  -17 55 01.60807    73.4311   6   6   0.0308   0.0911   0.1033  -0.0305  -0.0784   0.0463   0.00    0.0
2021/10/04 01:00:12.000   28 35 34.11521  -17 55 01.60791    73.4280   6   6   0.0306   0.0901   0.1027  -0.0305  -0.0778   0.0462   0.00    0.0
2021/10/04 01:00:42.000   28 35 34.11522  -17 55 01.60783    73.4260   6   6   0.0306   0.0897   0.1025  -0.0304  -0.0775   0.0461   0.00    0.0
2021/10/04 01:01:12.000   28 35 34.11521  -17 55 01.60767    73.4229   6   6   0.0305   0.0893   0.1023  -0.0303  -0.0772   0.0461   0.00    0.0
2021/10/04 01:01:42.000   28 35 34.11520  -17 55 01.60754    73.4200   6   6   0.0305   0.0891   0.1021  -0.0302  -0.0770   0.0460   0.00    0.0
2021/10/04 01:02:12.000   28 35 34.11520  -17 55 01.60747    73.4188   6   7   0.0305   0.0888   0.1019  -0.0301  -0.0768   0.0459   0.00    0.0
2021/10/04 01:02:42.000   28 35 34.11520  -17 55 01.60744    73.4189   6   7   0.0304   0.0885   0.1017  -0.0300  -0.0765   0.0459   0.00    0.0
2021/10/04 01:03:12.000   28 35 34.11522  -17 55 01.60752    73.4218   6   7   0.0304   0.0881   0.1015  -0.0299  -0.0761   0.0458   0.00    0.0
2021/10/04 01:03:42.000   28 35 34.11524  -17 55 01.60749    73.4211   6   7   0.0303   0.0875   0.1010  -0.0297  -0.0756   0.0457   0.00    0.0
2021/10/04 01:04:12.000   28 35 34.11525  -17 55 01.60736    73.4177   6   7   0.0300   0.0861   0.1000  -0.0294  -0.0745   0.0454   0.00    0.0
2021/10/04 01:04:42.000   28 35 34.11527  -17 55 01.60710    73.4129   6   7   0.0292   0.0824   0.0975  -0.0285  -0.0715   0.0447   0.00    0.0
2021/10/04 01:05:12.000   28 35 34.11530  -17 55 01.60714    73.4191   6   7   0.0290   0.0813   0.0966  -0.0282  -0.0705   0.0444   0.00    0.0
2021/10/04 01:05:42.000   28 35 34.11531  -17 55 01.60718    73.4228   6   7   0.0289   0.0808   0.0962  -0.0280  -0.0700   0.0443   0.00    0.0
2021/10/04 01:06:12.000   28 35 34.11531  -17 55 01.60721    73.4246   6   7   0.0288   0.0805   0.0959  -0.0279  -0.0697   0.0442   0.00    0.0
2021/10/04 01:06:42.000   28 35 34.11531  -17 55 01.60726    73.4265   6   7   0.0288   0.0802   0.0957  -0.0278  -0.0695   0.0441   0.00    0.0
2021/10/04 01:07:12.000   28 35 34.11530  -17 55 01.60728    73.4269   6   7   0.0288   0.0800   0.0955  -0.0277  -0.0692   0.0440   0.00    0.0
2021/10/04 01:07:42.000   28 35 34.11529  -17 55 01.60725    73.4258   6   7   0.0287   0.0797   0.0953  -0.0276  -0.0689   0.0439   0.00    0.0
2021/10/04 01:08:12.000   28 35 34.11526  -17 55 01.60708    73.4215   6   7   0.0286   0.0793   0.0949  -0.0274  -0.0685   0.0437   0.00    0.0
2021/10/04 01:08:42.000   28 35 34.11526  -17 55 01.60702    73.4208   6   7   0.0285   0.0787   0.0941  -0.0271  -0.0678   0.0435   0.00    0.0
2021/10/04 01:09:12.000   28 35 34.11530  -17 55 01.60705    73.4257   6   7   0.0281   0.0772   0.0924  -0.0263  -0.0661   0.0428   0.00    0.0
2021/10/04 01:09:42.000   28 35 34.11526  -17 55 01.60692    73.4143   6   7   0.0270   0.0731   0.0885  -0.0246  -0.0620   0.0411   0.00    0.0
2021/10/04 01:10:12.000   28 35 34.11526  -17 55 01.60688    73.4124   6   7   0.0267   0.0720   0.0872  -0.0241  -0.0607   0.0406   0.00    0.0
2021/10/04 01:10:42.000   28 35 34.11524  -17 55 01.60686    73.4120   6   7   0.0266   0.0715   0.0866  -0.0238  -0.0602   0.0403   0.00    0.0
2021/10/04 01:11:12.000   28 35 34.11523  -17 55 01.60685    73.4115   6   7   0.0265   0.0712   0.0863  -0.0236  -0.0598   0.0402   0.00    0.0
2021/10/04 01:11:42.000   28 35 34.11520  -17 55 01.60675    73.4090   6   7   0.0265   0.0710   0.0860  -0.0235  -0.0596   0.0401   0.00    0.0
2021/10/04 01:12:12.000   28 35 34.11520  -17 55 01.60670    73.4075   6   7   0.0264   0.0708   0.0858  -0.0234  -0.0593   0.0400   0.00    0.0
2021/10/04 01:12:42.000   28 35 34.11519  -17 55 01.60664    73.4058   6   7   0.0264   0.0705   0.0855  -0.0233  -0.0591   0.0399   0.00    0.0
2021/10/04 01:13:12.000   28 35 34.11519  -17 55 01.60658    73.4049   6   7   0.0263   0.0702   0.0851  -0.0231  -0.0586   0.0397   0.00    0.0
2021/10/04 01:13:42.000   28 35 34.11519  -17 55 01.60645    73.4034   6   7   0.0261   0.0696   0.0842  -0.0227  -0.0578   0.0393   0.00    0.0
2021/10/04 01:14:12.000   28 35 34.11526  -17 55 01.60637    73.4073   6   7   0.0256   0.0681   0.0820  -0.0217  -0.0558   0.0383   0.00    0.0
2021/10/04 01:14:42.000   28 35 34.11524  -17 55 01.60604    73.3996   6   7   0.0244   0.0643   0.0774  -0.0196  -0.0514   0.0361   0.00    0.0
2021/10/04 01:15:12.000   28 35 34.11521  -17 55 01.60594    73.3973   6   7   0.0240   0.0632   0.0758  -0.0189  -0.0500   0.0354   0.00    0.0
2021/10/04 01:15:42.000   28 35 34.11522  -17 55 01.60593    73.3983   6   7   0.0239   0.0628   0.0752  -0.0186  -0.0494   0.0351   0.00    0.0
2021/10/04 01:16:12.000   28 35 34.11521  -17 55 01.60587    73.3974   6   7   0.0238   0.0626   0.0748  -0.0184  -0.0491   0.0350   0.00    0.0
2021/10/04 01:16:42.000   28 35 34.11521  -17 55 01.60580    73.3963   6   7   0.0238   0.0624   0.0746  -0.0183  -0.0489   0.0348   0.00    0.0
2021/10/04 01:17:12.000   28 35 34.11521  -17 55 01.60579    73.3965   6   7   0.0237   0.0623   0.0744  -0.0182  -0.0487   0.0348   0.00    0.0
2021/10/04 01:17:42.000   28 35 34.11521  -17 55 01.60582    73.3976   6   7   0.0237   0.0621   0.0741  -0.0181  -0.0484   0.0346   0.00    0.0
2021/10/04 01:18:12.000   28 35 34.11522  -17 55 01.60586    73.3994   6   7   0.0236   0.0618   0.0737  -0.0178  -0.0480   0.0344   0.00    0.0
2021/10/04 01:18:42.000   28 35 34.11524  -17 55 01.60590    73.4035   6   7   0.0234   0.0613   0.0727  -0.0174  -0.0473   0.0340   0.00    0.0
2021/10/04 01:19:12.000   28 35 34.11521  -17 55 01.60592    73.4082   6   7   0.0229   0.0600   0.0706  -0.0164  -0.0454   0.0329   0.00    0.0
2021/10/04 01:19:42.000   28 35 34.11526  -17 55 01.60575    73.4048   6   8   0.0217   0.0567   0.0661  -0.0142  -0.0413   0.0307   0.00    0.0
2021/10/04 01:20:12.000   28 35 34.11528  -17 55 01.60562    73.4006   6   8   0.0213   0.0558   0.0646  -0.0135  -0.0400   0.0300   0.00    0.0
2021/10/04 01:20:42.000   28 35 34.11527  -17 55 01.60557    73.3990   6   8   0.0212   0.0555   0.0640  -0.0132  -0.0395   0.0297   0.00    0.0
2021/10/04 01:21:12.000   28 35 34.11527  -17 55 01.60558    73.3983   6   8   0.0211   0.0553   0.0637  -0.0131  -0.0393   0.0295   0.00    0.0
2021/10/04 01:21:42.000   28 35 34.11527  -17 55 01.60556    73.3983   6   8   0.0211   0.0552   0.0635  -0.0130  -0.0391   0.0294   0.00    0.0
2021/10/04 01:22:12.000   28 35 34.11527  -17 55 01.60555    73.3985   6   8   0.0211   0.0550   0.0633  -0.0129  -0.0389   0.0294   0.00    0.0
2021/10/04 01:22:42.000   28 35 34.11526  -17 55 01.60555    73.3978   6   8   0.0210   0.0549   0.0630  -0.0128  -0.0387   0.0292   0.00    0.0
2021/10/04 01:23:12.000   28 35 34.11523  -17 55 01.60550    73.3952   6   8   0.0209   0.0547   0.0626  -0.0126  -0.0383   0.0290   0.00    0.0
2021/10/04 01:23:42.000   28 35 34.11518  -17 55 01.60540    73.3915   6   8   0.0207   0.0543   0.0617  -0.0122  -0.0377   0.0286   0.00    0.0
2021/10/04 01:24:12.000   28 35 34.11515  -17 55 01.60531    73.3876   6   8   0.0203   0.0533   0.0598  -0.0112  -0.0362   0.0276   0.00    0.0
2021/10/04 01:24:42.000   28 35 34.11514  -17 55 01.60511    73.3806   6   8   0.0192   0.0506   0.0560  -0.0093  -0.0329   0.0256   0.00    0.0
2021/10/04 01:25:12.000   28 35 34.11515  -17 55 01.60499    73.3758   6   8   0.0189   0.0499   0.0547  -0.0086  -0.0318   0.0250   0.00    0.0
2021/10/04 01:25:42.000   28 35 34.11513  -17 55 01.60493    73.3743   6   8   0.0188   0.0496   0.0542  -0.0083  -0.0314   0.0247   0.00    0.0
2021/10/04 01:26:12.000   28 35 34.11513  -17 55 01.60490    73.3736   6   8   0.0187   0.0495   0.0539  -0.0082  -0.0312   0.0246   0.00    0.0
2021/10/04 01:26:42.000   28 35 34.11513  -17 55 01.60488    73.3733   6   8   0.0187   0.0494   0.0537  -0.0081  -0.0311   0.0245   0.00    0.0
2021/10/04 01:27:12.000   28 35 34.11513  -17 55 01.60488    73.3740   6   8   0.0186   0.0493   0.0536  -0.0080  -0.0310   0.0244   0.00    0.0
2021/10/04 01:27:42.000   28 35 34.11514  -17 55 01.60486    73.3752   6   8   0.0186   0.0492   0.0533  -0.0079  -0.0308   0.0243   0.00    0.0
2021/10/04 01:28:12.000   28 35 34.11516  -17 55 01.60484    73.3771   6   8   0.0185   0.0490   0.0530  -0.0077  -0.0305   0.0241   0.00    0.0
2021/10/04 01:28:42.000   28 35 34.11521  -17 55 01.60483    73.3821   6   7   0.0184   0.0487   0.0525  -0.0075  -0.0302   0.0239   0.00    0.0
2021/10/04 01:29:12.000   28 35 34.11528  -17 55 01.60479    73.3872   6   6   0.0182   0.0481   0.0519  -0.0071  -0.0296   0.0235   0.00    0.0
2021/10/04 01:29:42.000   28 35 34.11533  -17 55 01.60462    73.3880   6   6   0.0174   0.0459   0.0502  -0.0060  -0.0278   0.0225   0.00    0.0
2021/10/04 01:30:12.000   28 35 34.11538  -17 55 01.60455    73.3889   6   6   0.0172   0.0454   0.0497  -0.0057  -0.0273   0.0222   0.00    0.0
2021/10/04 01:30:42.000   28 35 34.11541  -17 55 01.60451    73.3894   6   6   0.0171   0.0452   0.0496  -0.0056  -0.0272   0.0221   0.00    0.0
2021/10/04 01:31:12.000   28 35 34.11542  -17 55 01.60450    73.3898   6   6   0.0171   0.0451   0.0495  -0.0055  -0.0271   0.0220   0.00    0.0
2021/10/04 01:31:42.000   28 35 34.11543  -17 55 01.60449    73.3898   6   6   0.0171   0.0451   0.0494  -0.0055  -0.0270   0.0220   0.00    0.0
2021/10/04 01:32:12.000   28 35 34.11542  -17 55 01.60447    73.3897   6   6   0.0171   0.0450   0.0494  -0.0055  -0.0269   0.0220   0.00    0.0
2021/10/04 01:32:42.000   28 35 34.11542  -17 55 01.60444    73.3893   6   6   0.0171   0.0449   0.0493  -0.0054  -0.0269   0.0219   0.00    0.0
2021/10/04 01:33:12.000   28 35 34.11542  -17 55 01.60439    73.3882   6   6   0.0170   0.0448   0.0492  -0.0053  -0.0268   0.0219   0.00    0.0
2021/10/04 01:33:42.000   28 35 34.11543  -17 55 01.60432    73.3860   6   6   0.0169   0.0446   0.0490  -0.0052  -0.0266   0.0217   0.00    0.0
2021/10/04 01:34:12.000   28 35 34.11544  -17 55 01.60420    73.3826   6   6   0.0167   0.0440   0.0485  -0.0048  -0.0261   0.0214   0.00    0.0
2021/10/04 01:34:42.000   28 35 34.11541  -17 55 01.60400    73.3778   6   6   0.0160   0.0421   0.0470  -0.0037  -0.0246   0.0203   0.00    0.0
2021/10/04 01:35:12.000   28 35 34.11543  -17 55 01.60397    73.3780   6   6   0.0158   0.0417   0.0465  -0.0033  -0.0242   0.0201   0.00    0.0
2021/10/04 01:35:42.000   28 35 34.11542  -17 55 01.60393    73.3768   6   6   0.0157   0.0415   0.0464  -0.0032  -0.0241   0.0200   0.00    0.0
2021/10/04 01:36:12.000   28 35 34.11541  -17 55 01.60390    73.3762   6   6   0.0157   0.0414   0.0463  -0.0031  -0.0240   0.0199   0.00    0.0
2021/10/04 01:36:42.000   28 35 34.11541  -17 55 01.60387    73.3759   6   6   0.0157   0.0413   0.0463  -0.0031  -0.0240   0.0199   0.00    0.0
2021/10/04 01:37:12.000   28 35 34.11540  -17 55 01.60386    73.3760   6   6   0.0157   0.0413   0.0462  -0.0031  -0.0239   0.0199   0.00    0.0
2021/10/04 01:37:42.000   28 35 34.11540  -17 55 01.60387    73.3763   6   6   0.0157   0.0412   0.0462  -0.0030  -0.0239   0.0198   0.00    0.0
2021/10/04 01:38:12.000   28 35 34.11539  -17 55 01.60384    73.3762   6   6   0.0156   0.0411   0.0461  -0.0029  -0.0238   0.0198   0.00    0.0
2021/10/04 01:38:42.000   28 35 34.11540  -17 55 01.60383    73.3772   6   6   0.0156   0.0409   0.0459  -0.0028  -0.0236   0.0197   0.00    0.0
2021/10/04 01:39:12.000   28 35 34.11542  -17 55 01.60381    73.3791   6   6   0.0154   0.0404   0.0455  -0.0023  -0.0232   0.0193   0.00    0.0
2021/10/04 01:39:42.000   28 35 34.11540  -17 55 01.60378    73.3764   6   6   0.0147   0.0387   0.0442   0.0011  -0.0221   0.0183   0.00    0.0
2021/10/04 01:40:12.000   28 35 34.11545  -17 55 01.60372    73.3769   6   6   0.0146   0.0383   0.0438   0.0017  -0.0218   0.0181   0.00    0.0
2021/10/04 01:40:42.000   28 35 34.11545  -17 55 01.60372    73.3771   6   6   0.0145   0.0382   0.0437   0.0018  -0.0216   0.0180   0.00    0.0
2021/10/04 01:41:12.000   28 35 34.11546  -17 55 01.60370    73.3772   6   6   0.0145   0.0381   0.0436   0.0019  -0.0216   0.0180   0.00    0.0
2021/10/04 01:41:42.000   28 35 34.11545  -17 55 01.60365    73.3764   6   6   0.0145   0.0381   0.0436   0.0019  -0.0216   0.0179   0.00    0.0
2021/10/04 01:42:12.000   28 35 34.11545  -17 55 01.60361    73.3759   6   6   0.0145   0.0380   0.0436   0.0020  -0.0215   0.0179   0.00    0.0
2021/10/04 01:42:42.000   28 35 34.11545  -17 55 01.60359    73.3756   6   6   0.0144   0.0380   0.0435   0.0020  -0.0215   0.0179   0.00    0.0
2021/10/04 01:43:12.000   28 35 34.11544  -17 55 01.60356    73.3749   6   6   0.0144   0.0379   0.0435   0.0021  -0.0214   0.0178   0.00    0.0
2021/10/04 01:43:42.000   28 35 34.11542  -17 55 01.60353    73.3738   6   6   0.0144   0.0377   0.0433   0.0022  -0.0213   0.0177   0.00    0.0
2021/10/04 01:44:12.000   28 35 34.11541  -17 55 01.60347    73.3724   6   6   0.0142   0.0373   0.0430   0.0025  -0.0210   0.0174   0.00    0.0
2021/10/04 01:44:42.000   28 35 34.11543  -17 55 01.60347    73.3735   6   6   0.0136   0.0358   0.0418   0.0032  -0.0201   0.0165   0.00    0.0
2021/10/04 01:45:12.000   28 35 34.11546  -17 55 01.60342    73.3744   6   6   0.0135   0.0354   0.0416   0.0034  -0.0198   0.0163   0.00    0.0
2021/10/04 01:45:42.000   28 35 34.11546  -17 55 01.60339    73.3744   6   6   0.0134   0.0353   0.0415   0.0034  -0.0198   0.0162   0.00    0.0
2021/10/04 01:46:12.000   28 35 34.11547  -17 55 01.60337    73.3744   6   6   0.0134   0.0352   0.0414   0.0035  -0.0197   0.0162   0.00    0.0
2021/10/04 01:46:42.000   28 35 34.11547  -17 55 01.60334    73.3745   6   6   0.0134   0.0352   0.0414   0.0035  -0.0197   0.0161   0.00    0.0
2021/10/04 01:47:12.000   28 35 34.11547  -17 55 01.60333    73.3746   6   6   0.0134   0.0351   0.0414   0.0035  -0.0197   0.0161   0.00    0.0
2021/10/04 01:47:42.000   28 35 34.11548  -17 55 01.60331    73.3748   6   6   0.0134   0.0351   0.0413   0.0035  -0.0196   0.0161   0.00    0.0
2021/10/04 01:48:12.000   28 35 34.11549  -17 55 01.60328    73.3752   6   6   0.0133   0.0350   0.0413   0.0035  -0.0196   0.0160   0.00    0.0
2021/10/04 01:48:42.000   28 35 34.11550  -17 55 01.60326    73.3762   6   6   0.0133   0.0349   0.0411   0.0036  -0.0195   0.0159   0.00    0.0
2021/10/04 01:49:12.000   28 35 34.11552  -17 55 01.60322    73.3770   6   6   0.0131   0.0344   0.0408   0.0037  -0.0193   0.0157   0.00    0.0
2021/10/04 01:49:42.000   28 35 34.11549  -17 55 01.60303    73.3736   6   6   0.0126   0.0331   0.0398   0.0042  -0.0185   0.0148   0.00    0.0
2021/10/04 01:50:12.000   28 35 34.11550  -17 55 01.60294    73.3733   6   6   0.0125   0.0328   0.0396   0.0043  -0.0183   0.0146   0.00    0.0
2021/10/04 01:50:42.000   28 35 34.11551  -17 55 01.60292    73.3737   6   6   0.0124   0.0327   0.0395   0.0043  -0.0182   0.0145   0.00    0.0
2021/10/04 01:51:12.000   28 35 34.11552  -17 55 01.60288    73.3737   6   6   0.0124   0.0326   0.0395   0.0043  -0.0182   0.0144   0.00    0.0
2021/10/04 01:51:42.000   28 35 34.11552  -17 55 01.60287    73.3736   6   6   0.0124   0.0326   0.0394   0.0043  -0.0182   0.0144   0.00    0.0
2021/10/04 01:52:12.000   28 35 34.11551  -17 55 01.60285    73.3735   6   6   0.0124   0.0325   0.0394   0.0043  -0.0181   0.0144   0.00    0.0
2021/10/04 01:52:42.000   28 35 34.11551  -17 55 01.60285    73.3733   6   6   0.0124   0.0325   0.0394   0.0043  -0.0181   0.0144   0.00    0.0
2021/10/04 01:53:12.000   28 35 34.11551  -17 55 01.60281    73.3733   6   6   0.0124   0.0324   0.0393   0.0043  -0.0181   0.0143   0.00    0.0
2021/10/04 01:53:42.000   28 35 34.11551  -17 55 01.60281    73.3742   6   6   0.0123   0.0323   0.0392   0.0044  -0.0180   0.0143   0.00    0.0
2021/10/04 01:54:12.000   28 35 34.11552  -17 55 01.60284    73.3769   6   6   0.0122   0.0320   0.0390   0.0044  -0.0178   0.0140   0.00    0.0
2021/10/04 01:54:42.000   28 35 34.11551  -17 55 01.60283    73.3768   6   6   0.0118   0.0308   0.0381   0.0047  -0.0172   0.0132   0.00    0.0
2021/10/04 01:55:12.000   28 35 34.11553  -17 55 01.60281    73.3783   6   6   0.0117   0.0305   0.0379   0.0048  -0.0171   0.0130   0.00    0.0
2021/10/04 01:55:42.000   28 35 34.11553  -17 55 01.60281    73.3786   6   6   0.0116   0.0304   0.0378   0.0048  -0.0170   0.0129   0.00    0.0
2021/10/04 01:56:12.000   28 35 34.11553  -17 55 01.60281    73.3788   6   6   0.0116   0.0303   0.0378   0.0048  -0.0170   0.0129   0.00    0.0
2021/10/04 01:56:42.000   28 35 34.11554  -17 55 01.60280    73.3792   6   6   0.0116   0.0303   0.0378   0.0048  -0.0170   0.0129   0.00    0.0
2021/10/04 01:57:12.000   28 35 34.11554  -17 55 01.60278    73.3795   6   6   0.0116   0.0303   0.0378   0.0048  -0.0170   0.0129   0.00    0.0
2021/10/04 01:57:42.000   28 35 34.11554  -17 55 01.60276    73.3796   6   6   0.0116   0.0303   0.0377   0.0048  -0.0170   0.0128   0.00    0.0
2021/10/04 01:58:12.000   28 35 34.11553  -17 55 01.60273    73.3793   6   6   0.0116   0.0302   0.0377   0.0048  -0.0169   0.0128   0.00    0.0
2021/10/04 01:58:42.000   28 35 34.11553  -17 55 01.60270    73.3784   6   6   0.0115   0.0301   0.0376   0.0048  -0.0169   0.0127   0.00    0.0
2021/10/04 01:59:12.000   28 35 34.11551  -17 55 01.60267    73.3767   6   6   0.0114   0.0298   0.0374   0.0049  -0.0167   0.0125   0.00    0.0
2021/10/04 01:59:42.000   28 35 34.11547  -17 55 01.60261    73.3744   6   6   0.0110   0.0287   0.0366   0.0051  -0.0162   0.0117   0.00    0.0
2021/10/04 02:00:12.000   28 35 34.11547  -17 55 01.60259    73.3737   6   6   0.0109   0.0285   0.0364   0.0051  -0.0161   0.0115   0.00    0.0
2021/10/04 02:00:42.000   28 35 34.11547  -17 55 01.60258    73.3732   6   6   0.0109   0.0284   0.0363   0.0051  -0.0161   0.0115   0.00    0.0
2021/10/04 02:01:12.000   28 35 34.11546  -17 55 01.60258    73.3728   6   6   0.0109   0.0284   0.0363   0.0051  -0.0161   0.0114   0.00    0.0
2021/10/04 02:01:42.000   28 35 34.11546  -17 55 01.60257    73.3726   6   6   0.0109   0.0283   0.0363   0.0051  -0.0161   0.0114   0.00    0.0
2021/10/04 02:02:12.000   28 35 34.11546  -17 55 01.60256    73.3727   6   6   0.0109   0.0283   0.0363   0.0051  -0.0160   0.0114   0.00    0.0
2021/10/04 02:02:42.000   28 35 34.11546  -17 55 01.60254    73.3728   6   6   0.0109   0.0283   0.0362   0.0051  -0.0160   0.0114   0.00    0.0
2021/10/04 02:03:12.000   28 35 34.11546  -17 55 01.60253    73.3728   6   6   0.0109   0.0282   0.0362   0.0051  -0.0160   0.0113   0.00    0.0
2021/10/04 02:03:42.000   28 35 34.11546  -17 55 01.60252    73.3724   6   6   0.0108   0.0281   0.0361   0.0051  -0.0160   0.0112   0.00    0.0
2021/10/04 02:04:12.000   28 35 34.11543  -17 55 01.60250    73.3709   6   6   0.0107   0.0279   0.0358   0.0052  -0.0158   0.0110   0.00    0.0
2021/10/04 02:04:42.000   28 35 34.11542  -17 55 01.60244    73.3705   6   6   0.0104   0.0269   0.0352   0.0053  -0.0155   0.0103   0.00    0.0
2021/10/04 02:05:12.000   28 35 34.11545  -17 55 01.60239    73.3731   6   6   0.0103   0.0267   0.0350   0.0053  -0.0154   0.0101   0.00    0.0
2021/10/04 02:05:42.000   28 35 34.11547  -17 55 01.60236    73.3747   6   6   0.0103   0.0266   0.0349   0.0053  -0.0153   0.0101   0.00    0.0
2021/10/04 02:06:12.000   28 35 34.11548  -17 55 01.60235    73.3752   6   6   0.0103   0.0266   0.0349   0.0053  -0.0153   0.0100   0.00    0.0
2021/10/04 02:06:42.000   28 35 34.11548  -17 55 01.60233    73.3752   6   6   0.0103   0.0266   0.0348   0.0053  -0.0153   0.0100   0.00    0.0
2021/10/04 02:07:12.000   28 35 34.11548  -17 55 01.60230    73.3750   6   6   0.0103   0.0266   0.0348   0.0053  -0.0153   0.0100   0.00    0.0
2021/10/04 02:07:42.000   28 35 34.11548  -17 55 01.60228    73.3749   6   6   0.0103   0.0265   0.0348   0.0053  -0.0153   0.0100   0.00    0.0
2021/10/04 02:08:12.000   28 35 34.11549  -17 55 01.60225    73.3749   6   6   0.0103   0.0265   0.0347   0.0053  -0.0153   0.0099   0.00    0.0
2021/10/04 02:08:42.000   28 35 34.11548  -17 55 01.60225    73.3748   6   6   0.0102   0.0264   0.0346   0.0054  -0.0152   0.0099   0.00    0.0
2021/10/04 02:09:12.000   28 35 34.11548  -17 55 01.60224    73.3748   6   5   0.0102   0.0262   0.0345   0.0054  -0.0151   0.0097   0.00    0.0
2021/10/04 02:09:42.000   28 35 34.11547  -17 55 01.60223    73.3731   6   5   0.0099   0.0254   0.0341   0.0054  -0.0149   0.0092   0.00    0.0
2021/10/04 02:10:12.000   28 35 34.11547  -17 55 01.60220    73.3722   6   5   0.0099   0.0252   0.0340   0.0054  -0.0148   0.0091   0.00    0.0
2021/10/04 02:10:42.000   28 35 34.11547  -17 55 01.60220    73.3722   6   5   0.0098   0.0251   0.0340   0.0054  -0.0148   0.0090   0.00    0.0
2021/10/04 02:11:12.000   28 35 34.11547  -17 55 01.60220    73.3722   6   5   0.0098   0.0251   0.0340   0.0054  -0.0148   0.0090   0.00    0.0
2021/10/04 02:11:42.000   28 35 34.11547  -17 55 01.60219    73.3721   6   5   0.0098   0.0251   0.0340   0.0055  -0.0148   0.0090   0.00    0.0
2021/10/04 02:12:12.000   28 35 34.11547  -17 55 01.60217    73.3718   6   5   0.0098   0.0250   0.0340   0.0054  -0.0148   0.0090   0.00    0.0
2021/10/04 02:12:42.000   28 35 34.11546  -17 55 01.60216    73.3714   6   5   0.0098   0.0250   0.0340   0.0055  -0.0148   0.0090   0.00    0.0
2021/10/04 02:13:12.000   28 35 34.11546  -17 55 01.60215    73.3709   6   5   0.0098   0.0250   0.0340   0.0055  -0.0148   0.0089   0.00    0.0
2021/10/04 02:13:42.000   28 35 34.11545  -17 55 01.60215    73.3703   6   5   0.0098   0.0249   0.0339   0.0055  -0.0148   0.0089   0.00    0.0
2021/10/04 02:14:12.000   28 35 34.11543  -17 55 01.60216    73.3698   6   5   0.0097   0.0247   0.0338   0.0055  -0.0147   0.0088   0.00    0.0
2021/10/04 02:14:42.000   28 35 34.11543  -17 55 01.60214    73.3689   6   5   0.0095   0.0240   0.0335   0.0055  -0.0146   0.0082   0.00    0.0
2021/10/04 02:15:12.000   28 35 34.11542  -17 55 01.60215    73.3684   6   5   0.0094   0.0238   0.0334   0.0055  -0.0145   0.0081   0.00    0.0
2021/10/04 02:15:42.000   28 35 34.11541  -17 55 01.60214    73.3683   6   5   0.0094   0.0238   0.0334   0.0055  -0.0145   0.0081   0.00    0.0
2021/10/04 02:16:12.000   28 35 34.11541  -17 55 01.60214    73.3684   6   5   0.0094   0.0237   0.0334   0.0055  -0.0145   0.0081   0.00    0.0
2021/10/04 02:16:42.000   28 35 34.11541  -17 55 01.60214    73.3684   6   5   0.0094   0.0237   0.0334   0.0055  -0.0145   0.0081   0.00    0.0
2021/10/04 02:17:12.000   28 35 34.11541  -17 55 01.60214    73.3684   6   5   0.0094   0.0237   0.0334   0.0055  -0.0145   0.0081   0.00    0.0
2021/10/04 02:17:42.000   28 35 34.11542  -17 55 01.60213    73.3684   6   5   0.0094   0.0237   0.0334   0.0055  -0.0145   0.0080   0.00    0.0
2021/10/04 02:18:12.000   28 35 34.11542  -17 55 01.60212    73.3685   6   5   0.0094   0.0236   0.0334   0.0055  -0.0145   0.0080   0.00    0.0
2021/10/04 02:18:42.000   28 35 34.11542  -17 55 01.60210    73.3681   6   5   0.0094   0.0236   0.0334   0.0055  -0.0145   0.0080   0.00    0.0
2021/10/04 02:19:12.000   28 35 34.11541  -17 55 01.60206    73.3668   6   5   0.0093   0.0234   0.0333   0.0055  -0.0144   0.0079   0.00    0.0
2021/10/04 02:19:42.000   28 35 34.11540  -17 55 01.60207    73.3661   6   5   0.0091   0.0228   0.0330   0.0056  -0.0143   0.0073   0.00    0.0
2021/10/04 02:20:12.000   28 35 34.11541  -17 55 01.60209    73.3666   6   5   0.0090   0.0226   0.0329   0.0056  -0.0143   0.0072   0.00    0.0
2021/10/04 02:20:42.000   28 35 34.11541  -17 55 01.60209    73.3667   6   5   0.0090   0.0226   0.0329   0.0056  -0.0143   0.0072   0.00    0.0
2021/10/04 02:21:12.000   28 35 34.11540  -17 55 01.60208    73.3666   6   5   0.0090   0.0225   0.0329   0.0056  -0.0143   0.0072   0.00    0.0
2021/10/04 02:21:42.000   28 35 34.11540  -17 55 01.60207    73.3665   6   5   0.0090   0.0225   0.0329   0.0056  -0.0143   0.0072   0.00    0.0
2021/10/04 02:22:12.000   28 35 34.11540  -17 55 01.60206    73.3664   6   5   0.0090   0.0225   0.0329   0.0056  -0.0143   0.0072   0.00    0.0
2021/10/04 02:22:42.000   28 35 34.11541  -17 55 01.60206    73.3665   6   5   0.0090   0.0225   0.0329   0.0056  -0.0143   0.0071   0.00    0.0
2021/10/04 02:23:12.000   28 35 34.11541  -17 55 01.60205    73.3667   6   5   0.0090   0.0225   0.0329   0.0056  -0.0143   0.0071   0.00    0.0
2021/10/04 02:23:42.000   28 35 34.11542  -17 55 01.60202    73.3671   6   5   0.0090   0.0224   0.0328   0.0056  -0.0143   0.0071   0.00    0.0
2021/10/04 02:24:12.000   28 35 34.11542  -17 55 01.60202    73.3677   6   5   0.0089   0.0223   0.0328   0.0056  -0.0143   0.0069   0.00    0.0
2021/10/04 02:24:42.000   28 35 34.11541  -17 55 01.60202    73.3668   6   5   0.0087   0.0217   0.0325   0.0056  -0.0142   0.0064   0.00    0.0
2021/10/04 02:25:12.000   28 35 34.11539  -17 55 01.60200    73.3653   6   5   0.0087   0.0216   0.0325   0.0056  -0.0142   0.0063   0.00    0.0
2021/10/04 02:25:42.000   28 35 34.11538  -17 55 01.60201    73.3643   6   5   0.0087   0.0215   0.0325   0.0056  -0.0142   0.0063   0.00    0.0
2021/10/04 02:26:12.000   28 35 34.11537  -17 55 01.60200    73.3639   6   5   0.0087   0.0215   0.0324   0.0056  -0.0142   0.0062   0.00    0.0
2021/10/04 02:26:42.000   28 35 34.11537  -17 55 01.60199    73.3637   6   5   0.0087   0.0215   0.0324   0.0056  -0.0142   0.0062   0.00    0.0
2021/10/04 02:27:12.000   28 35 34.11537  -17 55 01.60198    73.3635   6   5   0.0087   0.0215   0.0324   0.0056  -0.0142   0.0062   0.00    0.0
2021/10/04 02:27:42.000   28 35 34.11536  -17 55 01.60198    73.3634   6   5   0.0087   0.0215   0.0324   0.0056  -0.0142   0.0062   0.00    0.0
2021/10/04 02:28:12.000   28 35 34.11536  -17 55 01.60199    73.3632   6   5   0.0087   0.0215   0.0324   0.0056  -0.0142   0.0062   0.00    0.0
2021/10/04 02:28:42.000   28 35 34.11535  -17 55 01.60201    73.3631   6   5   0.0087   0.0214   0.0324   0.0056  -0.0142   0.0062   0.00    0.0
2021/10/04 02:29:12.000   28 35 34.11534  -17 55 01.60201    73.3627   6   5   0.0086   0.0213   0.0323   0.0056  -0.0142   0.0060   0.00    0.0
2021/10/04 02:29:42.000   28 35 34.11534  -17 55 01.60199    73.3628   6   5   0.0084   0.0208   0.0321   0.0057  -0.0142   0.0055   0.00    0.0
2021/10/04 02:30:12.000   28 35 34.11536  -17 55 01.60199    73.3643   6   5   0.0084   0.0207   0.0320   0.0057  -0.0142   0.0053   0.00    0.0
2021/10/04 02:30:42.000   28 35 34.11537  -17 55 01.60197    73.3649   6   5   0.0084   0.0207   0.0320   0.0057  -0.0142   0.0053   0.00    0.0
2021/10/04 02:31:12.000   28 35 34.11537  -17 55 01.60196    73.3652   6   5   0.0084   0.0206   0.0320   0.0057  -0.0142   0.0053   0.00    0.0
2021/10/04 02:31:42.000   28 35 34.11537  -17 55 01.60196    73.3652   6   5   0.0084   0.0206   0.0320   0.0057  -0.0142   0.0053   0.00    0.0
2021/10/04 02:32:12.000   28 35 34.11537  -17 55 01.60196    73.3653   6   5   0.0084   0.0206   0.0320   0.0057  -0.0142   0.0053   0.00    0.0
2021/10/04 02:32:42.000   28 35 34.11538  -17 55 01.60196    73.3653   6   5   0.0084   0.0206   0.0320   0.0057  -0.0142   0.0052   0.00    0.0
2021/10/04 02:33:12.000   28 35 34.11538  -17 55 01.60195    73.3654   6   5   0.0084   0.0206   0.0320   0.0057  -0.0142   0.0052   0.00    0.0
2021/10/04 02:33:42.000   28 35 34.11537  -17 55 01.60193    73.3648   6   5   0.0083   0.0205   0.0320   0.0057  -0.0142   0.0052   0.00    0.0
2021/10/04 02:34:12.000   28 35 34.11536  -17 55 01.60191    73.3632   6   5   0.0083   0.0204   0.0319   0.0057  -0.0142   0.0050   0.00    0.0
2021/10/04 02:34:42.000   28 35 34.11536  -17 55 01.60193    73.3630   6   5   0.0082   0.0200   0.0317   0.0057  -0.0143   0.0044   0.00    0.0
2021/10/04 02:35:12.000   28 35 34.11536  -17 55 01.60196    73.3635   6   5   0.0081   0.0199   0.0316   0.0057  -0.0143   0.0043   0.00    0.0
2021/10/04 02:35:42.000   28 35 34.11536  -17 55 01.60197    73.3637   6   5   0.0081   0.0199   0.0316   0.0057  -0.0143   0.0042   0.00    0.0
2021/10/04 02:36:12.000   28 35 34.11536  -17 55 01.60196    73.3638   6   5   0.0081   0.0199   0.0316   0.0057  -0.0143   0.0042   0.00    0.0
2021/10/04 02:36:42.000   28 35 34.11536  -17 55 01.60196    73.3637   6   5   0.0081   0.0199   0.0316   0.0057  -0.0143   0.0042   0.00    0.0
2021/10/04 02:37:12.000   28 35 34.11536  -17 55 01.60195    73.3637   6   5   0.0081   0.0199   0.0316   0.0057  -0.0143   0.0042   0.00    0.0
2021/10/04 02:37:42.000   28 35 34.11536  -17 55 01.60195    73.3635   6   5   0.0081   0.0198   0.0316   0.0057  -0.0143   0.0042   0.00    0.0
2021/10/04 02:38:12.000   28 35 34.11535  -17 55 01.60194    73.3631   6   5   0.0081   0.0198   0.0316   0.0057  -0.0143   0.0042   0.00    0.0
2021/10/04 02:38:42.000   28 35 34.11535  -17 55 01.60195    73.3626   6   5   0.0081   0.0198   0.0316   0.0057  -0.0143   0.0041   0.00    0.0
2021/10/04 02:39:12.000   28 35 34.11534  -17 55 01.60196    73.3623   6   5   0.0080   0.0197   0.0315   0.0057  -0.0143   0.0039   0.00    0.0
2021/10/04 02:39:42.000   28 35 34.11534  -17 55 01.60196    73.3618   6   5   0.0079   0.0194   0.0313   0.0058  -0.0144   0.0032   0.00    0.0
2021/10/04 02:40:12.000   28 35 34.11531  -17 55 01.60198    73.3593   6   5   0.0079   0.0193   0.0312   0.0058  -0.0144   0.0031   0.00    0.0
2021/10/04 02:40:42.000   28 35 34.11531  -17 55 01.60197    73.3586   6   5   0.0079   0.0192   0.0312   0.0058  -0.0144   0.0030   0.00    0.0
2021/10/04 02:41:12.000   28 35 34.11531  -17 55 01.60196    73.3584   6   5   0.0079   0.0192   0.0312   0.0058  -0.0144   0.0030   0.00    0.0
2021/10/04 02:41:42.000   28 35 34.11531  -17 55 01.60196    73.3584   6   5   0.0079   0.0192   0.0312   0.0058  -0.0144   0.0030   0.00    0.0
2021/10/04 02:42:12.000   28 35 34.11531  -17 55 01.60195    73.3585   6   5   0.0079   0.0192   0.0312   0.0058  -0.0144   0.0029   0.00    0.0
2021/10/04 02:42:42.000   28 35 34.11531  -17 55 01.60195    73.3587   6   5   0.0079   0.0192   0.0312   0.0058  -0.0144   0.0029   0.00    0.0
2021/10/04 02:43:12.000   28 35 34.11532  -17 55 01.60195    73.3591   6   5   0.0078   0.0192   0.0312   0.0058  -0.0144   0.0029   0.00    0.0
2021/10/04 02:43:42.000   28 35 34.11533  -17 55 01.60194    73.3602   6   5   0.0078   0.0192   0.0312   0.0058  -0.0144   0.0028   0.00    0.0
2021/10/04 02:44:12.000   28 35 34.11534  -17 55 01.60194    73.3618   6   5   0.0078   0.0191   0.0311   0.0058  -0.0144   0.0026   0.00    0.0
2021/10/04 02:44:42.000   28 35 34.11534  -17 55 01.60192    73.3618   6   5   0.0077   0.0188   0.0309   0.0058  -0.0145   0.0015   0.00    0.0
2021/10/04 02:45:12.000   28 35 34.11535  -17 55 01.60191    73.3621   6   5   0.0077   0.0187   0.0309   0.0058  -0.0145   0.0011   0.00    0.0
2021/10/04 02:45:42.000   28 35 34.11535  -17 55 01.60189    73.3621   6   5   0.0076   0.0187   0.0308   0.0058  -0.0145   0.0010   0.00    0.0
2021/10/04 02:46:12.000   28 35 34.11535  -17 55 01.60189    73.3621   6   5   0.0076   0.0187   0.0308   0.0058  -0.0145   0.0009   0.00    0.0
2021/10/04 02:46:42.000   28 35 34.11535  -17 55 01.60188    73.3620   6   5   0.0076   0.0187   0.0308   0.0058  -0.0145   0.0009   0.00    0.0
2021/10/04 02:47:12.000   28 35 34.11535  -17 55 01.60188    73.3620   6   5   0.0076   0.0187   0.0308   0.0058  -0.0145   0.0008   0.00    0.0
2021/10/04 02:47:42.000   28 35 34.11535  -17 55 01.60187    73.3619   6   6   0.0076   0.0187   0.0308   0.0058  -0.0145   0.0008   0.00    0.0
2021/10/04 02:48:12.000   28 35 34.11535  -17 55 01.60187    73.3617   6   6   0.0076   0.0187   0.0308   0.0058  -0.0145   0.0006   0.00    0.0
2021/10/04 02:48:42.000   28 35 34.11535  -17 55 01.60186    73.3616   6   6   0.0076   0.0186   0.0308   0.0058  -0.0145   0.0002   0.00    0.0
2021/10/04 02:49:12.000   28 35 34.11534  -17 55 01.60187    73.3608   6   6   0.0076   0.0186   0.0307   0.0058  -0.0145  -0.0010   0.00    0.0
2021/10/04 02:49:42.000   28 35 34.11533  -17 55 01.60186    73.3605   6   6   0.0075   0.0183   0.0305   0.0059  -0.0146  -0.0022   0.00    0.0
2021/10/04 02:50:12.000   28 35 34.11534  -17 55 01.60186    73.3613   6   6   0.0075   0.0183   0.0305   0.0059  -0.0146  -0.0024   0.00    0.0
2021/10/04 02:50:42.000   28 35 34.11534  -17 55 01.60185    73.3612   6   6   0.0075   0.0182   0.0305   0.0059  -0.0146  -0.0024   0.00    0.0
2021/10/04 02:51:12.000   28 35 34.11534  -17 55 01.60185    73.3613   6   6   0.0074   0.0182   0.0305   0.0059  -0.0146  -0.0025   0.00    0.0
2021/10/04 02:51:42.000   28 35 34.11534  -17 55 01.60185    73.3612   6   6   0.0074   0.0182   0.0304   0.0059  -0.0146  -0.0025   0.00    0.0
2021/10/04 02:52:12.000   28 35 34.11534  -17 55 01.60184    73.3611   6   6   0.0074   0.0182   0.0304   0.0059  -0.0146  -0.0025   0.00    0.0
2021/10/04 02:52:42.000   28 35 34.11534  -17 55 01.60183    73.3611   6   6   0.0074   0.0182   0.0304   0.0059  -0.0146  -0.0025   0.00    0.0
2021/10/04 02:53:12.000   28 35 34.11535  -17 55 01.60182    73.3613   6   6   0.0074   0.0182   0.0304   0.0059  -0.0147  -0.0025   0.00    0.0
2021/10/04 02:53:42.000   28 35 34.11535  -17 55 01.60180    73.3616   6   6   0.0074   0.0182   0.0304   0.0059  -0.0147  -0.0026   0.00    0.0
2021/10/04 02:54:12.000   28 35 34.11536  -17 55 01.60180    73.3623   6   6   0.0074   0.0181   0.0303   0.0059  -0.0147  -0.0028   0.00    0.0
2021/10/04 02:54:42.000   28 35 34.11536  -17 55 01.60180    73.3624   6   6   0.0073   0.0179   0.0301   0.0060  -0.0148  -0.0033   0.00    0.0
2021/10/04 02:55:12.000   28 35 34.11535  -17 55 01.60182    73.3615   6   6   0.0073   0.0179   0.0301   0.0060  -0.0148  -0.0034   0.00    0.0
2021/10/04 02:55:42.000   28 35 34.11536  -17 55 01.60181    73.3618   6   6   0.0073   0.0179   0.0301   0.0060  -0.0148  -0.0035   0.00    0.0
2021/10/04 02:56:12.000   28 35 34.11536  -17 55 01.60180    73.3623   6   6   0.0073   0.0179   0.0301   0.0060  -0.0148  -0.0035   0.00    0.0
2021/10/04 02:56:42.000   28 35 34.11536  -17 55 01.60180    73.3625   6   6   0.0073   0.0179   0.0300   0.0060  -0.0148  -0.0035   0.00    0.0
2021/10/04 02:57:12.000   28 35 34.11536  -17 55 01.60180    73.3626   6   7   0.0073   0.0178   0.0300   0.0060  -0.0148  -0.0035   0.00    0.0
2021/10/04 02:57:42.000   28 35 34.11536  -17 55 01.60180    73.3626   6   7   0.0073   0.0178   0.0300   0.0060  -0.0148  -0.0035   0.00    0.0
2021/10/04 02:58:12.000   28 35 34.11536  -17 55 01.60179    73.3626   6   7   0.0073   0.0178   0.0300   0.0060  -0.0148  -0.0035   0.00    0.0
2021/10/04 02:58:42.000   28 35 34.11537  -17 55 01.60177    73.3633   6   7   0.0073   0.0178   0.0300   0.0060  -0.0148  -0.0036   0.00    0.0
2021/10/04 02:59:12.000   28 35 34.11539  -17 55 01.60175    73.3656   6   7   0.0072   0.0178   0.0299   0.0060  -0.0148  -0.0037   0.00    0.0
2021/10/04 02:59:42.000   28 35 34.11538  -17 55 01.60173    73.3651   6   7   0.0071   0.0176   0.0297   0.0060  -0.0149  -0.0041   0.00    0.0
2021/10/04 03:00:12.000   28 35 34.11539  -17 55 01.60172    73.3662   6   7   0.0071   0.0176   0.0297   0.0060  -0.0149  -0.0041   0.00    0.0
2021/10/04 03:00:42.000   28 35 34.11539  -17 55 01.60170    73.3665   6   7   0.0071   0.0176   0.0296   0.0060  -0.0149  -0.0042   0.00    0.0
2021/10/04 03:01:12.000   28 35 34.11539  -17 55 01.60170    73.3665   6   7   0.0071   0.0176   0.0296   0.0060  -0.0149  -0.0042   0.00    0.0
2021/10/04 03:01:42.000   28 35 34.11539  -17 55 01.60169    73.3664   6   7   0.0071   0.0176   0.0296   0.0060  -0.0149  -0.0042   0.00    0.0
2021/10/04 03:02:12.000   28 35 34.11538  -17 55 01.60169    73.3664   6   7   0.0071   0.0175   0.0296   0.0060  -0.0149  -0.0042   0.00    0.0
2021/10/04 03:02:42.000   28 35 34.11538  -17 55 01.60168    73.3664   6   7   0.0071   0.0175   0.0296   0.0060  -0.0149  -0.0042   0.00    0.0
2021/10/04 03:03:12.000   28 35 34.11539  -17 55 01.60167    73.3665   6   7   0.0071   0.0175   0.0296   0.0060  -0.0149  -0.0042   0.00    0.0
2021/10/04 03:03:42.000   28 35 34.11539  -17 55 01.60166    73.3669   6   7   0.0071   0.0175   0.0296   0.0060  -0.0149  -0.0042   0.00    0.0
2021/10/04 03:04:12.000   28 35 34.11539  -17 55 01.60164    73.3668   6   7   0.0071   0.0175   0.0295   0.0061  -0.0150  -0.0043   0.00    0.0
2021/10/04 03:04:42.000   28 35 34.11538  -17 55 01.60164    73.3662   6   7   0.0070   0.0174   0.0293   0.0061  -0.0150  -0.0046   0.00    0.0
2021/10/04 03:05:12.000   28 35 34.11538  -17 55 01.60165    73.3658   6   7   0.0070   0.0173   0.0292   0.0061  -0.0150  -0.0046   0.00    0.0
2021/10/04 03:05:42.000   28 35 34.11538  -17 55 01.60165    73.3659   6   7   0.0070   0.0173   0.0292   0.0061  -0.0151  -0.0047   0.00    0.0
2021/10/04 03:06:12.000   28 35 34.11538  -17 55 01.60164    73.3655   6   7   0.0070   0.0173   0.0292   0.0061  -0.0151  -0.0047   0.00    0.0
2021/10/04 03:06:42.000   28 35 34.11538  -17 55 01.60164    73.3655   6   7   0.0070   0.0173   0.0292   0.0061  -0.0151  -0.0047   0.00    0.0
2021/10/04 03:07:12.000   28 35 34.11538  -17 55 01.60164    73.3653   6   7   0.0070   0.0173   0.0292   0.0061  -0.0151  -0.0047   0.00    0.0
2021/10/04 03:07:42.000   28 35 34.11538  -17 55 01.60163    73.3652   6   7   0.0070   0.0173   0.0292   0.0061  -0.0151  -0.0047   0.00    0.0
2021/10/04 03:08:12.000   28 35 34.11539  -17 55 01.60162    73.3650   6   7   0.0070   0.0173   0.0292   0.0061  -0.0151  -0.0047   0.00    0.0
2021/10/04 03:08:42.000   28 35 34.11539  -17 55 01.60160    73.3647   6   7   0.0070   0.0173   0.0291   0.0061  -0.0151  -0.0047   0.00    0.0
2021/10/04 03:09:12.000   28 35 34.11539  -17 55 01.60158    73.3652   6   7   0.0069   0.0173   0.0291   0.0061  -0.0151  -0.0048   0.00    0.0
2021/10/04 03:09:42.000   28 35 34.11538  -17 55 01.60158    73.3640   6   7   0.0069   0.0172   0.0289   0.0062  -0.0151  -0.0050   0.00    0.0
2021/10/04 03:10:12.000   28 35 34.11537  -17 55 01.60158    73.3638   6   7   0.0069   0.0171   0.0288   0.0062  -0.0152  -0.0050   0.00    0.0
2021/10/04 03:10:42.000   28 35 34.11537  -17 55 01.60158    73.3641   6   7   0.0068   0.0171   0.0288   0.0062  -0.0152  -0.0050   0.00    0.0
2021/10/04 03:11:12.000   28 35 34.11537  -17 55 01.60157    73.3639   6   7   0.0068   0.0171   0.0288   0.0062  -0.0152  -0.0050   0.00    0.0
2021/10/04 03:11:42.000   28 35 34.11537  -17 55 01.60157    73.3636   6   7   0.0068   0.0171   0.0288   0.0062  -0.0152  -0.0050   0.00    0.0
2021/10/04 03:12:12.000   28 35 34.11537  -17 55 01.60157    73.3634   6   8   0.0068   0.0171   0.0288   0.0062  -0.0152  -0.0050   0.00    0.0
2021/10/04 03:12:42.000   28 35 34.11537  -17 55 01.60156    73.3632   6   8   0.0068   0.0171   0.0288   0.0062  -0.0152  -0.0050   0.00    0.0
2021/10/04 03:13:12.000   28 35 34.11537  -17 55 01.60156    73.3629   6   8   0.0068   0.0171   0.0287   0.0062  -0.0152  -0.0050   0.00    0.0
2021/10/04 03:13:42.000   28 35 34.11536  -17 55 01.60155    73.3629   6   8   0.0068   0.0171   0.0287   0.0062  -0.0152  -0.0050   0.00    0.0
2021/10/04 03:14:12.000   28 35 34.11536  -17 55 01.60154    73.3638   6   8   0.0068   0.0171   0.0286   0.0062  -0.0152  -0.0051   0.00    0.0
2021/10/04 03:14:42.000   28 35 34.11535  -17 55 01.60156    73.3627   6   8   0.0068   0.0170   0.0285   0.0062  -0.0152  -0.0052   0.00    0.0
2021/10/04 03:15:12.000   28 35 34.11534  -17 55 01.60155    73.3626   6   8   0.0067   0.0170   0.0284   0.0062  -0.0152  -0.0053   0.00    0.0
2021/10/04 03:15:42.000   28 35 34.11534  -17 55 01.60155    73.3629   6   8   0.0067   0.0170   0.0284   0.0062  -0.0153  -0.0053   0.00    0.0
2021/10/04 03:16:12.000   28 35 34.11534  -17 55 01.60155    73.3630   6   8   0.0067   0.0170   0.0284   0.0062  -0.0153  -0.0053   0.00    0.0
2021/10/04 03:16:42.000   28 35 34.11534  -17 55 01.60155    73.3631   6   8   0.0067   0.0170   0.0284   0.0062  -0.0153  -0.0053   0.00    0.0
2021/10/04 03:17:12.000   28 35 34.11534  -17 55 01.60154    73.3630   6   8   0.0067   0.0170   0.0284   0.0062  -0.0153  -0.0053   0.00    0.0
2021/10/04 03:17:42.000   28 35 34.11534  -17 55 01.60154    73.3629   6   8   0.0067   0.0170   0.0284   0.0062  -0.0153  -0.0053   0.00    0.0
2021/10/04 03:18:12.000   28 35 34.11534  -17 55 01.60154    73.3627   6   8   0.0067   0.0170   0.0283   0.0062  -0.0153  -0.0053   0.00    0.0
2021/10/04 03:18:42.000   28 35 34.11534  -17 55 01.60153    73.3624   6   8   0.0067   0.0170   0.0283   0.0062  -0.0153  -0.0053   0.00    0.0
2021/10/04 03:19:12.000   28 35 34.11535  -17 55 01.60152    73.3613   6   8   0.0067   0.0169   0.0282   0.0062  -0.0153  -0.0053   0.00    0.0
2021/10/04 03:19:42.000   28 35 34.11535  -17 55 01.60153    73.3587   6   8   0.0066   0.0169   0.0281   0.0063  -0.0153  -0.0054   0.00    0.0
2021/10/04 03:20:12.000   28 35 34.11534  -17 55 01.60153    73.3579   6   8   0.0066   0.0169   0.0280   0.0063  -0.0153  -0.0055   0.00    0.0
2021/10/04 03:20:42.000   28 35 34.11534  -17 55 01.60153    73.3578   6   8   0.0066   0.0169   0.0280   0.0063  -0.0153  -0.0055   0.00    0.0
2021/10/04 03:21:12.000   28 35 34.11534  -17 55 01.60152    73.3576   6   8   0.0066   0.0169   0.0280   0.0063  -0.0153  -0.0055   0.00    0.0
2021/10/04 03:21:42.000   28 35 34.11534  -17 55 01.60152    73.3576   6   8   0.0066   0.0169   0.0280   0.0063  -0.0153  -0.0055   0.00    0.0
2021/10/04 03:22:12.000   28 35 34.11534  -17 55 01.60151    73.3577   6   8   0.0066   0.0169   0.0280   0.0063  -0.0153  -0.0055   0.00    0.0
2021/10/04 03:22:42.000   28 35 34.11535  -17 55 01.60150    73.3575   6   8   0.0066   0.0169   0.0280   0.0063  -0.0153  -0.0055   0.00    0.0
2021/10/04 03:23:12.000   28 35 34.11535  -17 55 01.60150    73.3576   6   8   0.0066   0.0169   0.0280   0.0063  -0.0153  -0.0055   0.00    0.0
