% program   : RTKLIB ver.2.4.2
% inp file  : C:\IPNA\data\OBS\CVBB3160.o
% inp file  : C:\IPNA\data\NAV\CVBB3160.n
% inp file  : C:\IPNA\data\SP3\CVBB3160.sp3
% inp file  : C:\IPNA\data\CLOCK\CVBB3160.cls
% obs start : 2021/11/12 09:46:42.0 UTC (week2183 467220.0s)
% obs end   : 2021/11/12 18:59:42.0 UTC (week2183 500400.0s)
% pos mode  : ppp-static
% solution  : forward
% elev mask : 15.0 deg
% dynamics  : off
% tidecorr  : on
% tropo opt : est ztd
% ephemeris : precise
% antenna1  :                       ( 0.0000  0.0000  0.0000)
%
% (lat/lon/height=WGS84/ellipsoidal,Q=1:fix,2:float,3:sbas,4:dgps,5:single,6:ppp,ns=# of satellites)
%  UTC                     latitude(d'")   longitude(d'")  height(m)   Q  ns   sdn(m)   sde(m)   sdu(m)  sdne(m)  sdeu(m)  sdue(m) age(s)  ratio
2021/11/12 09:46:42.003   28 35 34.14331  -17 55 01.56746    73.9877   6   8   1.1368   1.5559   3.1583  -0.1248  -0.6315  -0.5540   0.00    0.0
2021/11/12 09:47:12.000   28 35 34.13863  -17 55 01.57623    74.0366   6   9   0.8137   1.0959   2.1691  -0.1719  -0.3811  -0.5684   0.00    0.0
2021/11/12 09:47:42.000   28 35 34.14051  -17 55 01.58068    73.6118   6   9   0.6689   0.8941   1.7642  -0.1582  -0.2906  -0.5016   0.00    0.0
2021/11/12 09:48:12.000   28 35 34.13861  -17 55 01.58332    73.7439   6   9   0.5814   0.7740   1.5287  -0.1432  -0.2424  -0.4500   0.00    0.0
2021/11/12 09:48:42.000   28 35 34.13331  -17 55 01.58138    73.6625   6   9   0.5211   0.6923   1.3704  -0.1304  -0.2119  -0.4108   0.00    0.0
2021/11/12 09:49:12.000   28 35 34.12976  -17 55 01.58291    73.6482   6   9   0.4763   0.6320   1.2549  -0.1196  -0.1908  -0.3802   0.00    0.0
2021/11/12 09:49:42.000   28 35 34.12712  -17 55 01.57875    73.8309   6   9   0.4414   0.5852   1.1660  -0.1104  -0.1751  -0.3555   0.00    0.0
2021/11/12 09:50:12.000   28 35 34.12522  -17 55 01.57793    73.9147   6   9   0.4132   0.5475   1.0951  -0.1025  -0.1629  -0.3352   0.00    0.0
2021/11/12 09:50:42.000   28 35 34.12566  -17 55 01.57665    73.9339   6   9   0.3898   0.5163   1.0369  -0.0956  -0.1533  -0.3180   0.00    0.0
2021/11/12 09:51:12.000   28 35 34.12531  -17 55 01.57604    74.0151   6   9   0.3699   0.4900   0.9882  -0.0895  -0.1454  -0.3034   0.00    0.0
2021/11/12 09:51:42.000   28 35 34.12564  -17 55 01.57545    74.0567   6   9   0.3529   0.4674   0.9467  -0.0839  -0.1388  -0.2906   0.00    0.0
2021/11/12 09:52:12.000   28 35 34.12461  -17 55 01.57586    74.0578   6   9   0.3380   0.4477   0.9109  -0.0789  -0.1333  -0.2794   0.00    0.0
2021/11/12 09:52:42.000   28 35 34.12365  -17 55 01.57614    74.1386   6   9   0.3247   0.4302   0.8781  -0.0744  -0.1283  -0.2692   0.00    0.0
2021/11/12 09:53:12.000   28 35 34.12460  -17 55 01.57694    74.0695   6   9   0.3125   0.4145   0.8477  -0.0703  -0.1238  -0.2596   0.00    0.0
2021/11/12 09:53:42.000   28 35 34.12254  -17 55 01.57549    74.0781   6   9   0.3013   0.4002   0.8193  -0.0666  -0.1195  -0.2505   0.00    0.0
2021/11/12 09:54:12.000   28 35 34.12149  -17 55 01.57486    74.0246   6   9   0.2910   0.3872   0.7923  -0.0632  -0.1156  -0.2418   0.00    0.0
2021/11/12 09:54:42.000   28 35 34.11891  -17 55 01.57378    74.0881   6   9   0.2813   0.3753   0.7663  -0.0600  -0.1118  -0.2333   0.00    0.0
2021/11/12 09:55:12.000   28 35 34.11732  -17 55 01.57279    74.1141   6   9   0.2721   0.3643   0.7411  -0.0571  -0.1083  -0.2248   0.00    0.0
2021/11/12 09:55:42.000   28 35 34.11713  -17 55 01.57269    74.0422   6   9   0.2633   0.3541   0.7163  -0.0543  -0.1048  -0.2163   0.00    0.0
2021/11/12 09:56:12.000   28 35 34.11720  -17 55 01.57209    73.9138   6   9   0.2548   0.3447   0.6914  -0.0517  -0.1013  -0.2075   0.00    0.0
2021/11/12 09:56:42.000   28 35 34.11755  -17 55 01.57288    73.8541   6   9   0.2464   0.3359   0.6663  -0.0492  -0.0979  -0.1983   0.00    0.0
2021/11/12 09:57:12.000   28 35 34.11783  -17 55 01.57441    73.8213   6   9   0.2380   0.3276   0.6405  -0.0468  -0.0946  -0.1884   0.00    0.0
2021/11/12 09:57:42.000   28 35 34.11775  -17 55 01.57466    73.8049   6   9   0.2294   0.3199   0.6134  -0.0446  -0.0912  -0.1777   0.00    0.0
2021/11/12 09:58:12.000   28 35 34.11808  -17 55 01.57473    73.7778   6   9   0.2203   0.3125   0.5846  -0.0424  -0.0879  -0.1657   0.00    0.0
2021/11/12 09:58:42.000   28 35 34.11831  -17 55 01.57436    73.7917   6   9   0.2104   0.3054   0.5535  -0.0403  -0.0846  -0.1521   0.00    0.0
2021/11/12 09:59:12.000   28 35 34.11881  -17 55 01.57369    73.7808   6   9   0.1996   0.2987   0.5203  -0.0383  -0.0815  -0.1369   0.00    0.0
2021/11/12 09:59:42.000   28 35 34.11937  -17 55 01.57224    73.6919   6   9   0.1903   0.2923   0.4941  -0.0364  -0.0790  -0.1245   0.00    0.0
2021/11/12 10:00:12.000   28 35 34.12015  -17 55 01.57234    73.7071   6   9   0.1865   0.2867   0.4869  -0.0348  -0.0776  -0.1221   0.00    0.0
2021/11/12 10:00:42.000   28 35 34.12019  -17 55 01.57239    73.7583   6   9   0.1835   0.2815   0.4823  -0.0332  -0.0766  -0.1209   0.00    0.0
2021/11/12 10:01:12.000   28 35 34.11989  -17 55 01.57144    73.7999   6   9   0.1807   0.2765   0.4784  -0.0315  -0.0759  -0.1200   0.00    0.0
2021/11/12 10:01:42.000   28 35 34.12004  -17 55 01.57048    73.8315   6   9   0.1782   0.2718   0.4749  -0.0299  -0.0752  -0.1192   0.00    0.0
2021/11/12 10:02:12.000   28 35 34.12015  -17 55 01.56973    73.8545   6   9   0.1758   0.2674   0.4716  -0.0283  -0.0747  -0.1184   0.00    0.0
2021/11/12 10:02:42.000   28 35 34.12004  -17 55 01.56956    73.8822   6   9   0.1735   0.2631   0.4685  -0.0266  -0.0742  -0.1178   0.00    0.0
2021/11/12 10:03:12.000   28 35 34.11977  -17 55 01.56891    73.9067   6   9   0.1713   0.2591   0.4655  -0.0250  -0.0738  -0.1171   0.00    0.0
2021/11/12 10:03:42.000   28 35 34.11931  -17 55 01.56792    73.9321   6   9   0.1692   0.2552   0.4626  -0.0233  -0.0735  -0.1165   0.00    0.0
2021/11/12 10:04:12.000   28 35 34.11908  -17 55 01.56774    73.9576   6   9   0.1672   0.2515   0.4599  -0.0215  -0.0732  -0.1159   0.00    0.0
2021/11/12 10:04:42.000   28 35 34.11908  -17 55 01.56733    73.9738   6   9   0.1653   0.2480   0.4572  -0.0196  -0.0730  -0.1153   0.00    0.0
2021/11/12 10:05:12.000   28 35 34.11912  -17 55 01.56751    74.0011   6   9   0.1634   0.2446   0.4547  -0.0177  -0.0728  -0.1147   0.00    0.0
2021/11/12 10:05:42.000   28 35 34.11905  -17 55 01.56721    74.0272   6   9   0.1617   0.2414   0.4522  -0.0156  -0.0727  -0.1141   0.00    0.0
2021/11/12 10:06:12.000   28 35 34.11908  -17 55 01.56704    74.0424   6   9   0.1599   0.2383   0.4498  -0.0132  -0.0726  -0.1135   0.00    0.0
2021/11/12 10:06:42.000   28 35 34.11929  -17 55 01.56705    74.0487   6   9   0.1583   0.2354   0.4474  -0.0105  -0.0725  -0.1130   0.00    0.0
2021/11/12 10:07:12.000   28 35 34.11952  -17 55 01.56688    74.0745   6   9   0.1567   0.2325   0.4452  -0.0070  -0.0725  -0.1124   0.00    0.0
2021/11/12 10:07:42.000   28 35 34.11968  -17 55 01.56664    74.0749   6   9   0.1551   0.2298   0.4428   0.0032  -0.0724  -0.1118   0.00    0.0
2021/11/12 10:08:12.000   28 35 34.11977  -17 55 01.56717    74.0742   6   9   0.1536   0.2271   0.4402   0.0081  -0.0722  -0.1111   0.00    0.0
2021/11/12 10:08:42.000   28 35 34.11991  -17 55 01.56732    74.0901   6   9   0.1519   0.2245   0.4374   0.0108  -0.0720  -0.1103   0.00    0.0
2021/11/12 10:09:12.000   28 35 34.12014  -17 55 01.56767    74.0997   6   9   0.1503   0.2219   0.4343   0.0129  -0.0717  -0.1093   0.00    0.0
2021/11/12 10:09:42.000   28 35 34.12037  -17 55 01.56794    74.1091   6   9   0.1485   0.2194   0.4308   0.0145  -0.0713  -0.1081   0.00    0.0
2021/11/12 10:10:12.000   28 35 34.12065  -17 55 01.56731    74.1100   6   9   0.1467   0.2169   0.4267   0.0157  -0.0707  -0.1066   0.00    0.0
2021/11/12 10:10:42.000   28 35 34.12065  -17 55 01.56678    74.1022   6   9   0.1447   0.2145   0.4219   0.0167  -0.0698  -0.1047   0.00    0.0
2021/11/12 10:11:12.000   28 35 34.12083  -17 55 01.56702    74.0825   6   9   0.1425   0.2122   0.4160   0.0174  -0.0685  -0.1022   0.00    0.0
2021/11/12 10:11:42.000   28 35 34.12108  -17 55 01.56688    74.0595   6   9   0.1399   0.2098   0.4084   0.0177  -0.0667  -0.0990   0.00    0.0
2021/11/12 10:12:12.000   28 35 34.12117  -17 55 01.56710    74.0210   6   9   0.1367   0.2074   0.3984   0.0176  -0.0639  -0.0945   0.00    0.0
2021/11/12 10:12:42.000   28 35 34.12085  -17 55 01.56668    73.9703   6   9   0.1324   0.2049   0.3843   0.0169  -0.0596  -0.0880   0.00    0.0
2021/11/12 10:13:12.000   28 35 34.12024  -17 55 01.56598    73.8826   6   9   0.1264   0.2023   0.3632   0.0151  -0.0526  -0.0780   0.00    0.0
2021/11/12 10:13:42.000   28 35 34.11951  -17 55 01.56591    73.7862   6   9   0.1166   0.1991   0.3290   0.0113  -0.0395  -0.0614   0.00    0.0
2021/11/12 10:14:12.000   28 35 34.11852  -17 55 01.56583    73.6993   6   9   0.0989   0.1942   0.2704   0.0022   0.0130  -0.0297   0.00    0.0
2021/11/12 10:14:42.000   28 35 34.11712  -17 55 01.56598    73.6103   6   9   0.0775   0.1866   0.2070  -0.0055   0.0386   0.0306   0.00    0.0
2021/11/12 10:15:12.000   28 35 34.11695  -17 55 01.56611    73.6053   6   9   0.0743   0.1838   0.1977  -0.0060   0.0397   0.0295   0.00    0.0
2021/11/12 10:15:42.000   28 35 34.11687  -17 55 01.56580    73.6200   6   9   0.0732   0.1820   0.1947  -0.0056   0.0396   0.0288   0.00    0.0
2021/11/12 10:16:12.000   28 35 34.11682  -17 55 01.56578    73.6299   6   9   0.0726   0.1803   0.1932  -0.0049   0.0392   0.0283   0.00    0.0
2021/11/12 10:16:42.000   28 35 34.11685  -17 55 01.56552    73.6403   6   9   0.0721   0.1788   0.1922  -0.0038   0.0388   0.0279   0.00    0.0
2021/11/12 10:17:12.000   28 35 34.11686  -17 55 01.56516    73.6494   6   9   0.0718   0.1773   0.1914  -0.0023   0.0382   0.0275   0.00    0.0
2021/11/12 10:17:42.000   28 35 34.11688  -17 55 01.56511    73.6568   6   9   0.0715   0.1759   0.1908   0.0021   0.0377   0.0272   0.00    0.0
2021/11/12 10:18:12.000   28 35 34.11686  -17 55 01.56549    73.6625   6   9   0.0712   0.1746   0.1903   0.0038   0.0372   0.0269   0.00    0.0
2021/11/12 10:18:42.000   28 35 34.11680  -17 55 01.56511    73.6676   6   9   0.0710   0.1733   0.1899   0.0049   0.0366   0.0266   0.00    0.0
2021/11/12 10:19:12.000   28 35 34.11679  -17 55 01.56504    73.6732   6   9   0.0708   0.1720   0.1895   0.0058   0.0361   0.0263   0.00    0.0
2021/11/12 10:19:42.000   28 35 34.11678  -17 55 01.56476    73.6782   6   9   0.0706   0.1708   0.1891   0.0066   0.0355   0.0260   0.00    0.0
2021/11/12 10:20:12.000   28 35 34.11681  -17 55 01.56458    73.6837   6   9   0.0704   0.1696   0.1888   0.0073   0.0350   0.0258   0.00    0.0
2021/11/12 10:20:42.000   28 35 34.11677  -17 55 01.56408    73.6934   6   9   0.0702   0.1684   0.1885   0.0079   0.0344   0.0255   0.00    0.0
2021/11/12 10:21:12.000   28 35 34.11679  -17 55 01.56372    73.7025   6   9   0.0700   0.1672   0.1882   0.0085   0.0339   0.0253   0.00    0.0
2021/11/12 10:21:42.000   28 35 34.11676  -17 55 01.56336    73.7100   6   9   0.0698   0.1661   0.1879   0.0090   0.0333   0.0250   0.00    0.0
2021/11/12 10:22:12.000   28 35 34.11677  -17 55 01.56317    73.7146   6   9   0.0696   0.1651   0.1876   0.0095   0.0328   0.0248   0.00    0.0
2021/11/12 10:22:42.000   28 35 34.11679  -17 55 01.56315    73.7167   6   9   0.0694   0.1640   0.1873   0.0100   0.0322   0.0245   0.00    0.0
2021/11/12 10:23:12.000   28 35 34.11681  -17 55 01.56339    73.7190   6   9   0.0693   0.1629   0.1870   0.0104   0.0317   0.0243   0.00    0.0
2021/11/12 10:23:42.000   28 35 34.11679  -17 55 01.56341    73.7242   6   9   0.0691   0.1619   0.1865   0.0108   0.0312   0.0240   0.00    0.0
2021/11/12 10:24:12.000   28 35 34.11677  -17 55 01.56308    73.7304   6   9   0.0688   0.1608   0.1860   0.0112   0.0307   0.0237   0.00    0.0
2021/11/12 10:24:42.000   28 35 34.11680  -17 55 01.56318    73.7353   6   9   0.0686   0.1597   0.1854   0.0116   0.0303   0.0233   0.00    0.0
2021/11/12 10:25:12.000   28 35 34.11678  -17 55 01.56292    73.7414   6   9   0.0683   0.1587   0.1847   0.0119   0.0299   0.0229   0.00    0.0
2021/11/12 10:25:42.000   28 35 34.11679  -17 55 01.56283    73.7465   6   9   0.0680   0.1576   0.1837   0.0122   0.0296   0.0225   0.00    0.0
2021/11/12 10:26:12.000   28 35 34.11683  -17 55 01.56300    73.7533   6   9   0.0676   0.1566   0.1824   0.0124   0.0294   0.0219   0.00    0.0
2021/11/12 10:26:42.000   28 35 34.11680  -17 55 01.56262    73.7611   6   9   0.0671   0.1555   0.1807   0.0126   0.0294   0.0212   0.00    0.0
2021/11/12 10:27:12.000   28 35 34.11672  -17 55 01.56211    73.7674   6   9   0.0664   0.1543   0.1781   0.0126   0.0296   0.0203   0.00    0.0
2021/11/12 10:27:42.000   28 35 34.11661  -17 55 01.56186    73.7682   6   9   0.0654   0.1530   0.1744   0.0125   0.0302   0.0190   0.00    0.0
2021/11/12 10:28:12.000   28 35 34.11645  -17 55 01.56179    73.7616   6   9   0.0638   0.1514   0.1683   0.0121   0.0316   0.0171   0.00    0.0
2021/11/12 10:28:42.000   28 35 34.11624  -17 55 01.56236    73.7401   6   9   0.0609   0.1492   0.1575   0.0111   0.0347   0.0144   0.00    0.0
2021/11/12 10:29:12.000   28 35 34.11614  -17 55 01.56312    73.6952   6   8   0.0548   0.1450   0.1406   0.0111   0.0433   0.0195   0.00    0.0
2021/11/12 10:29:42.000   28 35 34.11626  -17 55 01.56479    73.6330   6   8   0.0448   0.1372   0.1156   0.0131   0.0524   0.0241   0.00    0.0
2021/11/12 10:30:12.000   28 35 34.11603  -17 55 01.56517    73.6110   6   8   0.0431   0.1349   0.1109   0.0129   0.0524   0.0235   0.00    0.0
2021/11/12 10:30:42.000   28 35 34.11592  -17 55 01.56534    73.6019   6   8   0.0425   0.1338   0.1093   0.0128   0.0520   0.0232   0.00    0.0
2021/11/12 10:31:12.000   28 35 34.11587  -17 55 01.56537    73.5968   6   8   0.0423   0.1330   0.1086   0.0128   0.0517   0.0231   0.00    0.0
2021/11/12 10:31:42.000   28 35 34.11586  -17 55 01.56540    73.5955   6   8   0.0421   0.1322   0.1081   0.0129   0.0514   0.0230   0.00    0.0
2021/11/12 10:32:12.000   28 35 34.11584  -17 55 01.56532    73.5951   6   8   0.0420   0.1316   0.1077   0.0130   0.0511   0.0229   0.00    0.0
2021/11/12 10:32:42.000   28 35 34.11586  -17 55 01.56534    73.5954   6   8   0.0419   0.1309   0.1074   0.0131   0.0508   0.0228   0.00    0.0
2021/11/12 10:33:12.000   28 35 34.11588  -17 55 01.56518    73.5982   6   8   0.0418   0.1303   0.1073   0.0132   0.0506   0.0228   0.00    0.0
2021/11/12 10:33:42.000   28 35 34.11589  -17 55 01.56499    73.6015   6   8   0.0417   0.1298   0.1071   0.0133   0.0504   0.0227   0.00    0.0
2021/11/12 10:34:12.000   28 35 34.11588  -17 55 01.56472    73.6043   6   8   0.0417   0.1292   0.1070   0.0134   0.0501   0.0227   0.00    0.0
2021/11/12 10:34:42.000   28 35 34.11587  -17 55 01.56459    73.6064   6   8   0.0416   0.1287   0.1069   0.0135   0.0499   0.0227   0.00    0.0
2021/11/12 10:35:12.000   28 35 34.11589  -17 55 01.56431    73.6094   6   7   0.0416   0.1281   0.1068   0.0136   0.0497   0.0227   0.00    0.0
2021/11/12 10:35:42.000   28 35 34.11589  -17 55 01.56397    73.6128   6   7   0.0415   0.1276   0.1067   0.0137   0.0495   0.0227   0.00    0.0
2021/11/12 10:36:12.000   28 35 34.11591  -17 55 01.56371    73.6153   6   7   0.0415   0.1271   0.1067   0.0138   0.0493   0.0226   0.00    0.0
2021/11/12 10:36:42.000   28 35 34.11592  -17 55 01.56349    73.6184   6   7   0.0415   0.1266   0.1066   0.0139   0.0491   0.0226   0.00    0.0
2021/11/12 10:37:12.000   28 35 34.11591  -17 55 01.56337    73.6207   6   7   0.0414   0.1262   0.1065   0.0140   0.0489   0.0226   0.00    0.0
2021/11/12 10:37:42.000   28 35 34.11592  -17 55 01.56326    73.6234   6   7   0.0414   0.1257   0.1064   0.0141   0.0487   0.0226   0.00    0.0
2021/11/12 10:38:12.000   28 35 34.11594  -17 55 01.56316    73.6259   6   7   0.0413   0.1252   0.1063   0.0142   0.0485   0.0226   0.00    0.0
2021/11/12 10:38:42.000   28 35 34.11597  -17 55 01.56306    73.6284   6   7   0.0413   0.1247   0.1062   0.0143   0.0483   0.0226   0.00    0.0
2021/11/12 10:39:12.000   28 35 34.11599  -17 55 01.56323    73.6301   6   7   0.0412   0.1242   0.1061   0.0144   0.0481   0.0225   0.00    0.0
2021/11/12 10:39:42.000   28 35 34.11599  -17 55 01.56306    73.6331   6   7   0.0412   0.1237   0.1060   0.0145   0.0479   0.0225   0.00    0.0
2021/11/12 10:40:12.000   28 35 34.11600  -17 55 01.56293    73.6358   6   7   0.0411   0.1232   0.1059   0.0146   0.0478   0.0225   0.00    0.0
2021/11/12 10:40:42.000   28 35 34.11599  -17 55 01.56287    73.6366   6   7   0.0410   0.1226   0.1057   0.0146   0.0476   0.0225   0.00    0.0
2021/11/12 10:41:12.000   28 35 34.11599  -17 55 01.56284    73.6382   6   7   0.0409   0.1221   0.1054   0.0147   0.0475   0.0224   0.00    0.0
2021/11/12 10:41:42.000   28 35 34.11601  -17 55 01.56273    73.6400   6   7   0.0407   0.1215   0.1051   0.0148   0.0475   0.0224   0.00    0.0
2021/11/12 10:42:12.000   28 35 34.11600  -17 55 01.56256    73.6413   6   7   0.0405   0.1208   0.1047   0.0148   0.0475   0.0223   0.00    0.0
2021/11/12 10:42:42.000   28 35 34.11602  -17 55 01.56252    73.6412   6   7   0.0402   0.1201   0.1040   0.0149   0.0477   0.0222   0.00    0.0
2021/11/12 10:43:12.000   28 35 34.11609  -17 55 01.56248    73.6419   6   7   0.0396   0.1191   0.1029   0.0149   0.0481   0.0221   0.00    0.0
2021/11/12 10:43:42.000   28 35 34.11616  -17 55 01.56244    73.6401   6   7   0.0385   0.1174   0.1008   0.0149   0.0492   0.0218   0.00    0.0
2021/11/12 10:44:12.000   28 35 34.11615  -17 55 01.56302    73.6345   6   7   0.0357   0.1139   0.0958   0.0151   0.0521   0.0215   0.00    0.0
2021/11/12 10:44:42.000   28 35 34.11630  -17 55 01.56664    73.6613   6   7   0.0303   0.1073   0.0874   0.0164   0.0570   0.0217   0.00    0.0
2021/11/12 10:45:12.000   28 35 34.11626  -17 55 01.56770    73.6674   6   7   0.0293   0.1055   0.0858   0.0164   0.0574   0.0215   0.00    0.0
2021/11/12 10:45:42.000   28 35 34.11628  -17 55 01.56797    73.6721   6   7   0.0290   0.1048   0.0853   0.0163   0.0574   0.0215   0.00    0.0
2021/11/12 10:46:12.000   28 35 34.11629  -17 55 01.56814    73.6747   6   7   0.0289   0.1043   0.0851   0.0163   0.0573   0.0214   0.00    0.0
2021/11/12 10:46:42.000   28 35 34.11629  -17 55 01.56813    73.6759   6   7   0.0288   0.1039   0.0849   0.0163   0.0572   0.0214   0.00    0.0
2021/11/12 10:47:12.000   28 35 34.11629  -17 55 01.56816    73.6767   6   7   0.0287   0.1035   0.0848   0.0163   0.0570   0.0214   0.00    0.0
2021/11/12 10:47:42.000   28 35 34.11630  -17 55 01.56811    73.6782   6   7   0.0287   0.1032   0.0847   0.0163   0.0569   0.0214   0.00    0.0
2021/11/12 10:48:12.000   28 35 34.11630  -17 55 01.56796    73.6804   6   7   0.0287   0.1028   0.0846   0.0163   0.0568   0.0214   0.00    0.0
2021/11/12 10:48:42.000   28 35 34.11630  -17 55 01.56801    73.6810   6   7   0.0286   0.1025   0.0845   0.0163   0.0566   0.0214   0.00    0.0
2021/11/12 10:49:12.000   28 35 34.11630  -17 55 01.56791    73.6830   6   7   0.0286   0.1022   0.0845   0.0163   0.0565   0.0214   0.00    0.0
2021/11/12 10:49:42.000   28 35 34.11631  -17 55 01.56773    73.6858   6   7   0.0286   0.1020   0.0844   0.0163   0.0563   0.0213   0.00    0.0
2021/11/12 10:50:12.000   28 35 34.11632  -17 55 01.56760    73.6881   6   7   0.0286   0.1017   0.0843   0.0163   0.0562   0.0213   0.00    0.0
2021/11/12 10:50:42.000   28 35 34.11633  -17 55 01.56755    73.6899   6   7   0.0285   0.1014   0.0843   0.0163   0.0561   0.0213   0.00    0.0
2021/11/12 10:51:12.000   28 35 34.11635  -17 55 01.56752    73.6912   6   7   0.0285   0.1011   0.0842   0.0163   0.0559   0.0213   0.00    0.0
2021/11/12 10:51:42.000   28 35 34.11635  -17 55 01.56743    73.6930   6   7   0.0285   0.1009   0.0842   0.0163   0.0558   0.0213   0.00    0.0
2021/11/12 10:52:12.000   28 35 34.11636  -17 55 01.56728    73.6952   6   7   0.0285   0.1006   0.0842   0.0163   0.0557   0.0213   0.00    0.0
2021/11/12 10:52:42.000   28 35 34.11636  -17 55 01.56710    73.6978   6   7   0.0285   0.1004   0.0841   0.0163   0.0555   0.0213   0.00    0.0
2021/11/12 10:53:12.000   28 35 34.11636  -17 55 01.56702    73.6998   6   8   0.0285   0.1001   0.0841   0.0163   0.0554   0.0213   0.00    0.0
2021/11/12 10:53:42.000   28 35 34.11636  -17 55 01.56692    73.7019   6   8   0.0284   0.0998   0.0840   0.0163   0.0553   0.0213   0.00    0.0
2021/11/12 10:54:12.000   28 35 34.11636  -17 55 01.56700    73.7026   6   8   0.0284   0.0995   0.0839   0.0163   0.0551   0.0213   0.00    0.0
2021/11/12 10:54:42.000   28 35 34.11636  -17 55 01.56691    73.7047   6   8   0.0284   0.0992   0.0839   0.0163   0.0550   0.0213   0.00    0.0
2021/11/12 10:55:12.000   28 35 34.11635  -17 55 01.56690    73.7058   6   8   0.0283   0.0989   0.0838   0.0163   0.0548   0.0213   0.00    0.0
2021/11/12 10:55:42.000   28 35 34.11633  -17 55 01.56696    73.7062   6   8   0.0283   0.0985   0.0837   0.0163   0.0547   0.0212   0.00    0.0
2021/11/12 10:56:12.000   28 35 34.11632  -17 55 01.56685    73.7084   6   8   0.0282   0.0982   0.0836   0.0163   0.0546   0.0212   0.00    0.0
2021/11/12 10:56:42.000   28 35 34.11631  -17 55 01.56681    73.7101   6   8   0.0282   0.0978   0.0835   0.0162   0.0545   0.0212   0.00    0.0
2021/11/12 10:57:12.000   28 35 34.11630  -17 55 01.56699    73.7095   6   8   0.0281   0.0973   0.0833   0.0162   0.0544   0.0212   0.00    0.0
2021/11/12 10:57:42.000   28 35 34.11627  -17 55 01.56711    73.7100   6   8   0.0279   0.0968   0.0831   0.0162   0.0543   0.0211   0.00    0.0
2021/11/12 10:58:12.000   28 35 34.11622  -17 55 01.56733    73.7108   6   8   0.0276   0.0960   0.0827   0.0161   0.0543   0.0210   0.00    0.0
2021/11/12 10:58:42.000   28 35 34.11615  -17 55 01.56804    73.7110   6   8   0.0271   0.0947   0.0820   0.0161   0.0544   0.0208   0.00    0.0
2021/11/12 10:59:12.000   28 35 34.11601  -17 55 01.57016    73.7122   6   8   0.0256   0.0916   0.0800   0.0159   0.0548   0.0204   0.00    0.0
2021/11/12 10:59:42.000   28 35 34.11600  -17 55 01.57490    73.7156   6   8   0.0224   0.0851   0.0758   0.0158   0.0552   0.0194   0.00    0.0
2021/11/12 11:00:12.000   28 35 34.11599  -17 55 01.57642    73.7155   6   8   0.0217   0.0835   0.0748   0.0156   0.0550   0.0192   0.00    0.0
2021/11/12 11:00:42.000   28 35 34.11598  -17 55 01.57706    73.7143   6   8   0.0215   0.0829   0.0745   0.0156   0.0549   0.0191   0.00    0.0
2021/11/12 11:01:12.000   28 35 34.11598  -17 55 01.57727    73.7149   6   8   0.0214   0.0825   0.0743   0.0155   0.0547   0.0190   0.00    0.0
2021/11/12 11:01:42.000   28 35 34.11599  -17 55 01.57735    73.7160   6   8   0.0214   0.0822   0.0741   0.0155   0.0546   0.0190   0.00    0.0
2021/11/12 11:02:12.000   28 35 34.11600  -17 55 01.57740    73.7170   6   8   0.0213   0.0820   0.0740   0.0155   0.0545   0.0190   0.00    0.0
2021/11/12 11:02:42.000   28 35 34.11600  -17 55 01.57734    73.7185   6   8   0.0213   0.0818   0.0739   0.0154   0.0543   0.0190   0.00    0.0
2021/11/12 11:03:12.000   28 35 34.11600  -17 55 01.57736    73.7188   6   8   0.0213   0.0816   0.0739   0.0154   0.0542   0.0189   0.00    0.0
2021/11/12 11:03:42.000   28 35 34.11599  -17 55 01.57743    73.7185   6   8   0.0213   0.0814   0.0738   0.0154   0.0541   0.0189   0.00    0.0
2021/11/12 11:04:12.000   28 35 34.11599  -17 55 01.57748    73.7182   6   8   0.0213   0.0812   0.0737   0.0153   0.0540   0.0189   0.00    0.0
2021/11/12 11:04:42.000   28 35 34.11598  -17 55 01.57743    73.7192   6   8   0.0212   0.0810   0.0737   0.0153   0.0538   0.0189   0.00    0.0
2021/11/12 11:05:12.000   28 35 34.11598  -17 55 01.57739    73.7200   6   8   0.0212   0.0808   0.0736   0.0153   0.0537   0.0189   0.00    0.0
2021/11/12 11:05:42.000   28 35 34.11598  -17 55 01.57733    73.7214   6   8   0.0212   0.0806   0.0736   0.0153   0.0536   0.0189   0.00    0.0
2021/11/12 11:06:12.000   28 35 34.11598  -17 55 01.57725    73.7228   6   8   0.0212   0.0805   0.0735   0.0153   0.0535   0.0189   0.00    0.0
2021/11/12 11:06:42.000   28 35 34.11598  -17 55 01.57724    73.7236   6   8   0.0212   0.0803   0.0734   0.0152   0.0534   0.0188   0.00    0.0
2021/11/12 11:07:12.000   28 35 34.11598  -17 55 01.57720    73.7244   6   8   0.0212   0.0801   0.0734   0.0152   0.0533   0.0188   0.00    0.0
2021/11/12 11:07:42.000   28 35 34.11597  -17 55 01.57714    73.7254   6   8   0.0212   0.0800   0.0733   0.0152   0.0532   0.0188   0.00    0.0
2021/11/12 11:08:12.000   28 35 34.11597  -17 55 01.57705    73.7268   6   8   0.0212   0.0798   0.0733   0.0152   0.0530   0.0188   0.00    0.0
2021/11/12 11:08:42.000   28 35 34.11597  -17 55 01.57707    73.7267   6   8   0.0212   0.0796   0.0732   0.0151   0.0529   0.0188   0.00    0.0
2021/11/12 11:09:12.000   28 35 34.11596  -17 55 01.57703    73.7273   6   8   0.0211   0.0794   0.0731   0.0151   0.0528   0.0188   0.00    0.0
2021/11/12 11:09:42.000   28 35 34.11596  -17 55 01.57705    73.7273   6   8   0.0211   0.0792   0.0730   0.0151   0.0526   0.0187   0.00    0.0
2021/11/12 11:10:12.000   28 35 34.11594  -17 55 01.57711    73.7266   6   8   0.0211   0.0790   0.0729   0.0150   0.0524   0.0187   0.00    0.0
2021/11/12 11:10:42.000   28 35 34.11593  -17 55 01.57723    73.7255   6   8   0.0211   0.0787   0.0728   0.0150   0.0523   0.0187   0.00    0.0
2021/11/12 11:11:12.000   28 35 34.11592  -17 55 01.57730    73.7250   6   8   0.0211   0.0784   0.0726   0.0149   0.0520   0.0186   0.00    0.0
2021/11/12 11:11:42.000   28 35 34.11590  -17 55 01.57743    73.7234   6   8   0.0210   0.0781   0.0723   0.0148   0.0517   0.0185   0.00    0.0
2021/11/12 11:12:12.000   28 35 34.11588  -17 55 01.57766    73.7205   6   8   0.0209   0.0777   0.0721   0.0147   0.0515   0.0184   0.00    0.0
2021/11/12 11:12:42.000   28 35 34.11587  -17 55 01.57802    73.7166   6   8   0.0208   0.0772   0.0718   0.0146   0.0511   0.0183   0.00    0.0
2021/11/12 11:13:12.000   28 35 34.11584  -17 55 01.57852    73.7117   6   8   0.0207   0.0764   0.0712   0.0144   0.0505   0.0180   0.00    0.0
2021/11/12 11:13:42.000   28 35 34.11584  -17 55 01.57967    73.6985   6   7   0.0203   0.0748   0.0701   0.0139   0.0495   0.0176   0.00    0.0
2021/11/12 11:14:12.000   28 35 34.11575  -17 55 01.58194    73.6689   6   7   0.0193   0.0712   0.0675   0.0129   0.0471   0.0163   0.00    0.0
2021/11/12 11:14:42.000   28 35 34.11561  -17 55 01.58572    73.6265   6   7   0.0171   0.0637   0.0623   0.0113   0.0427   0.0139   0.00    0.0
2021/11/12 11:15:12.000   28 35 34.11561  -17 55 01.58655    73.6179   6   7   0.0167   0.0620   0.0611   0.0109   0.0417   0.0134   0.00    0.0
2021/11/12 11:15:42.000   28 35 34.11558  -17 55 01.58671    73.6156   6   7   0.0165   0.0615   0.0608   0.0107   0.0413   0.0132   0.00    0.0
2021/11/12 11:16:12.000   28 35 34.11559  -17 55 01.58690    73.6137   6   8   0.0165   0.0611   0.0606   0.0107   0.0411   0.0132   0.00    0.0
2021/11/12 11:16:42.000   28 35 34.11559  -17 55 01.58699    73.6128   6   8   0.0164   0.0609   0.0604   0.0106   0.0410   0.0131   0.00    0.0
2021/11/12 11:17:12.000   28 35 34.11559  -17 55 01.58703    73.6124   6   8   0.0164   0.0607   0.0604   0.0106   0.0409   0.0131   0.00    0.0
2021/11/12 11:17:42.000   28 35 34.11560  -17 55 01.58704    73.6124   6   8   0.0164   0.0606   0.0603   0.0105   0.0408   0.0130   0.00    0.0
2021/11/12 11:18:12.000   28 35 34.11560  -17 55 01.58708    73.6121   6   8   0.0164   0.0605   0.0602   0.0105   0.0407   0.0130   0.00    0.0
2021/11/12 11:18:42.000   28 35 34.11559  -17 55 01.58707    73.6124   6   8   0.0164   0.0604   0.0602   0.0105   0.0406   0.0130   0.00    0.0
2021/11/12 11:19:12.000   28 35 34.11560  -17 55 01.58710    73.6123   6   8   0.0163   0.0602   0.0602   0.0105   0.0405   0.0130   0.00    0.0
2021/11/12 11:19:42.000   28 35 34.11559  -17 55 01.58709    73.6126   6   8   0.0163   0.0601   0.0601   0.0105   0.0405   0.0130   0.00    0.0
2021/11/12 11:20:12.000   28 35 34.11559  -17 55 01.58707    73.6129   6   8   0.0163   0.0600   0.0601   0.0105   0.0404   0.0130   0.00    0.0
2021/11/12 11:20:42.000   28 35 34.11559  -17 55 01.58703    73.6134   6   8   0.0163   0.0599   0.0600   0.0105   0.0403   0.0130   0.00    0.0
2021/11/12 11:21:12.000   28 35 34.11559  -17 55 01.58702    73.6137   6   8   0.0163   0.0599   0.0600   0.0104   0.0403   0.0130   0.00    0.0
2021/11/12 11:21:42.000   28 35 34.11558  -17 55 01.58699    73.6143   6   8   0.0163   0.0598   0.0600   0.0104   0.0402   0.0129   0.00    0.0
2021/11/12 11:22:12.000   28 35 34.11559  -17 55 01.58695    73.6148   6   8   0.0163   0.0597   0.0600   0.0104   0.0401   0.0129   0.00    0.0
2021/11/12 11:22:42.000   28 35 34.11559  -17 55 01.58697    73.6147   6   8   0.0163   0.0596   0.0599   0.0104   0.0401   0.0129   0.00    0.0
2021/11/12 11:23:12.000   28 35 34.11558  -17 55 01.58698    73.6147   6   8   0.0163   0.0595   0.0599   0.0104   0.0400   0.0129   0.00    0.0
2021/11/12 11:23:42.000   28 35 34.11558  -17 55 01.58694    73.6153   6   8   0.0163   0.0594   0.0599   0.0104   0.0399   0.0129   0.00    0.0
2021/11/12 11:24:12.000   28 35 34.11558  -17 55 01.58701    73.6144   6   8   0.0163   0.0593   0.0598   0.0104   0.0399   0.0129   0.00    0.0
2021/11/12 11:24:42.000   28 35 34.11557  -17 55 01.58705    73.6140   6   8   0.0163   0.0592   0.0598   0.0103   0.0398   0.0129   0.00    0.0
2021/11/12 11:25:12.000   28 35 34.11557  -17 55 01.58704    73.6142   6   8   0.0163   0.0590   0.0597   0.0103   0.0397   0.0128   0.00    0.0
2021/11/12 11:25:42.000   28 35 34.11556  -17 55 01.58708    73.6134   6   8   0.0162   0.0589   0.0596   0.0103   0.0396   0.0128   0.00    0.0
2021/11/12 11:26:12.000   28 35 34.11556  -17 55 01.58709    73.6131   6   8   0.0162   0.0587   0.0595   0.0103   0.0394   0.0128   0.00    0.0
2021/11/12 11:26:42.000   28 35 34.11555  -17 55 01.58715    73.6123   6   8   0.0162   0.0585   0.0594   0.0102   0.0393   0.0127   0.00    0.0
2021/11/12 11:27:12.000   28 35 34.11555  -17 55 01.58725    73.6105   6   8   0.0161   0.0583   0.0593   0.0101   0.0390   0.0127   0.00    0.0
2021/11/12 11:27:42.000   28 35 34.11555  -17 55 01.58744    73.6054   6   8   0.0161   0.0579   0.0590   0.0100   0.0387   0.0125   0.00    0.0
2021/11/12 11:28:12.000   28 35 34.11555  -17 55 01.58785    73.5943   6   8   0.0160   0.0573   0.0586   0.0099   0.0382   0.0123   0.00    0.0
2021/11/12 11:28:42.000   28 35 34.11552  -17 55 01.58827    73.5824   6   8   0.0157   0.0562   0.0578   0.0096   0.0373   0.0119   0.00    0.0
2021/11/12 11:29:12.000   28 35 34.11546  -17 55 01.58921    73.5622   6   8   0.0151   0.0533   0.0557   0.0089   0.0348   0.0109   0.00    0.0
2021/11/12 11:29:42.000   28 35 34.11543  -17 55 01.59176    73.5199   6   8   0.0137   0.0473   0.0515   0.0077   0.0298   0.0088   0.00    0.0
2021/11/12 11:30:12.000   28 35 34.11543  -17 55 01.59211    73.5118   6   8   0.0134   0.0460   0.0505   0.0074   0.0288   0.0083   0.00    0.0
2021/11/12 11:30:42.000   28 35 34.11543  -17 55 01.59224    73.5075   6   8   0.0133   0.0455   0.0502   0.0073   0.0284   0.0081   0.00    0.0
2021/11/12 11:31:12.000   28 35 34.11544  -17 55 01.59233    73.5056   6   8   0.0132   0.0453   0.0501   0.0073   0.0282   0.0080   0.00    0.0
2021/11/12 11:31:42.000   28 35 34.11543  -17 55 01.59240    73.5039   6   8   0.0132   0.0452   0.0500   0.0072   0.0281   0.0080   0.00    0.0
2021/11/12 11:32:12.000   28 35 34.11543  -17 55 01.59244    73.5031   6   8   0.0132   0.0451   0.0500   0.0072   0.0280   0.0080   0.00    0.0
2021/11/12 11:32:42.000   28 35 34.11543  -17 55 01.59249    73.5021   6   8   0.0132   0.0450   0.0499   0.0072   0.0280   0.0079   0.00    0.0
2021/11/12 11:33:12.000   28 35 34.11543  -17 55 01.59252    73.5015   6   8   0.0131   0.0449   0.0499   0.0072   0.0279   0.0079   0.00    0.0
2021/11/12 11:33:42.000   28 35 34.11543  -17 55 01.59250    73.5016   6   8   0.0131   0.0448   0.0498   0.0072   0.0279   0.0079   0.00    0.0
2021/11/12 11:34:12.000   28 35 34.11543  -17 55 01.59248    73.5019   6   8   0.0131   0.0448   0.0498   0.0072   0.0278   0.0079   0.00    0.0
2021/11/12 11:34:42.000   28 35 34.11542  -17 55 01.59247    73.5020   6   8   0.0131   0.0447   0.0498   0.0072   0.0278   0.0079   0.00    0.0
2021/11/12 11:35:12.000   28 35 34.11542  -17 55 01.59245    73.5021   6   8   0.0131   0.0447   0.0498   0.0072   0.0277   0.0079   0.00    0.0
2021/11/12 11:35:42.000   28 35 34.11542  -17 55 01.59247    73.5020   6   8   0.0131   0.0446   0.0498   0.0071   0.0277   0.0079   0.00    0.0
2021/11/12 11:36:12.000   28 35 34.11541  -17 55 01.59247    73.5020   6   8   0.0131   0.0446   0.0497   0.0071   0.0277   0.0078   0.00    0.0
2021/11/12 11:36:42.000   28 35 34.11541  -17 55 01.59247    73.5019   6   8   0.0131   0.0445   0.0497   0.0071   0.0276   0.0078   0.00    0.0
2021/11/12 11:37:12.000   28 35 34.11541  -17 55 01.59246    73.5019   6   8   0.0131   0.0445   0.0497   0.0071   0.0276   0.0078   0.00    0.0
2021/11/12 11:37:42.000   28 35 34.11541  -17 55 01.59244    73.5020   6   8   0.0131   0.0445   0.0497   0.0071   0.0276   0.0078   0.00    0.0
2021/11/12 11:38:12.000   28 35 34.11541  -17 55 01.59245    73.5018   6   8   0.0131   0.0444   0.0497   0.0071   0.0275   0.0078   0.00    0.0
2021/11/12 11:38:42.000   28 35 34.11540  -17 55 01.59245    73.5016   6   8   0.0131   0.0444   0.0497   0.0071   0.0275   0.0078   0.00    0.0
2021/11/12 11:39:12.000   28 35 34.11540  -17 55 01.59246    73.5015   6   8   0.0131   0.0443   0.0496   0.0071   0.0275   0.0078   0.00    0.0
2021/11/12 11:39:42.000   28 35 34.11540  -17 55 01.59243    73.5016   6   8   0.0131   0.0442   0.0496   0.0071   0.0274   0.0078   0.00    0.0
2021/11/12 11:40:12.000   28 35 34.11539  -17 55 01.59241    73.5016   6   8   0.0131   0.0442   0.0496   0.0071   0.0274   0.0078   0.00    0.0
2021/11/12 11:40:42.000   28 35 34.11539  -17 55 01.59243    73.5011   6   8   0.0131   0.0441   0.0495   0.0071   0.0273   0.0077   0.00    0.0
2021/11/12 11:41:12.000   28 35 34.11539  -17 55 01.59249    73.5003   6   8   0.0131   0.0440   0.0495   0.0070   0.0272   0.0077   0.00    0.0
2021/11/12 11:41:42.000   28 35 34.11538  -17 55 01.59254    73.4991   6   8   0.0130   0.0439   0.0494   0.0070   0.0271   0.0077   0.00    0.0
2021/11/12 11:42:12.000   28 35 34.11538  -17 55 01.59260    73.4981   6   8   0.0130   0.0437   0.0493   0.0070   0.0269   0.0076   0.00    0.0
2021/11/12 11:42:42.000   28 35 34.11537  -17 55 01.59269    73.4965   6   8   0.0130   0.0435   0.0491   0.0069   0.0267   0.0075   0.00    0.0
2021/11/12 11:43:12.000   28 35 34.11535  -17 55 01.59286    73.4942   6   8   0.0129   0.0431   0.0489   0.0069   0.0263   0.0073   0.00    0.0
2021/11/12 11:43:42.000   28 35 34.11533  -17 55 01.59311    73.4886   6   8   0.0127   0.0424   0.0483   0.0067   0.0256   0.0070   0.00    0.0
2021/11/12 11:44:12.000   28 35 34.11534  -17 55 01.59356    73.4807   6   8   0.0123   0.0406   0.0468   0.0064   0.0236   0.0061   0.00    0.0
2021/11/12 11:44:42.000   28 35 34.11535  -17 55 01.59510    73.4576   6   8   0.0113   0.0364   0.0437   0.0061   0.0193   0.0044   0.00    0.0
2021/11/12 11:45:12.000   28 35 34.11534  -17 55 01.59539    73.4524   6   8   0.0111   0.0356   0.0430   0.0059   0.0183   0.0038   0.00    0.0
2021/11/12 11:45:42.000   28 35 34.11532  -17 55 01.59545    73.4515   6   8   0.0111   0.0353   0.0427   0.0059   0.0179   0.0035   0.00    0.0
2021/11/12 11:46:12.000   28 35 34.11531  -17 55 01.59545    73.4514   6   8   0.0110   0.0351   0.0426   0.0058   0.0178   0.0034   0.00    0.0
2021/11/12 11:46:42.000   28 35 34.11531  -17 55 01.59545    73.4513   6   8   0.0110   0.0350   0.0426   0.0058   0.0177   0.0033   0.00    0.0
2021/11/12 11:47:12.000   28 35 34.11530  -17 55 01.59549    73.4508   6   8   0.0110   0.0350   0.0425   0.0058   0.0176   0.0033   0.00    0.0
2021/11/12 11:47:42.000   28 35 34.11529  -17 55 01.59551    73.4505   6   8   0.0110   0.0349   0.0425   0.0058   0.0175   0.0032   0.00    0.0
2021/11/12 11:48:12.000   28 35 34.11529  -17 55 01.59553    73.4503   6   8   0.0110   0.0349   0.0425   0.0058   0.0175   0.0032   0.00    0.0
2021/11/12 11:48:42.000   28 35 34.11528  -17 55 01.59555    73.4500   6   8   0.0110   0.0348   0.0424   0.0058   0.0175   0.0032   0.00    0.0
2021/11/12 11:49:12.000   28 35 34.11528  -17 55 01.59556    73.4499   6   8   0.0110   0.0348   0.0424   0.0058   0.0174   0.0032   0.00    0.0
2021/11/12 11:49:42.000   28 35 34.11528  -17 55 01.59555    73.4499   6   8   0.0110   0.0348   0.0424   0.0058   0.0174   0.0031   0.00    0.0
2021/11/12 11:50:12.000   28 35 34.11528  -17 55 01.59554    73.4499   6   8   0.0110   0.0348   0.0424   0.0058   0.0174   0.0031   0.00    0.0
2021/11/12 11:50:42.000   28 35 34.11528  -17 55 01.59555    73.4497   6   8   0.0110   0.0347   0.0424   0.0058   0.0173   0.0031   0.00    0.0
2021/11/12 11:51:12.000   28 35 34.11527  -17 55 01.59555    73.4495   6   8   0.0110   0.0347   0.0424   0.0058   0.0173   0.0031   0.00    0.0
2021/11/12 11:51:42.000   28 35 34.11527  -17 55 01.59554    73.4494   6   8   0.0109   0.0347   0.0424   0.0058   0.0173   0.0031   0.00    0.0
2021/11/12 11:52:12.000   28 35 34.11527  -17 55 01.59555    73.4492   6   8   0.0109   0.0347   0.0423   0.0058   0.0173   0.0031   0.00    0.0
2021/11/12 11:52:42.000   28 35 34.11527  -17 55 01.59554    73.4491   6   8   0.0109   0.0346   0.0423   0.0058   0.0173   0.0031   0.00    0.0
2021/11/12 11:53:12.000   28 35 34.11527  -17 55 01.59553    73.4490   6   8   0.0109   0.0346   0.0423   0.0057   0.0172   0.0031   0.00    0.0
2021/11/12 11:53:42.000   28 35 34.11526  -17 55 01.59555    73.4487   6   8   0.0109   0.0346   0.0423   0.0057   0.0172   0.0031   0.00    0.0
2021/11/12 11:54:12.000   28 35 34.11526  -17 55 01.59556    73.4484   6   8   0.0109   0.0345   0.0423   0.0057   0.0172   0.0030   0.00    0.0
2021/11/12 11:54:42.000   28 35 34.11526  -17 55 01.59558    73.4479   6   8   0.0109   0.0345   0.0423   0.0057   0.0171   0.0030   0.00    0.0
2021/11/12 11:55:12.000   28 35 34.11526  -17 55 01.59561    73.4474   6   8   0.0109   0.0345   0.0422   0.0057   0.0171   0.0030   0.00    0.0
2021/11/12 11:55:42.000   28 35 34.11526  -17 55 01.59565    73.4467   6   8   0.0109   0.0344   0.0422   0.0057   0.0170   0.0030   0.00    0.0
2021/11/12 11:56:12.000   28 35 34.11526  -17 55 01.59567    73.4460   6   8   0.0109   0.0344   0.0422   0.0057   0.0170   0.0029   0.00    0.0
2021/11/12 11:56:42.000   28 35 34.11526  -17 55 01.59567    73.4457   6   8   0.0109   0.0343   0.0421   0.0057   0.0169   0.0028   0.00    0.0
2021/11/12 11:57:12.000   28 35 34.11525  -17 55 01.59568    73.4451   6   8   0.0109   0.0342   0.0420   0.0057   0.0168   0.0028   0.00    0.0
2021/11/12 11:57:42.000   28 35 34.11525  -17 55 01.59567    73.4443   6   8   0.0108   0.0341   0.0419   0.0057   0.0166   0.0026   0.00    0.0
2021/11/12 11:58:12.000   28 35 34.11526  -17 55 01.59569    73.4423   6   8   0.0108   0.0339   0.0416   0.0056   0.0162   0.0023   0.00    0.0
2021/11/12 11:58:42.000   28 35 34.11528  -17 55 01.59586    73.4364   6   8   0.0107   0.0334   0.0412   0.0056   0.0155   0.0017   0.00    0.0
2021/11/12 11:59:12.000   28 35 34.11535  -17 55 01.59643    73.4203   6   8   0.0104   0.0323   0.0400   0.0055   0.0138  -0.0016   0.00    0.0
2021/11/12 11:59:42.000   28 35 34.11537  -17 55 01.59736    73.4063   6   8   0.0097   0.0296   0.0376   0.0055   0.0097  -0.0030   0.00    0.0
2021/11/12 12:00:12.000   28 35 34.11535  -17 55 01.59748    73.4030   6   8   0.0095   0.0290   0.0369   0.0054   0.0085  -0.0034   0.00    0.0
2021/11/12 12:00:42.000   28 35 34.11535  -17 55 01.59753    73.4017   6   8   0.0095   0.0289   0.0367   0.0054   0.0081  -0.0036   0.00    0.0
2021/11/12 12:01:12.000   28 35 34.11535  -17 55 01.59758    73.4003   6   8   0.0095   0.0288   0.0366   0.0054   0.0079  -0.0036   0.00    0.0
2021/11/12 12:01:42.000   28 35 34.11535  -17 55 01.59761    73.3994   6   8   0.0095   0.0287   0.0365   0.0054   0.0077  -0.0037   0.00    0.0
2021/11/12 12:02:12.000   28 35 34.11535  -17 55 01.59761    73.3993   6   8   0.0094   0.0287   0.0365   0.0054   0.0076  -0.0037   0.00    0.0
2021/11/12 12:02:42.000   28 35 34.11535  -17 55 01.59762    73.3989   6   8   0.0094   0.0286   0.0364   0.0054   0.0076  -0.0037   0.00    0.0
2021/11/12 12:03:12.000   28 35 34.11535  -17 55 01.59763    73.3986   6   7   0.0094   0.0286   0.0364   0.0054   0.0075  -0.0037   0.00    0.0
2021/11/12 12:03:42.000   28 35 34.11535  -17 55 01.59763    73.3983   6   7   0.0094   0.0286   0.0364   0.0054   0.0075  -0.0037   0.00    0.0
2021/11/12 12:04:12.000   28 35 34.11535  -17 55 01.59763    73.3981   6   7   0.0094   0.0286   0.0364   0.0054   0.0075  -0.0037   0.00    0.0
2021/11/12 12:04:42.000   28 35 34.11535  -17 55 01.59764    73.3977   6   7   0.0094   0.0286   0.0364   0.0054   0.0075  -0.0037   0.00    0.0
2021/11/12 12:05:12.000   28 35 34.11535  -17 55 01.59766    73.3973   6   7   0.0094   0.0286   0.0364   0.0054   0.0074  -0.0038   0.00    0.0
2021/11/12 12:05:42.000   28 35 34.11535  -17 55 01.59767    73.3970   6   7   0.0094   0.0285   0.0364   0.0054   0.0074  -0.0038   0.00    0.0
2021/11/12 12:06:12.000   28 35 34.11535  -17 55 01.59768    73.3967   6   7   0.0094   0.0285   0.0364   0.0054   0.0074  -0.0038   0.00    0.0
2021/11/12 12:06:42.000   28 35 34.11535  -17 55 01.59769    73.3963   6   7   0.0094   0.0285   0.0364   0.0054   0.0074  -0.0038   0.00    0.0
2021/11/12 12:07:12.000   28 35 34.11535  -17 55 01.59771    73.3960   6   7   0.0094   0.0285   0.0363   0.0054   0.0074  -0.0038   0.00    0.0
2021/11/12 12:07:42.000   28 35 34.11534  -17 55 01.59771    73.3957   6   7   0.0094   0.0285   0.0363   0.0054   0.0074  -0.0038   0.00    0.0
2021/11/12 12:08:12.000   28 35 34.11534  -17 55 01.59770    73.3955   6   7   0.0094   0.0285   0.0363   0.0054   0.0074  -0.0038   0.00    0.0
2021/11/12 12:08:42.000   28 35 34.11534  -17 55 01.59769    73.3953   6   7   0.0094   0.0285   0.0363   0.0054   0.0073  -0.0038   0.00    0.0
2021/11/12 12:09:12.000   28 35 34.11534  -17 55 01.59769    73.3950   6   7   0.0094   0.0284   0.0363   0.0054   0.0073  -0.0038   0.00    0.0
2021/11/12 12:09:42.000   28 35 34.11534  -17 55 01.59771    73.3948   6   7   0.0094   0.0284   0.0363   0.0054   0.0073  -0.0038   0.00    0.0
2021/11/12 12:10:12.000   28 35 34.11534  -17 55 01.59772    73.3947   6   7   0.0094   0.0284   0.0363   0.0054   0.0073  -0.0038   0.00    0.0
2021/11/12 12:10:42.000   28 35 34.11533  -17 55 01.59774    73.3944   6   7   0.0094   0.0284   0.0363   0.0054   0.0072  -0.0038   0.00    0.0
2021/11/12 12:11:12.000   28 35 34.11533  -17 55 01.59776    73.3943   6   7   0.0094   0.0284   0.0363   0.0054   0.0072  -0.0038   0.00    0.0
2021/11/12 12:11:42.000   28 35 34.11532  -17 55 01.59776    73.3942   6   7   0.0094   0.0283   0.0362   0.0054   0.0071  -0.0038   0.00    0.0
2021/11/12 12:12:12.000   28 35 34.11532  -17 55 01.59776    73.3941   6   7   0.0094   0.0283   0.0362   0.0054   0.0070  -0.0039   0.00    0.0
2021/11/12 12:12:42.000   28 35 34.11532  -17 55 01.59776    73.3939   6   7   0.0093   0.0282   0.0361   0.0053   0.0068  -0.0039   0.00    0.0
2021/11/12 12:13:12.000   28 35 34.11532  -17 55 01.59777    73.3939   6   7   0.0093   0.0281   0.0360   0.0053   0.0065  -0.0040   0.00    0.0
2021/11/12 12:13:42.000   28 35 34.11531  -17 55 01.59776    73.3936   6   7   0.0092   0.0278   0.0358   0.0053   0.0059  -0.0041   0.00    0.0
2021/11/12 12:14:12.000   28 35 34.11529  -17 55 01.59775    73.3947   6   7   0.0090   0.0271   0.0353   0.0053   0.0039  -0.0043   0.00    0.0
2021/11/12 12:14:42.000   28 35 34.11525  -17 55 01.59816    73.3906   6   7   0.0085   0.0254   0.0341   0.0054  -0.0052  -0.0044   0.00    0.0
2021/11/12 12:15:12.000   28 35 34.11525  -17 55 01.59828    73.3892   6   7   0.0084   0.0250   0.0337   0.0054  -0.0060  -0.0045   0.00    0.0
2021/11/12 12:15:42.000   28 35 34.11525  -17 55 01.59834    73.3886   6   7   0.0084   0.0249   0.0336   0.0054  -0.0062  -0.0045   0.00    0.0
2021/11/12 12:16:12.000   28 35 34.11524  -17 55 01.59834    73.3884   6   7   0.0083   0.0248   0.0336   0.0054  -0.0063  -0.0046   0.00    0.0
2021/11/12 12:16:42.000   28 35 34.11524  -17 55 01.59835    73.3884   6   7   0.0083   0.0248   0.0335   0.0054  -0.0064  -0.0046   0.00    0.0
2021/11/12 12:17:12.000   28 35 34.11524  -17 55 01.59836    73.3881   6   7   0.0083   0.0248   0.0335   0.0054  -0.0064  -0.0046   0.00    0.0
2021/11/12 12:17:42.000   28 35 34.11524  -17 55 01.59838    73.3879   6   7   0.0083   0.0248   0.0335   0.0054  -0.0065  -0.0046   0.00    0.0
2021/11/12 12:18:12.000   28 35 34.11524  -17 55 01.59839    73.3878   6   7   0.0083   0.0248   0.0335   0.0054  -0.0065  -0.0046   0.00    0.0
2021/11/12 12:18:42.000   28 35 34.11524  -17 55 01.59840    73.3876   6   7   0.0083   0.0247   0.0335   0.0054  -0.0065  -0.0046   0.00    0.0
2021/11/12 12:19:12.000   28 35 34.11524  -17 55 01.59841    73.3874   6   7   0.0083   0.0247   0.0335   0.0054  -0.0065  -0.0046   0.00    0.0
2021/11/12 12:19:42.000   28 35 34.11524  -17 55 01.59841    73.3872   6   7   0.0083   0.0247   0.0335   0.0054  -0.0065  -0.0046   0.00    0.0
2021/11/12 12:20:12.000   28 35 34.11524  -17 55 01.59841    73.3871   6   7   0.0083   0.0247   0.0335   0.0054  -0.0065  -0.0046   0.00    0.0
2021/11/12 12:20:42.000   28 35 34.11524  -17 55 01.59842    73.3869   6   7   0.0083   0.0247   0.0334   0.0054  -0.0065  -0.0046   0.00    0.0
2021/11/12 12:21:12.000   28 35 34.11524  -17 55 01.59842    73.3867   6   7   0.0083   0.0247   0.0334   0.0054  -0.0065  -0.0046   0.00    0.0
2021/11/12 12:21:42.000   28 35 34.11524  -17 55 01.59842    73.3865   6   7   0.0083   0.0247   0.0334   0.0053  -0.0065  -0.0046   0.00    0.0
2021/11/12 12:22:12.000   28 35 34.11524  -17 55 01.59842    73.3864   6   7   0.0083   0.0247   0.0334   0.0053  -0.0066  -0.0046   0.00    0.0
2021/11/12 12:22:42.000   28 35 34.11524  -17 55 01.59842    73.3862   6   7   0.0083   0.0247   0.0334   0.0053  -0.0066  -0.0046   0.00    0.0
2021/11/12 12:23:12.000   28 35 34.11524  -17 55 01.59842    73.3859   6   7   0.0083   0.0247   0.0334   0.0053  -0.0066  -0.0046   0.00    0.0
2021/11/12 12:23:42.000   28 35 34.11524  -17 55 01.59842    73.3856   6   7   0.0083   0.0247   0.0334   0.0053  -0.0066  -0.0046   0.00    0.0
2021/11/12 12:24:12.000   28 35 34.11524  -17 55 01.59842    73.3853   6   7   0.0083   0.0246   0.0334   0.0053  -0.0066  -0.0046   0.00    0.0
2021/11/12 12:24:42.000   28 35 34.11524  -17 55 01.59843    73.3850   6   7   0.0083   0.0246   0.0334   0.0053  -0.0066  -0.0046   0.00    0.0
2021/11/12 12:25:12.000   28 35 34.11524  -17 55 01.59845    73.3847   6   7   0.0083   0.0246   0.0334   0.0053  -0.0066  -0.0046   0.00    0.0
2021/11/12 12:25:42.000   28 35 34.11523  -17 55 01.59846    73.3845   6   7   0.0083   0.0246   0.0334   0.0053  -0.0066  -0.0046   0.00    0.0
2021/11/12 12:26:12.000   28 35 34.11523  -17 55 01.59846    73.3843   6   7   0.0083   0.0246   0.0334   0.0053  -0.0067  -0.0046   0.00    0.0
2021/11/12 12:26:42.000   28 35 34.11523  -17 55 01.59846    73.3841   6   7   0.0083   0.0246   0.0334   0.0053  -0.0067  -0.0046   0.00    0.0
2021/11/12 12:27:12.000   28 35 34.11523  -17 55 01.59848    73.3841   6   7   0.0083   0.0245   0.0333   0.0053  -0.0068  -0.0047   0.00    0.0
2021/11/12 12:27:42.000   28 35 34.11522  -17 55 01.59850    73.3842   6   7   0.0082   0.0245   0.0333   0.0053  -0.0069  -0.0047   0.00    0.0
2021/11/12 12:28:12.000   28 35 34.11522  -17 55 01.59854    73.3845   6   7   0.0082   0.0244   0.0333   0.0053  -0.0070  -0.0047   0.00    0.0
2021/11/12 12:28:42.000   28 35 34.11522  -17 55 01.59861    73.3847   6   7   0.0082   0.0242   0.0331   0.0053  -0.0073  -0.0047   0.00    0.0
2021/11/12 12:29:12.000   28 35 34.11524  -17 55 01.59868    73.3857   6   7   0.0080   0.0238   0.0328   0.0053  -0.0080  -0.0048   0.00    0.0
2021/11/12 12:29:42.000   28 35 34.11522  -17 55 01.59888    73.3870   6   7   0.0076   0.0226   0.0322   0.0053  -0.0094  -0.0048   0.00    0.0
2021/11/12 12:30:12.000   28 35 34.11520  -17 55 01.59901    73.3872   6   7   0.0075   0.0224   0.0320   0.0053  -0.0097  -0.0049   0.00    0.0
2021/11/12 12:30:42.000   28 35 34.11519  -17 55 01.59906    73.3879   6   7   0.0075   0.0223   0.0319   0.0053  -0.0098  -0.0049   0.00    0.0
2021/11/12 12:31:12.000   28 35 34.11518  -17 55 01.59910    73.3885   6   7   0.0075   0.0223   0.0319   0.0053  -0.0098  -0.0049   0.00    0.0
2021/11/12 12:31:42.000   28 35 34.11518  -17 55 01.59911    73.3890   6   7   0.0075   0.0223   0.0319   0.0053  -0.0099  -0.0049   0.00    0.0
2021/11/12 12:32:12.000   28 35 34.11519  -17 55 01.59912    73.3892   6   7   0.0075   0.0222   0.0319   0.0053  -0.0099  -0.0049   0.00    0.0
2021/11/12 12:32:42.000   28 35 34.11519  -17 55 01.59913    73.3894   6   7   0.0075   0.0222   0.0318   0.0053  -0.0099  -0.0049   0.00    0.0
2021/11/12 12:33:12.000   28 35 34.11519  -17 55 01.59912    73.3895   6   7   0.0075   0.0222   0.0318   0.0053  -0.0099  -0.0049   0.00    0.0
2021/11/12 12:33:42.000   28 35 34.11520  -17 55 01.59912    73.3895   6   7   0.0075   0.0222   0.0318   0.0053  -0.0099  -0.0049   0.00    0.0
2021/11/12 12:34:12.000   28 35 34.11520  -17 55 01.59912    73.3896   6   7   0.0075   0.0222   0.0318   0.0053  -0.0099  -0.0049   0.00    0.0
2021/11/12 12:34:42.000   28 35 34.11520  -17 55 01.59912    73.3895   6   7   0.0074   0.0222   0.0318   0.0053  -0.0099  -0.0049   0.00    0.0
2021/11/12 12:35:12.000   28 35 34.11520  -17 55 01.59913    73.3895   6   7   0.0074   0.0222   0.0318   0.0053  -0.0099  -0.0049   0.00    0.0
2021/11/12 12:35:42.000   28 35 34.11520  -17 55 01.59913    73.3894   6   7   0.0074   0.0222   0.0318   0.0053  -0.0099  -0.0049   0.00    0.0
2021/11/12 12:36:12.000   28 35 34.11520  -17 55 01.59913    73.3894   6   8   0.0074   0.0222   0.0318   0.0053  -0.0099  -0.0049   0.00    0.0
2021/11/12 12:36:42.000   28 35 34.11520  -17 55 01.59914    73.3894   6   9   0.0074   0.0222   0.0318   0.0053  -0.0099  -0.0049   0.00    0.0
2021/11/12 12:37:12.000   28 35 34.11520  -17 55 01.59914    73.3894   6   9   0.0074   0.0222   0.0318   0.0053  -0.0099  -0.0049   0.00    0.0
2021/11/12 12:37:42.000   28 35 34.11520  -17 55 01.59914    73.3893   6   9   0.0074   0.0222   0.0318   0.0053  -0.0099  -0.0049   0.00    0.0
2021/11/12 12:38:12.000   28 35 34.11520  -17 55 01.59915    73.3893   6   9   0.0074   0.0222   0.0318   0.0053  -0.0099  -0.0049   0.00    0.0
2021/11/12 12:38:42.000   28 35 34.11520  -17 55 01.59916    73.3892   6   9   0.0074   0.0222   0.0318   0.0053  -0.0099  -0.0049   0.00    0.0
2021/11/12 12:39:12.000   28 35 34.11520  -17 55 01.59917    73.3892   6   9   0.0074   0.0221   0.0318   0.0053  -0.0099  -0.0049   0.00    0.0
2021/11/12 12:39:42.000   28 35 34.11520  -17 55 01.59917    73.3892   6   9   0.0074   0.0221   0.0318   0.0053  -0.0099  -0.0049   0.00    0.0
2021/11/12 12:40:12.000   28 35 34.11520  -17 55 01.59917    73.3893   6   9   0.0074   0.0221   0.0318   0.0053  -0.0099  -0.0049   0.00    0.0
2021/11/12 12:40:42.000   28 35 34.11520  -17 55 01.59917    73.3892   6   9   0.0074   0.0221   0.0318   0.0053  -0.0099  -0.0049   0.00    0.0
2021/11/12 12:41:12.000   28 35 34.11520  -17 55 01.59917    73.3892   6   9   0.0074   0.0221   0.0318   0.0053  -0.0099  -0.0049   0.00    0.0
2021/11/12 12:41:42.000   28 35 34.11520  -17 55 01.59917    73.3892   6   9   0.0074   0.0221   0.0318   0.0053  -0.0099  -0.0049   0.00    0.0
2021/11/12 12:42:12.000   28 35 34.11519  -17 55 01.59917    73.3893   6   9   0.0074   0.0221   0.0318   0.0053  -0.0100  -0.0049   0.00    0.0
2021/11/12 12:42:42.000   28 35 34.11519  -17 55 01.59916    73.3896   6   9   0.0074   0.0220   0.0318   0.0053  -0.0100  -0.0049   0.00    0.0
2021/11/12 12:43:12.000   28 35 34.11519  -17 55 01.59914    73.3899   6   9   0.0074   0.0220   0.0318   0.0053  -0.0100  -0.0049   0.00    0.0
2021/11/12 12:43:42.000   28 35 34.11517  -17 55 01.59911    73.3916   6   9   0.0074   0.0219   0.0318   0.0053  -0.0101  -0.0048   0.00    0.0
2021/11/12 12:44:12.000   28 35 34.11516  -17 55 01.59908    73.3933   6   9   0.0073   0.0216   0.0317   0.0054  -0.0104  -0.0048   0.00    0.0
2021/11/12 12:44:42.000   28 35 34.11513  -17 55 01.59920    73.3923   6   9   0.0070   0.0209   0.0315   0.0054  -0.0110  -0.0046   0.00    0.0
2021/11/12 12:45:12.000   28 35 34.11512  -17 55 01.59931    73.3928   6   9   0.0069   0.0208   0.0315   0.0054  -0.0112  -0.0046   0.00    0.0
2021/11/12 12:45:42.000   28 35 34.11511  -17 55 01.59934    73.3928   6   9   0.0069   0.0207   0.0315   0.0054  -0.0112  -0.0045   0.00    0.0
2021/11/12 12:46:12.000   28 35 34.11511  -17 55 01.59935    73.3928   6   9   0.0069   0.0207   0.0315   0.0054  -0.0112  -0.0045   0.00    0.0
2021/11/12 12:46:42.000   28 35 34.11512  -17 55 01.59936    73.3925   6   9   0.0069   0.0207   0.0314   0.0054  -0.0112  -0.0045   0.00    0.0
2021/11/12 12:47:12.000   28 35 34.11512  -17 55 01.59936    73.3922   6   9   0.0069   0.0207   0.0314   0.0054  -0.0112  -0.0045   0.00    0.0
2021/11/12 12:47:42.000   28 35 34.11512  -17 55 01.59936    73.3920   6   9   0.0069   0.0207   0.0314   0.0054  -0.0112  -0.0045   0.00    0.0
2021/11/12 12:48:12.000   28 35 34.11512  -17 55 01.59936    73.3917   6   9   0.0069   0.0207   0.0314   0.0054  -0.0112  -0.0045   0.00    0.0
2021/11/12 12:48:42.000   28 35 34.11512  -17 55 01.59937    73.3915   6   9   0.0069   0.0207   0.0314   0.0054  -0.0112  -0.0045   0.00    0.0
2021/11/12 12:49:12.000   28 35 34.11512  -17 55 01.59937    73.3913   6   9   0.0069   0.0206   0.0314   0.0054  -0.0112  -0.0045   0.00    0.0
2021/11/12 12:49:42.000   28 35 34.11512  -17 55 01.59938    73.3913   6   9   0.0069   0.0206   0.0314   0.0054  -0.0112  -0.0045   0.00    0.0
2021/11/12 12:50:12.000   28 35 34.11512  -17 55 01.59939    73.3912   6   9   0.0069   0.0206   0.0314   0.0054  -0.0112  -0.0045   0.00    0.0
2021/11/12 12:50:42.000   28 35 34.11512  -17 55 01.59939    73.3911   6   9   0.0069   0.0206   0.0314   0.0054  -0.0112  -0.0045   0.00    0.0
2021/11/12 12:51:12.000   28 35 34.11512  -17 55 01.59938    73.3909   6   9   0.0069   0.0206   0.0314   0.0054  -0.0112  -0.0045   0.00    0.0
2021/11/12 12:51:42.000   28 35 34.11512  -17 55 01.59938    73.3907   6   9   0.0069   0.0206   0.0314   0.0054  -0.0112  -0.0045   0.00    0.0
2021/11/12 12:52:12.000   28 35 34.11512  -17 55 01.59938    73.3907   6   9   0.0069   0.0206   0.0314   0.0054  -0.0112  -0.0045   0.00    0.0
2021/11/12 12:52:42.000   28 35 34.11512  -17 55 01.59939    73.3906   6   9   0.0069   0.0206   0.0314   0.0054  -0.0112  -0.0045   0.00    0.0
2021/11/12 12:53:12.000   28 35 34.11513  -17 55 01.59939    73.3904   6   9   0.0069   0.0206   0.0314   0.0054  -0.0112  -0.0045   0.00    0.0
2021/11/12 12:53:42.000   28 35 34.11513  -17 55 01.59939    73.3903   6   9   0.0069   0.0206   0.0314   0.0054  -0.0112  -0.0045   0.00    0.0
2021/11/12 12:54:12.000   28 35 34.11513  -17 55 01.59939    73.3902   6   9   0.0069   0.0206   0.0314   0.0054  -0.0112  -0.0045   0.00    0.0
2021/11/12 12:54:42.000   28 35 34.11513  -17 55 01.59940    73.3901   6   9   0.0069   0.0206   0.0314   0.0054  -0.0112  -0.0045   0.00    0.0
2021/11/12 12:55:12.000   28 35 34.11513  -17 55 01.59939    73.3899   6   9   0.0069   0.0206   0.0314   0.0054  -0.0112  -0.0045   0.00    0.0
2021/11/12 12:55:42.000   28 35 34.11513  -17 55 01.59940    73.3898   6   9   0.0069   0.0206   0.0314   0.0054  -0.0112  -0.0045   0.00    0.0
2021/11/12 12:56:12.000   28 35 34.11513  -17 55 01.59940    73.3896   6   9   0.0069   0.0206   0.0314   0.0054  -0.0112  -0.0045   0.00    0.0
2021/11/12 12:56:42.000   28 35 34.11513  -17 55 01.59941    73.3894   6   9   0.0069   0.0206   0.0314   0.0054  -0.0112  -0.0045   0.00    0.0
2021/11/12 12:57:12.000   28 35 34.11514  -17 55 01.59942    73.3891   6   9   0.0069   0.0205   0.0314   0.0054  -0.0113  -0.0045   0.00    0.0
2021/11/12 12:57:42.000   28 35 34.11514  -17 55 01.59943    73.3887   6   9   0.0068   0.0205   0.0314   0.0054  -0.0113  -0.0045   0.00    0.0
2021/11/12 12:58:12.000   28 35 34.11514  -17 55 01.59944    73.3886   6   9   0.0068   0.0205   0.0314   0.0054  -0.0113  -0.0045   0.00    0.0
2021/11/12 12:58:42.000   28 35 34.11513  -17 55 01.59946    73.3880   6   9   0.0068   0.0204   0.0313   0.0054  -0.0114  -0.0045   0.00    0.0
2021/11/12 12:59:12.000   28 35 34.11510  -17 55 01.59951    73.3861   6   9   0.0067   0.0203   0.0312   0.0054  -0.0115  -0.0045   0.00    0.0
2021/11/12 12:59:42.000   28 35 34.11511  -17 55 01.59949    73.3851   6   9   0.0065   0.0199   0.0309   0.0054  -0.0120  -0.0044   0.00    0.0
2021/11/12 13:00:12.000   28 35 34.11512  -17 55 01.59947    73.3855   6   9   0.0064   0.0198   0.0308   0.0053  -0.0121  -0.0044   0.00    0.0
2021/11/12 13:00:42.000   28 35 34.11513  -17 55 01.59946    73.3853   6   9   0.0064   0.0197   0.0308   0.0053  -0.0122  -0.0044   0.00    0.0
2021/11/12 13:01:12.000   28 35 34.11513  -17 55 01.59945    73.3850   6   9   0.0064   0.0197   0.0308   0.0053  -0.0122  -0.0044   0.00    0.0
2021/11/12 13:01:42.000   28 35 34.11513  -17 55 01.59946    73.3848   6   9   0.0064   0.0197   0.0308   0.0053  -0.0122  -0.0044   0.00    0.0
2021/11/12 13:02:12.000   28 35 34.11513  -17 55 01.59947    73.3846   6   9   0.0064   0.0197   0.0308   0.0053  -0.0122  -0.0044   0.00    0.0
2021/11/12 13:02:42.000   28 35 34.11513  -17 55 01.59947    73.3844   6   9   0.0064   0.0197   0.0308   0.0053  -0.0122  -0.0044   0.00    0.0
2021/11/12 13:03:12.000   28 35 34.11514  -17 55 01.59948    73.3843   6   9   0.0064   0.0197   0.0308   0.0053  -0.0122  -0.0044   0.00    0.0
2021/11/12 13:03:42.000   28 35 34.11514  -17 55 01.59948    73.3842   6   9   0.0064   0.0197   0.0308   0.0053  -0.0122  -0.0044   0.00    0.0
2021/11/12 13:04:12.000   28 35 34.11514  -17 55 01.59948    73.3842   6   9   0.0064   0.0197   0.0308   0.0053  -0.0122  -0.0044   0.00    0.0
2021/11/12 13:04:42.000   28 35 34.11514  -17 55 01.59947    73.3841   6   9   0.0064   0.0197   0.0308   0.0053  -0.0122  -0.0044   0.00    0.0
2021/11/12 13:05:12.000   28 35 34.11514  -17 55 01.59947    73.3840   6   9   0.0064   0.0197   0.0307   0.0053  -0.0122  -0.0044   0.00    0.0
2021/11/12 13:05:42.000   28 35 34.11514  -17 55 01.59947    73.3839   6   9   0.0064   0.0197   0.0307   0.0053  -0.0122  -0.0044   0.00    0.0
2021/11/12 13:06:12.000   28 35 34.11514  -17 55 01.59947    73.3838   6   9   0.0064   0.0197   0.0307   0.0053  -0.0122  -0.0044   0.00    0.0
2021/11/12 13:06:42.000   28 35 34.11514  -17 55 01.59947    73.3838   6   9   0.0064   0.0197   0.0307   0.0053  -0.0122  -0.0044   0.00    0.0
2021/11/12 13:07:12.000   28 35 34.11514  -17 55 01.59947    73.3838   6   9   0.0064   0.0197   0.0307   0.0053  -0.0122  -0.0044   0.00    0.0
2021/11/12 13:07:42.000   28 35 34.11514  -17 55 01.59948    73.3837   6   9   0.0064   0.0197   0.0307   0.0053  -0.0122  -0.0044   0.00    0.0
2021/11/12 13:08:12.000   28 35 34.11514  -17 55 01.59948    73.3837   6   8   0.0064   0.0197   0.0307   0.0053  -0.0122  -0.0044   0.00    0.0
2021/11/12 13:08:42.000   28 35 34.11514  -17 55 01.59948    73.3836   6   8   0.0064   0.0197   0.0307   0.0053  -0.0122  -0.0044   0.00    0.0
2021/11/12 13:09:12.000   28 35 34.11514  -17 55 01.59949    73.3835   6   8   0.0064   0.0196   0.0307   0.0053  -0.0122  -0.0044   0.00    0.0
2021/11/12 13:09:42.000   28 35 34.11514  -17 55 01.59950    73.3834   6   8   0.0064   0.0196   0.0307   0.0053  -0.0122  -0.0044   0.00    0.0
2021/11/12 13:10:12.000   28 35 34.11514  -17 55 01.59950    73.3833   6   8   0.0064   0.0196   0.0307   0.0053  -0.0122  -0.0044   0.00    0.0
