% program   : RTKLIB ver.2.4.2
% inp file  : C:\IPNA\data\OBS\CVBB2780.o
% inp file  : C:\IPNA\data\NAV\CVBB2780.n
% inp file  : C:\IPNA\data\SP3\CVBB2780.sp3
% inp file  : C:\IPNA\data\CLOCK\CVBB2780.clk
% obs start : 2021/10/04 23:59:42.0 UTC (week2178 172800.0s)
% obs end   : 2021/10/05 05:15:12.0 UTC (week2178 191730.0s)
% pos mode  : ppp-static
% solution  : forward
% elev mask : 15.0 deg
% dynamics  : off
% tidecorr  : on
% tropo opt : est ztd
% ephemeris : precise
% antenna1  :                       ( 0.0000  0.0000  0.0000)
%
% (lat/lon/height=WGS84/ellipsoidal,Q=1:fix,2:float,3:sbas,4:dgps,5:single,6:ppp,ns=# of satellites)
%  UTC                     latitude(d'")   longitude(d'")  height(m)   Q  ns   sdn(m)   sde(m)   sdu(m)  sdne(m)  sdeu(m)  sdue(m) age(s)  ratio
2021/10/04 23:59:42.000   28 35 34.07419  -17 55 01.63524    74.6799   6   6   1.5897   1.4793   4.2041  -0.5819  -0.7976  -1.1043   0.00    0.0
2021/10/05 00:00:12.000   28 35 34.07178  -17 55 01.63068    74.1397   6   6   1.1086   1.0434   2.8487  -0.4020  -0.5414  -0.7714   0.00    0.0
2021/10/05 00:00:42.000   28 35 34.06786  -17 55 01.61988    74.3542   6   6   0.8984   0.8508   2.2993  -0.3238  -0.4363  -0.6269   0.00    0.0
2021/10/05 00:01:12.000   28 35 34.07089  -17 55 01.61320    74.8662   6   6   0.7744   0.7360   1.9796  -0.2777  -0.3732  -0.5432   0.00    0.0
2021/10/05 00:01:42.000   28 35 34.07055  -17 55 01.60806    74.8806   6   6   0.6903   0.6578   1.7656  -0.2464  -0.3299  -0.4873   0.00    0.0
2021/10/05 00:02:12.000   28 35 34.07123  -17 55 01.60541    74.9189   6   6   0.6286   0.6002   1.6099  -0.2235  -0.2977  -0.4468   0.00    0.0
2021/10/05 00:02:42.000   28 35 34.07142  -17 55 01.60723    75.3316   6   6   0.5765   0.5548   1.4632  -0.2035  -0.2716  -0.4093   0.00    0.0
2021/10/05 00:03:12.000   28 35 34.07200  -17 55 01.60944    75.4301   6   6   0.5276   0.5173   1.3049  -0.1837  -0.2495  -0.3690   0.00    0.0
2021/10/05 00:03:42.000   28 35 34.07512  -17 55 01.61350    75.2522   6   6   0.4736   0.4848   1.1105  -0.1598  -0.2310  -0.3176   0.00    0.0
2021/10/05 00:04:12.000   28 35 34.08393  -17 55 01.61411    74.3845   6   6   0.4006   0.4534   0.8573  -0.1234  -0.2176  -0.2428   0.00    0.0
2021/10/05 00:04:42.000   28 35 34.09234  -17 55 01.61320    73.7655   6   6   0.3185   0.4217   0.6312  -0.0784  -0.2099  -0.1594   0.00    0.0
2021/10/05 00:05:12.000   28 35 34.09285  -17 55 01.61262    73.7431   6   6   0.2996   0.4025   0.5981  -0.0710  -0.2016  -0.1474   0.00    0.0
2021/10/05 00:05:42.000   28 35 34.09183  -17 55 01.61301    73.7780   6   6   0.2896   0.3869   0.5839  -0.0694  -0.1944  -0.1422   0.00    0.0
2021/10/05 00:06:12.000   28 35 34.09128  -17 55 01.61304    73.7956   6   6   0.2821   0.3734   0.5746  -0.0689  -0.1879  -0.1388   0.00    0.0
2021/10/05 00:06:42.000   28 35 34.09075  -17 55 01.61333    73.7992   6   6   0.2758   0.3612   0.5673  -0.0687  -0.1820  -0.1362   0.00    0.0
2021/10/05 00:07:12.000   28 35 34.09076  -17 55 01.61396    73.8426   6   6   0.2702   0.3503   0.5612  -0.0685  -0.1767  -0.1341   0.00    0.0
2021/10/05 00:07:42.000   28 35 34.09030  -17 55 01.61538    73.8566   6   6   0.2638   0.3401   0.5527  -0.0675  -0.1718  -0.1310   0.00    0.0
2021/10/05 00:08:12.000   28 35 34.09002  -17 55 01.61543    73.8567   6   6   0.2556   0.3303   0.5394  -0.0650  -0.1676  -0.1256   0.00    0.0
2021/10/05 00:08:42.000   28 35 34.09158  -17 55 01.61604    73.7743   6   6   0.2430   0.3204   0.5149  -0.0593  -0.1643  -0.1143   0.00    0.0
2021/10/05 00:09:12.000   28 35 34.09678  -17 55 01.61717    73.6196   6   6   0.2184   0.3088   0.4642  -0.0451  -0.1631  -0.0857   0.00    0.0
2021/10/05 00:09:42.000   28 35 34.10372  -17 55 01.61882    73.4942   6   6   0.1793   0.2929   0.3900  -0.0191  -0.1645   0.0193   0.00    0.0
2021/10/05 00:10:12.000   28 35 34.10465  -17 55 01.61938    73.4744   6   6   0.1709   0.2848   0.3783  -0.0141  -0.1622   0.0355   0.00    0.0
2021/10/05 00:10:42.000   28 35 34.10446  -17 55 01.61970    73.4741   6   6   0.1674   0.2786   0.3739  -0.0150  -0.1596   0.0389   0.00    0.0
2021/10/05 00:11:12.000   28 35 34.10420  -17 55 01.61986    73.4738   6   6   0.1651   0.2731   0.3713  -0.0168  -0.1570   0.0404   0.00    0.0
2021/10/05 00:11:42.000   28 35 34.10414  -17 55 01.62019    73.4777   6   6   0.1633   0.2681   0.3694  -0.0186  -0.1546   0.0411   0.00    0.0
2021/10/05 00:12:12.000   28 35 34.10378  -17 55 01.61964    73.4868   6   6   0.1617   0.2634   0.3679  -0.0202  -0.1522   0.0414   0.00    0.0
2021/10/05 00:12:42.000   28 35 34.10365  -17 55 01.61956    73.4886   6   6   0.1598   0.2587   0.3657  -0.0212  -0.1501   0.0424   0.00    0.0
2021/10/05 00:13:12.000   28 35 34.10347  -17 55 01.61845    73.4769   6   6   0.1570   0.2541   0.3621  -0.0214  -0.1482   0.0448   0.00    0.0
2021/10/05 00:13:42.000   28 35 34.10334  -17 55 01.61785    73.4518   6   6   0.1522   0.2491   0.3552  -0.0202  -0.1468   0.0503   0.00    0.0
2021/10/05 00:14:12.000   28 35 34.10440  -17 55 01.61692    73.3689   6   6   0.1414   0.2425   0.3388  -0.0156  -0.1468   0.0625   0.00    0.0
2021/10/05 00:14:42.000   28 35 34.10768  -17 55 01.61540    73.3106   6   6   0.1215   0.2323   0.3085  -0.0137  -0.1489   0.0788   0.00    0.0
2021/10/05 00:15:12.000   28 35 34.10891  -17 55 01.61572    73.3192   6   6   0.1169   0.2275   0.3027  -0.0145  -0.1480   0.0804   0.00    0.0
2021/10/05 00:15:42.000   28 35 34.10938  -17 55 01.61635    73.3156   6   6   0.1152   0.2240   0.3006  -0.0155  -0.1467   0.0807   0.00    0.0
2021/10/05 00:16:12.000   28 35 34.10952  -17 55 01.61661    73.3131   6   6   0.1141   0.2210   0.2993  -0.0163  -0.1452   0.0807   0.00    0.0
2021/10/05 00:16:42.000   28 35 34.10956  -17 55 01.61661    73.3177   6   6   0.1133   0.2182   0.2983  -0.0171  -0.1438   0.0806   0.00    0.0
2021/10/05 00:17:12.000   28 35 34.10953  -17 55 01.61686    73.3240   6   6   0.1127   0.2156   0.2975  -0.0177  -0.1424   0.0805   0.00    0.0
2021/10/05 00:17:42.000   28 35 34.10949  -17 55 01.61696    73.3308   6   6   0.1119   0.2130   0.2965  -0.0183  -0.1410   0.0805   0.00    0.0
2021/10/05 00:18:12.000   28 35 34.10948  -17 55 01.61695    73.3427   6   6   0.1106   0.2103   0.2949  -0.0189  -0.1399   0.0807   0.00    0.0
2021/10/05 00:18:42.000   28 35 34.10984  -17 55 01.61704    73.3503   6   6   0.1084   0.2073   0.2919  -0.0196  -0.1390   0.0814   0.00    0.0
2021/10/05 00:19:12.000   28 35 34.11108  -17 55 01.61691    73.3464   6   6   0.1030   0.2031   0.2847  -0.0213  -0.1392   0.0839   0.00    0.0
2021/10/05 00:19:42.000   28 35 34.11216  -17 55 01.61563    73.3086   6   6   0.0917   0.1961   0.2686  -0.0264  -0.1408   0.0886   0.00    0.0
2021/10/05 00:20:12.000   28 35 34.11339  -17 55 01.61552    73.2782   6   6   0.0891   0.1929   0.2651  -0.0275  -0.1404   0.0889   0.00    0.0
2021/10/05 00:20:42.000   28 35 34.11402  -17 55 01.61541    73.2691   6   6   0.0881   0.1907   0.2637  -0.0278  -0.1394   0.0888   0.00    0.0
2021/10/05 00:21:12.000   28 35 34.11429  -17 55 01.61558    73.2669   6   6   0.0875   0.1888   0.2628  -0.0280  -0.1384   0.0887   0.00    0.0
2021/10/05 00:21:42.000   28 35 34.11440  -17 55 01.61580    73.2688   6   6   0.0871   0.1871   0.2621  -0.0280  -0.1374   0.0885   0.00    0.0
2021/10/05 00:22:12.000   28 35 34.11444  -17 55 01.61510    73.2605   6   6   0.0868   0.1854   0.2615  -0.0280  -0.1364   0.0883   0.00    0.0
2021/10/05 00:22:42.000   28 35 34.11449  -17 55 01.61498    73.2614   6   6   0.0864   0.1837   0.2608  -0.0281  -0.1354   0.0882   0.00    0.0
2021/10/05 00:23:12.000   28 35 34.11454  -17 55 01.61458    73.2580   6   6   0.0857   0.1820   0.2598  -0.0283  -0.1346   0.0881   0.00    0.0
2021/10/05 00:23:42.000   28 35 34.11483  -17 55 01.61477    73.2582   6   6   0.0846   0.1800   0.2580  -0.0288  -0.1340   0.0882   0.00    0.0
2021/10/05 00:24:12.000   28 35 34.11527  -17 55 01.61417    73.2453   6   6   0.0817   0.1772   0.2539  -0.0304  -0.1339   0.0889   0.00    0.0
2021/10/05 00:24:42.000   28 35 34.11520  -17 55 01.61375    73.2675   6   6   0.0751   0.1722   0.2436  -0.0346  -0.1349   0.0904   0.00    0.0
2021/10/05 00:25:12.000   28 35 34.11558  -17 55 01.61389    73.2641   6   6   0.0735   0.1700   0.2411  -0.0354  -0.1345   0.0903   0.00    0.0
2021/10/05 00:25:42.000   28 35 34.11567  -17 55 01.61401    73.2643   6   6   0.0729   0.1685   0.2400  -0.0355  -0.1338   0.0902   0.00    0.0
2021/10/05 00:26:12.000   28 35 34.11559  -17 55 01.61382    73.2617   6   6   0.0725   0.1671   0.2393  -0.0355  -0.1330   0.0900   0.00    0.0
2021/10/05 00:26:42.000   28 35 34.11552  -17 55 01.61327    73.2567   6   6   0.0723   0.1659   0.2387  -0.0354  -0.1322   0.0898   0.00    0.0
2021/10/05 00:27:12.000   28 35 34.11552  -17 55 01.61314    73.2590   6   6   0.0721   0.1647   0.2381  -0.0352  -0.1314   0.0896   0.00    0.0
2021/10/05 00:27:42.000   28 35 34.11551  -17 55 01.61331    73.2672   6   6   0.0718   0.1636   0.2375  -0.0351  -0.1306   0.0895   0.00    0.0
2021/10/05 00:28:12.000   28 35 34.11560  -17 55 01.61369    73.2757   6   6   0.0714   0.1623   0.2367  -0.0352  -0.1300   0.0893   0.00    0.0
2021/10/05 00:28:42.000   28 35 34.11570  -17 55 01.61437    73.2892   6   6   0.0707   0.1609   0.2354  -0.0355  -0.1294   0.0893   0.00    0.0
2021/10/05 00:29:12.000   28 35 34.11580  -17 55 01.61472    73.3044   6   6   0.0690   0.1589   0.2324  -0.0366  -0.1293   0.0894   0.00    0.0
2021/10/05 00:29:42.000   28 35 34.11544  -17 55 01.61400    73.3198   6   6   0.0649   0.1552   0.2250  -0.0398  -0.1297   0.0898   0.00    0.0
2021/10/05 00:30:12.000   28 35 34.11513  -17 55 01.61377    73.3286   6   6   0.0639   0.1536   0.2230  -0.0403  -0.1293   0.0896   0.00    0.0
2021/10/05 00:30:42.000   28 35 34.11504  -17 55 01.61349    73.3261   6   6   0.0634   0.1524   0.2220  -0.0403  -0.1288   0.0894   0.00    0.0
2021/10/05 00:31:12.000   28 35 34.11499  -17 55 01.61329    73.3173   6   6   0.0632   0.1515   0.2213  -0.0402  -0.1281   0.0892   0.00    0.0
2021/10/05 00:31:42.000   28 35 34.11494  -17 55 01.61321    73.3119   6   6   0.0630   0.1505   0.2208  -0.0401  -0.1275   0.0890   0.00    0.0
2021/10/05 00:32:12.000   28 35 34.11489  -17 55 01.61305    73.3070   6   6   0.0629   0.1497   0.2203  -0.0399  -0.1268   0.0888   0.00    0.0
2021/10/05 00:32:42.000   28 35 34.11483  -17 55 01.61290    73.3009   6   6   0.0627   0.1488   0.2197  -0.0398  -0.1262   0.0887   0.00    0.0
2021/10/05 00:33:12.000   28 35 34.11479  -17 55 01.61250    73.2890   6   6   0.0625   0.1478   0.2190  -0.0397  -0.1256   0.0885   0.00    0.0
2021/10/05 00:33:42.000   28 35 34.11484  -17 55 01.61211    73.2742   6   6   0.0620   0.1468   0.2179  -0.0399  -0.1251   0.0883   0.00    0.0
2021/10/05 00:34:12.000   28 35 34.11513  -17 55 01.61162    73.2561   6   6   0.0609   0.1452   0.2155  -0.0407  -0.1249   0.0882   0.00    0.0
2021/10/05 00:34:42.000   28 35 34.11492  -17 55 01.61170    73.2852   6   6   0.0581   0.1424   0.2097  -0.0430  -0.1250   0.0882   0.00    0.0
2021/10/05 00:35:12.000   28 35 34.11461  -17 55 01.61139    73.2937   6   6   0.0574   0.1412   0.2079  -0.0434  -0.1247   0.0878   0.00    0.0
2021/10/05 00:35:42.000   28 35 34.11456  -17 55 01.61117    73.2876   6   6   0.0571   0.1403   0.2071  -0.0434  -0.1242   0.0876   0.00    0.0
2021/10/05 00:36:12.000   28 35 34.11451  -17 55 01.61092    73.2794   6   6   0.0569   0.1395   0.2065  -0.0432  -0.1236   0.0874   0.00    0.0
2021/10/05 00:36:42.000   28 35 34.11447  -17 55 01.61077    73.2737   6   6   0.0568   0.1388   0.2059  -0.0431  -0.1231   0.0872   0.00    0.0
2021/10/05 00:37:12.000   28 35 34.11443  -17 55 01.61058    73.2688   6   6   0.0567   0.1381   0.2055  -0.0429  -0.1225   0.0870   0.00    0.0
2021/10/05 00:37:42.000   28 35 34.11438  -17 55 01.61069    73.2709   6   6   0.0566   0.1374   0.2050  -0.0427  -0.1219   0.0869   0.00    0.0
2021/10/05 00:38:12.000   28 35 34.11428  -17 55 01.61069    73.2718   6   6   0.0564   0.1367   0.2043  -0.0426  -0.1214   0.0867   0.00    0.0
2021/10/05 00:38:42.000   28 35 34.11419  -17 55 01.61060    73.2704   6   6   0.0561   0.1358   0.2033  -0.0427  -0.1209   0.0865   0.00    0.0
2021/10/05 00:39:12.000   28 35 34.11421  -17 55 01.61069    73.2826   6   6   0.0553   0.1345   0.2012  -0.0432  -0.1206   0.0862   0.00    0.0
2021/10/05 00:39:42.000   28 35 34.11439  -17 55 01.61053    73.2946   6   6   0.0535   0.1322   0.1965  -0.0449  -0.1203   0.0859   0.00    0.0
2021/10/05 00:40:12.000   28 35 34.11431  -17 55 01.61057    73.3040   6   6   0.0529   0.1311   0.1949  -0.0451  -0.1199   0.0856   0.00    0.0
2021/10/05 00:40:42.000   28 35 34.11427  -17 55 01.61059    73.3052   6   6   0.0527   0.1304   0.1941  -0.0451  -0.1194   0.0853   0.00    0.0
2021/10/05 00:41:12.000   28 35 34.11420  -17 55 01.61049    73.3027   6   6   0.0526   0.1297   0.1935  -0.0450  -0.1189   0.0851   0.00    0.0
2021/10/05 00:41:42.000   28 35 34.11411  -17 55 01.61025    73.2950   6   6   0.0525   0.1292   0.1931  -0.0448  -0.1184   0.0849   0.00    0.0
2021/10/05 00:42:12.000   28 35 34.11404  -17 55 01.61003    73.2883   6   6   0.0524   0.1286   0.1926  -0.0446  -0.1179   0.0848   0.00    0.0
2021/10/05 00:42:42.000   28 35 34.11397  -17 55 01.60981    73.2835   6   6   0.0523   0.1280   0.1921  -0.0444  -0.1174   0.0846   0.00    0.0
2021/10/05 00:43:12.000   28 35 34.11392  -17 55 01.60980    73.2846   6   6   0.0521   0.1274   0.1915  -0.0443  -0.1169   0.0844   0.00    0.0
2021/10/05 00:43:42.000   28 35 34.11384  -17 55 01.60976    73.2878   6   6   0.0519   0.1267   0.1905  -0.0443  -0.1164   0.0841   0.00    0.0
2021/10/05 00:44:12.000   28 35 34.11382  -17 55 01.60977    73.3031   6   6   0.0513   0.1255   0.1885  -0.0445  -0.1158   0.0837   0.00    0.0
2021/10/05 00:44:42.000   28 35 34.11404  -17 55 01.60976    73.3237   6   6   0.0499   0.1231   0.1842  -0.0454  -0.1148   0.0831   0.00    0.0
2021/10/05 00:45:12.000   28 35 34.11416  -17 55 01.60978    73.3253   6   6   0.0495   0.1221   0.1826  -0.0455  -0.1142   0.0826   0.00    0.0
2021/10/05 00:45:42.000   28 35 34.11413  -17 55 01.60951    73.3216   6   6   0.0493   0.1215   0.1818  -0.0454  -0.1137   0.0824   0.00    0.0
2021/10/05 00:46:12.000   28 35 34.11411  -17 55 01.60948    73.3240   6   6   0.0492   0.1210   0.1812  -0.0452  -0.1133   0.0822   0.00    0.0
2021/10/05 00:46:42.000   28 35 34.11410  -17 55 01.60953    73.3265   6   6   0.0491   0.1205   0.1807  -0.0450  -0.1128   0.0820   0.00    0.0
2021/10/05 00:47:12.000   28 35 34.11405  -17 55 01.60945    73.3245   6   6   0.0490   0.1200   0.1803  -0.0448  -0.1123   0.0818   0.00    0.0
2021/10/05 00:47:42.000   28 35 34.11401  -17 55 01.60937    73.3234   6   6   0.0489   0.1195   0.1798  -0.0447  -0.1118   0.0816   0.00    0.0
2021/10/05 00:48:12.000   28 35 34.11397  -17 55 01.60934    73.3254   6   6   0.0488   0.1190   0.1792  -0.0445  -0.1113   0.0814   0.00    0.0
2021/10/05 00:48:42.000   28 35 34.11394  -17 55 01.60924    73.3344   6   6   0.0486   0.1183   0.1782  -0.0443  -0.1107   0.0811   0.00    0.0
2021/10/05 00:49:12.000   28 35 34.11403  -17 55 01.60930    73.3605   6   6   0.0481   0.1172   0.1759  -0.0441  -0.1097   0.0804   0.00    0.0
2021/10/05 00:49:42.000   28 35 34.11452  -17 55 01.60905    73.4038   6   6   0.0468   0.1147   0.1709  -0.0439  -0.1074   0.0791   0.00    0.0
2021/10/05 00:50:12.000   28 35 34.11458  -17 55 01.60924    73.4333   6   6   0.0464   0.1137   0.1691  -0.0436  -0.1065   0.0785   0.00    0.0
2021/10/05 00:50:42.000   28 35 34.11459  -17 55 01.60923    73.4436   6   6   0.0462   0.1131   0.1682  -0.0434  -0.1059   0.0782   0.00    0.0
2021/10/05 00:51:12.000   28 35 34.11465  -17 55 01.60946    73.4561   6   6   0.0461   0.1126   0.1676  -0.0432  -0.1054   0.0780   0.00    0.0
2021/10/05 00:51:42.000   28 35 34.11466  -17 55 01.60951    73.4597   6   6   0.0460   0.1122   0.1672  -0.0430  -0.1050   0.0778   0.00    0.0
2021/10/05 00:52:12.000   28 35 34.11466  -17 55 01.60950    73.4607   6   6   0.0460   0.1118   0.1668  -0.0429  -0.1045   0.0776   0.00    0.0
2021/10/05 00:52:42.000   28 35 34.11467  -17 55 01.60948    73.4622   6   6   0.0459   0.1114   0.1663  -0.0427  -0.1041   0.0774   0.00    0.0
2021/10/05 00:53:12.000   28 35 34.11466  -17 55 01.60948    73.4622   6   6   0.0457   0.1109   0.1656  -0.0425  -0.1036   0.0771   0.00    0.0
2021/10/05 00:53:42.000   28 35 34.11468  -17 55 01.60949    73.4642   6   6   0.0455   0.1102   0.1645  -0.0422  -0.1028   0.0767   0.00    0.0
2021/10/05 00:54:12.000   28 35 34.11480  -17 55 01.60958    73.4866   6   6   0.0449   0.1089   0.1618  -0.0417  -0.1013   0.0757   0.00    0.0
2021/10/05 00:54:42.000   28 35 34.11535  -17 55 01.60981    73.5258   6   6   0.0434   0.1057   0.1557  -0.0406  -0.0977   0.0734   0.00    0.0
2021/10/05 00:55:12.000   28 35 34.11538  -17 55 01.60965    73.5076   6   6   0.0429   0.1046   0.1536  -0.0401  -0.0964   0.0726   0.00    0.0
2021/10/05 00:55:42.000   28 35 34.11537  -17 55 01.60958    73.5015   6   6   0.0427   0.1040   0.1526  -0.0399  -0.0958   0.0722   0.00    0.0
2021/10/05 00:56:12.000   28 35 34.11533  -17 55 01.60947    73.4963   6   6   0.0426   0.1036   0.1520  -0.0396  -0.0953   0.0720   0.00    0.0
2021/10/05 00:56:42.000   28 35 34.11531  -17 55 01.60935    73.4938   6   6   0.0425   0.1032   0.1516  -0.0395  -0.0949   0.0718   0.00    0.0
2021/10/05 00:57:12.000   28 35 34.11529  -17 55 01.60920    73.4913   6   6   0.0425   0.1029   0.1512  -0.0393  -0.0945   0.0716   0.00    0.0
2021/10/05 00:57:42.000   28 35 34.11530  -17 55 01.60909    73.4898   6   6   0.0424   0.1025   0.1508  -0.0391  -0.0941   0.0714   0.00    0.0
2021/10/05 00:58:12.000   28 35 34.11530  -17 55 01.60893    73.4879   6   7   0.0422   0.1020   0.1500  -0.0388  -0.0934   0.0711   0.00    0.0
2021/10/05 00:58:42.000   28 35 34.11536  -17 55 01.60879    73.4926   6   7   0.0419   0.1012   0.1486  -0.0384  -0.0924   0.0705   0.00    0.0
2021/10/05 00:59:12.000   28 35 34.11558  -17 55 01.60856    73.5029   6   7   0.0412   0.0997   0.1454  -0.0375  -0.0904   0.0691   0.00    0.0
2021/10/05 00:59:42.000   28 35 34.11587  -17 55 01.60803    73.5200   6   7   0.0394   0.0958   0.1383  -0.0357  -0.0856   0.0660   0.00    0.0
2021/10/05 01:00:12.000   28 35 34.11587  -17 55 01.60772    73.5091   6   7   0.0388   0.0945   0.1358  -0.0349  -0.0840   0.0650   0.00    0.0
2021/10/05 01:00:42.000   28 35 34.11583  -17 55 01.60763    73.5015   6   7   0.0386   0.0939   0.1347  -0.0346  -0.0832   0.0645   0.00    0.0
2021/10/05 01:01:12.000   28 35 34.11576  -17 55 01.60757    73.4952   6   7   0.0385   0.0934   0.1340  -0.0343  -0.0826   0.0642   0.00    0.0
2021/10/05 01:01:42.000   28 35 34.11571  -17 55 01.60747    73.4894   6   7   0.0384   0.0931   0.1334  -0.0341  -0.0821   0.0639   0.00    0.0
2021/10/05 01:02:12.000   28 35 34.11567  -17 55 01.60740    73.4855   6   7   0.0383   0.0928   0.1330  -0.0339  -0.0817   0.0637   0.00    0.0
2021/10/05 01:02:42.000   28 35 34.11566  -17 55 01.60747    73.4860   6   7   0.0382   0.0924   0.1324  -0.0336  -0.0812   0.0634   0.00    0.0
2021/10/05 01:03:12.000   28 35 34.11562  -17 55 01.60739    73.4825   6   7   0.0380   0.0919   0.1314  -0.0333  -0.0805   0.0630   0.00    0.0
2021/10/05 01:03:42.000   28 35 34.11561  -17 55 01.60725    73.4807   6   7   0.0376   0.0911   0.1295  -0.0327  -0.0792   0.0621   0.00    0.0
2021/10/05 01:04:12.000   28 35 34.11558  -17 55 01.60676    73.4657   6   7   0.0366   0.0893   0.1253  -0.0314  -0.0765   0.0602   0.00    0.0
2021/10/05 01:04:42.000   28 35 34.11550  -17 55 01.60604    73.4521   6   7   0.0345   0.0850   0.1171  -0.0288  -0.0708   0.0562   0.00    0.0
2021/10/05 01:05:12.000   28 35 34.11524  -17 55 01.60571    73.4302   6   7   0.0338   0.0837   0.1143  -0.0279  -0.0690   0.0549   0.00    0.0
2021/10/05 01:05:42.000   28 35 34.11511  -17 55 01.60556    73.4181   6   7   0.0336   0.0832   0.1131  -0.0275  -0.0681   0.0544   0.00    0.0
2021/10/05 01:06:12.000   28 35 34.11505  -17 55 01.60548    73.4129   6   7   0.0334   0.0828   0.1124  -0.0272  -0.0676   0.0541   0.00    0.0
2021/10/05 01:06:42.000   28 35 34.11501  -17 55 01.60538    73.4081   6   7   0.0333   0.0825   0.1119  -0.0270  -0.0672   0.0538   0.00    0.0
2021/10/05 01:07:12.000   28 35 34.11498  -17 55 01.60534    73.4053   6   7   0.0333   0.0823   0.1115  -0.0269  -0.0669   0.0537   0.00    0.0
2021/10/05 01:07:42.000   28 35 34.11493  -17 55 01.60518    73.4003   6   7   0.0332   0.0820   0.1110  -0.0267  -0.0665   0.0534   0.00    0.0
2021/10/05 01:08:12.000   28 35 34.11488  -17 55 01.60505    73.3968   6   7   0.0330   0.0816   0.1100  -0.0263  -0.0658   0.0530   0.00    0.0
2021/10/05 01:08:42.000   28 35 34.11478  -17 55 01.60497    73.3922   6   7   0.0326   0.0809   0.1082  -0.0257  -0.0647   0.0521   0.00    0.0
2021/10/05 01:09:12.000   28 35 34.11467  -17 55 01.60488    73.3891   6   7   0.0317   0.0793   0.1042  -0.0244  -0.0621   0.0502   0.00    0.0
2021/10/05 01:09:42.000   28 35 34.11478  -17 55 01.60457    73.3907   6   7   0.0296   0.0753   0.0967  -0.0219  -0.0568   0.0464   0.00    0.0
2021/10/05 01:10:12.000   28 35 34.11478  -17 55 01.60449    73.3932   6   7   0.0291   0.0741   0.0940  -0.0210  -0.0551   0.0451   0.00    0.0
2021/10/05 01:10:42.000   28 35 34.11476  -17 55 01.60442    73.3930   6   7   0.0288   0.0737   0.0930  -0.0206  -0.0544   0.0447   0.00    0.0
2021/10/05 01:11:12.000   28 35 34.11474  -17 55 01.60441    73.3929   6   7   0.0287   0.0734   0.0924  -0.0204  -0.0540   0.0444   0.00    0.0
2021/10/05 01:11:42.000   28 35 34.11472  -17 55 01.60432    73.3900   6   7   0.0286   0.0732   0.0920  -0.0203  -0.0537   0.0442   0.00    0.0
2021/10/05 01:12:12.000   28 35 34.11470  -17 55 01.60427    73.3883   6   7   0.0286   0.0730   0.0917  -0.0202  -0.0535   0.0441   0.00    0.0
2021/10/05 01:12:42.000   28 35 34.11468  -17 55 01.60425    73.3871   6   7   0.0285   0.0728   0.0913  -0.0200  -0.0532   0.0439   0.00    0.0
2021/10/05 01:13:12.000   28 35 34.11464  -17 55 01.60423    73.3854   6   7   0.0283   0.0724   0.0906  -0.0197  -0.0527   0.0435   0.00    0.0
2021/10/05 01:13:42.000   28 35 34.11461  -17 55 01.60422    73.3812   6   7   0.0280   0.0719   0.0892  -0.0192  -0.0518   0.0428   0.00    0.0
2021/10/05 01:14:12.000   28 35 34.11454  -17 55 01.60401    73.3680   6   7   0.0273   0.0706   0.0860  -0.0182  -0.0498   0.0413   0.00    0.0
2021/10/05 01:14:42.000   28 35 34.11446  -17 55 01.60347    73.3385   6   7   0.0256   0.0671   0.0800  -0.0161  -0.0455   0.0381   0.00    0.0
2021/10/05 01:15:12.000   28 35 34.11444  -17 55 01.60330    73.3311   6   8   0.0251   0.0661   0.0779  -0.0154  -0.0441   0.0371   0.00    0.0
2021/10/05 01:15:42.000   28 35 34.11443  -17 55 01.60322    73.3283   6   8   0.0250   0.0657   0.0770  -0.0151  -0.0436   0.0368   0.00    0.0
2021/10/05 01:16:12.000   28 35 34.11442  -17 55 01.60316    73.3262   6   8   0.0249   0.0655   0.0766  -0.0149  -0.0433   0.0365   0.00    0.0
2021/10/05 01:16:42.000   28 35 34.11441  -17 55 01.60313    73.3254   6   8   0.0248   0.0653   0.0763  -0.0148  -0.0430   0.0364   0.00    0.0
2021/10/05 01:17:12.000   28 35 34.11441  -17 55 01.60320    73.3266   6   8   0.0248   0.0652   0.0761  -0.0147  -0.0429   0.0363   0.00    0.0
2021/10/05 01:17:42.000   28 35 34.11442  -17 55 01.60317    73.3270   6   8   0.0247   0.0650   0.0757  -0.0146  -0.0426   0.0361   0.00    0.0
2021/10/05 01:18:12.000   28 35 34.11445  -17 55 01.60316    73.3292   6   8   0.0246   0.0648   0.0752  -0.0144  -0.0422   0.0359   0.00    0.0
2021/10/05 01:18:42.000   28 35 34.11449  -17 55 01.60320    73.3342   6   8   0.0243   0.0643   0.0740  -0.0140  -0.0415   0.0353   0.00    0.0
2021/10/05 01:19:12.000   28 35 34.11456  -17 55 01.60319    73.3394   6   8   0.0238   0.0632   0.0715  -0.0131  -0.0399   0.0341   0.00    0.0
2021/10/05 01:19:42.000   28 35 34.11466  -17 55 01.60308    73.3349   6   8   0.0223   0.0601   0.0667  -0.0113  -0.0364   0.0315   0.00    0.0
2021/10/05 01:20:12.000   28 35 34.11460  -17 55 01.60292    73.3251   6   8   0.0219   0.0593   0.0650  -0.0107  -0.0354   0.0307   0.00    0.0
2021/10/05 01:20:42.000   28 35 34.11456  -17 55 01.60291    73.3216   6   8   0.0218   0.0589   0.0644  -0.0105  -0.0350   0.0304   0.00    0.0
2021/10/05 01:21:12.000   28 35 34.11454  -17 55 01.60289    73.3202   6   8   0.0217   0.0588   0.0640  -0.0104  -0.0347   0.0302   0.00    0.0
2021/10/05 01:21:42.000   28 35 34.11454  -17 55 01.60284    73.3193   6   8   0.0217   0.0586   0.0638  -0.0103  -0.0345   0.0301   0.00    0.0
2021/10/05 01:22:12.000   28 35 34.11454  -17 55 01.60281    73.3188   6   8   0.0216   0.0585   0.0636  -0.0102  -0.0344   0.0300   0.00    0.0
2021/10/05 01:22:42.000   28 35 34.11453  -17 55 01.60282    73.3176   6   8   0.0216   0.0584   0.0633  -0.0101  -0.0342   0.0299   0.00    0.0
2021/10/05 01:23:12.000   28 35 34.11452  -17 55 01.60283    73.3162   6   8   0.0215   0.0582   0.0629  -0.0099  -0.0340   0.0297   0.00    0.0
2021/10/05 01:23:42.000   28 35 34.11451  -17 55 01.60282    73.3142   6   8   0.0213   0.0578   0.0620  -0.0096  -0.0334   0.0292   0.00    0.0
2021/10/05 01:24:12.000   28 35 34.11457  -17 55 01.60275    73.3138   6   8   0.0208   0.0568   0.0600  -0.0088  -0.0322   0.0282   0.00    0.0
2021/10/05 01:24:42.000   28 35 34.11467  -17 55 01.60278    73.3209   6   7   0.0197   0.0541   0.0567  -0.0075  -0.0296   0.0264   0.00    0.0
2021/10/05 01:25:12.000   28 35 34.11471  -17 55 01.60278    73.3246   6   6   0.0195   0.0535   0.0561  -0.0071  -0.0290   0.0260   0.00    0.0
2021/10/05 01:25:42.000   28 35 34.11472  -17 55 01.60277    73.3262   6   6   0.0194   0.0532   0.0559  -0.0070  -0.0288   0.0259   0.00    0.0
2021/10/05 01:26:12.000   28 35 34.11473  -17 55 01.60273    73.3266   6   6   0.0194   0.0531   0.0558  -0.0069  -0.0287   0.0258   0.00    0.0
2021/10/05 01:26:42.000   28 35 34.11474  -17 55 01.60269    73.3266   6   6   0.0193   0.0530   0.0557  -0.0069  -0.0286   0.0257   0.00    0.0
2021/10/05 01:27:12.000   28 35 34.11474  -17 55 01.60269    73.3268   6   6   0.0193   0.0529   0.0557  -0.0068  -0.0285   0.0257   0.00    0.0
2021/10/05 01:27:42.000   28 35 34.11474  -17 55 01.60269    73.3263   6   6   0.0193   0.0528   0.0556  -0.0067  -0.0284   0.0257   0.00    0.0
2021/10/05 01:28:12.000   28 35 34.11472  -17 55 01.60265    73.3245   6   6   0.0192   0.0526   0.0554  -0.0067  -0.0283   0.0256   0.00    0.0
2021/10/05 01:28:42.000   28 35 34.11467  -17 55 01.60261    73.3209   6   6   0.0191   0.0523   0.0552  -0.0065  -0.0280   0.0254   0.00    0.0
2021/10/05 01:29:12.000   28 35 34.11459  -17 55 01.60258    73.3154   6   6   0.0189   0.0516   0.0545  -0.0060  -0.0273   0.0250   0.00    0.0
2021/10/05 01:29:42.000   28 35 34.11467  -17 55 01.60253    73.3164   6   6   0.0179   0.0492   0.0526  -0.0050  -0.0256   0.0236   0.00    0.0
2021/10/05 01:30:12.000   28 35 34.11469  -17 55 01.60245    73.3149   6   6   0.0177   0.0486   0.0521  -0.0046  -0.0250   0.0233   0.00    0.0
2021/10/05 01:30:42.000   28 35 34.11468  -17 55 01.60239    73.3121   6   6   0.0177   0.0484   0.0519  -0.0045  -0.0249   0.0232   0.00    0.0
2021/10/05 01:31:12.000   28 35 34.11469  -17 55 01.60234    73.3110   6   6   0.0176   0.0483   0.0518  -0.0044  -0.0248   0.0231   0.00    0.0
2021/10/05 01:31:42.000   28 35 34.11469  -17 55 01.60229    73.3107   6   6   0.0176   0.0482   0.0518  -0.0043  -0.0247   0.0231   0.00    0.0
2021/10/05 01:32:12.000   28 35 34.11470  -17 55 01.60226    73.3106   6   6   0.0176   0.0481   0.0517  -0.0043  -0.0246   0.0230   0.00    0.0
2021/10/05 01:32:42.000   28 35 34.11471  -17 55 01.60218    73.3109   6   6   0.0176   0.0480   0.0517  -0.0042  -0.0246   0.0230   0.00    0.0
2021/10/05 01:33:12.000   28 35 34.11473  -17 55 01.60221    73.3121   6   6   0.0175   0.0479   0.0516  -0.0041  -0.0244   0.0229   0.00    0.0
2021/10/05 01:33:42.000   28 35 34.11475  -17 55 01.60216    73.3129   6   6   0.0174   0.0476   0.0514  -0.0039  -0.0242   0.0228   0.00    0.0
2021/10/05 01:34:12.000   28 35 34.11474  -17 55 01.60216    73.3106   6   6   0.0172   0.0469   0.0508  -0.0033  -0.0236   0.0224   0.00    0.0
2021/10/05 01:34:42.000   28 35 34.11485  -17 55 01.60213    73.3149   6   6   0.0164   0.0448   0.0492  -0.0017  -0.0221   0.0211   0.00    0.0
2021/10/05 01:35:12.000   28 35 34.11490  -17 55 01.60209    73.3176   6   6   0.0162   0.0443   0.0488  -0.0007  -0.0217   0.0208   0.00    0.0
2021/10/05 01:35:42.000   28 35 34.11490  -17 55 01.60205    73.3174   6   6   0.0161   0.0441   0.0486   0.0006  -0.0215   0.0207   0.00    0.0
2021/10/05 01:36:12.000   28 35 34.11490  -17 55 01.60204    73.3169   6   6   0.0161   0.0440   0.0485   0.0009  -0.0215   0.0207   0.00    0.0
2021/10/05 01:36:42.000   28 35 34.11490  -17 55 01.60204    73.3165   6   6   0.0161   0.0439   0.0485   0.0011  -0.0214   0.0206   0.00    0.0
2021/10/05 01:37:12.000   28 35 34.11490  -17 55 01.60201    73.3163   6   6   0.0160   0.0439   0.0485   0.0012  -0.0214   0.0206   0.00    0.0
2021/10/05 01:37:42.000   28 35 34.11489  -17 55 01.60196    73.3157   6   6   0.0160   0.0438   0.0484   0.0013  -0.0213   0.0206   0.00    0.0
2021/10/05 01:38:12.000   28 35 34.11489  -17 55 01.60191    73.3148   6   6   0.0160   0.0437   0.0483   0.0015  -0.0212   0.0205   0.00    0.0
2021/10/05 01:38:42.000   28 35 34.11488  -17 55 01.60190    73.3139   6   6   0.0159   0.0435   0.0482   0.0018  -0.0211   0.0204   0.00    0.0
2021/10/05 01:39:12.000   28 35 34.11487  -17 55 01.60186    73.3115   6   6   0.0157   0.0429   0.0477   0.0023  -0.0206   0.0200   0.00    0.0
2021/10/05 01:39:42.000   28 35 34.11490  -17 55 01.60179    73.3134   6   6   0.0150   0.0410   0.0464   0.0032  -0.0194   0.0189   0.00    0.0
2021/10/05 01:40:12.000   28 35 34.11490  -17 55 01.60180    73.3143   6   6   0.0148   0.0406   0.0461   0.0034  -0.0191   0.0187   0.00    0.0
2021/10/05 01:40:42.000   28 35 34.11490  -17 55 01.60179    73.3142   6   6   0.0148   0.0404   0.0459   0.0035  -0.0190   0.0186   0.00    0.0
2021/10/05 01:41:12.000   28 35 34.11489  -17 55 01.60176    73.3137   6   6   0.0147   0.0403   0.0459   0.0035  -0.0189   0.0185   0.00    0.0
2021/10/05 01:41:42.000   28 35 34.11489  -17 55 01.60171    73.3131   6   6   0.0147   0.0403   0.0458   0.0035  -0.0189   0.0185   0.00    0.0
2021/10/05 01:42:12.000   28 35 34.11489  -17 55 01.60167    73.3128   6   6   0.0147   0.0402   0.0458   0.0035  -0.0189   0.0185   0.00    0.0
2021/10/05 01:42:42.000   28 35 34.11489  -17 55 01.60167    73.3128   6   6   0.0147   0.0402   0.0458   0.0036  -0.0188   0.0184   0.00    0.0
2021/10/05 01:43:12.000   28 35 34.11488  -17 55 01.60165    73.3124   6   6   0.0147   0.0401   0.0457   0.0036  -0.0188   0.0184   0.00    0.0
2021/10/05 01:43:42.000   28 35 34.11487  -17 55 01.60164    73.3125   6   6   0.0146   0.0399   0.0456   0.0037  -0.0186   0.0183   0.00    0.0
2021/10/05 01:44:12.000   28 35 34.11482  -17 55 01.60166    73.3119   6   6   0.0144   0.0394   0.0452   0.0039  -0.0183   0.0180   0.00    0.0
2021/10/05 01:44:42.000   28 35 34.11486  -17 55 01.60165    73.3128   6   6   0.0138   0.0377   0.0441   0.0042  -0.0174   0.0169   0.00    0.0
2021/10/05 01:45:12.000   28 35 34.11487  -17 55 01.60162    73.3135   6   6   0.0137   0.0373   0.0438   0.0043  -0.0172   0.0167   0.00    0.0
2021/10/05 01:45:42.000   28 35 34.11489  -17 55 01.60158    73.3144   6   6   0.0136   0.0372   0.0437   0.0043  -0.0171   0.0166   0.00    0.0
2021/10/05 01:46:12.000   28 35 34.11489  -17 55 01.60154    73.3148   6   6   0.0136   0.0371   0.0436   0.0043  -0.0171   0.0166   0.00    0.0
2021/10/05 01:46:42.000   28 35 34.11489  -17 55 01.60152    73.3150   6   6   0.0136   0.0371   0.0436   0.0043  -0.0170   0.0165   0.00    0.0
2021/10/05 01:47:12.000   28 35 34.11489  -17 55 01.60151    73.3152   6   6   0.0136   0.0370   0.0436   0.0043  -0.0170   0.0165   0.00    0.0
2021/10/05 01:47:42.000   28 35 34.11490  -17 55 01.60148    73.3156   6   6   0.0136   0.0370   0.0435   0.0044  -0.0170   0.0165   0.00    0.0
2021/10/05 01:48:12.000   28 35 34.11491  -17 55 01.60147    73.3168   6   6   0.0135   0.0369   0.0435   0.0044  -0.0169   0.0164   0.00    0.0
2021/10/05 01:48:42.000   28 35 34.11492  -17 55 01.60144    73.3170   6   6   0.0135   0.0367   0.0433   0.0044  -0.0169   0.0163   0.00    0.0
2021/10/05 01:49:12.000   28 35 34.11494  -17 55 01.60140    73.3170   6   6   0.0133   0.0363   0.0430   0.0045  -0.0166   0.0160   0.00    0.0
2021/10/05 01:49:42.000   28 35 34.11501  -17 55 01.60132    73.3200   6   6   0.0128   0.0348   0.0420   0.0048  -0.0159   0.0151   0.00    0.0
2021/10/05 01:50:12.000   28 35 34.11500  -17 55 01.60137    73.3203   6   6   0.0127   0.0345   0.0417   0.0048  -0.0157   0.0148   0.00    0.0
2021/10/05 01:50:42.000   28 35 34.11499  -17 55 01.60136    73.3198   6   6   0.0126   0.0344   0.0416   0.0049  -0.0157   0.0147   0.00    0.0
2021/10/05 01:51:12.000   28 35 34.11499  -17 55 01.60134    73.3198   6   6   0.0126   0.0343   0.0416   0.0049  -0.0156   0.0147   0.00    0.0
2021/10/05 01:51:42.000   28 35 34.11499  -17 55 01.60134    73.3199   6   6   0.0126   0.0343   0.0416   0.0049  -0.0156   0.0147   0.00    0.0
2021/10/05 01:52:12.000   28 35 34.11499  -17 55 01.60133    73.3200   6   6   0.0126   0.0342   0.0415   0.0049  -0.0156   0.0147   0.00    0.0
2021/10/05 01:52:42.000   28 35 34.11499  -17 55 01.60131    73.3203   6   6   0.0126   0.0342   0.0415   0.0049  -0.0156   0.0146   0.00    0.0
2021/10/05 01:53:12.000   28 35 34.11500  -17 55 01.60128    73.3208   6   6   0.0126   0.0341   0.0415   0.0049  -0.0156   0.0146   0.00    0.0
2021/10/05 01:53:42.000   28 35 34.11502  -17 55 01.60124    73.3207   6   6   0.0125   0.0340   0.0413   0.0049  -0.0155   0.0145   0.00    0.0
2021/10/05 01:54:12.000   28 35 34.11504  -17 55 01.60117    73.3202   6   6   0.0124   0.0336   0.0410   0.0050  -0.0153   0.0142   0.00    0.0
2021/10/05 01:54:42.000   28 35 34.11504  -17 55 01.60112    73.3189   6   6   0.0119   0.0323   0.0401   0.0051  -0.0149   0.0133   0.00    0.0
2021/10/05 01:55:12.000   28 35 34.11503  -17 55 01.60110    73.3182   6   6   0.0118   0.0320   0.0399   0.0051  -0.0148   0.0131   0.00    0.0
2021/10/05 01:55:42.000   28 35 34.11502  -17 55 01.60110    73.3176   6   6   0.0118   0.0319   0.0398   0.0051  -0.0147   0.0131   0.00    0.0
2021/10/05 01:56:12.000   28 35 34.11501  -17 55 01.60109    73.3165   6   6   0.0118   0.0318   0.0398   0.0051  -0.0147   0.0130   0.00    0.0
2021/10/05 01:56:42.000   28 35 34.11500  -17 55 01.60109    73.3154   6   6   0.0118   0.0318   0.0397   0.0051  -0.0147   0.0130   0.00    0.0
2021/10/05 01:57:12.000   28 35 34.11500  -17 55 01.60108    73.3145   6   6   0.0118   0.0318   0.0397   0.0051  -0.0147   0.0130   0.00    0.0
2021/10/05 01:57:42.000   28 35 34.11499  -17 55 01.60107    73.3137   6   6   0.0117   0.0317   0.0397   0.0051  -0.0147   0.0129   0.00    0.0
2021/10/05 01:58:12.000   28 35 34.11498  -17 55 01.60106    73.3123   6   6   0.0117   0.0317   0.0396   0.0051  -0.0147   0.0129   0.00    0.0
2021/10/05 01:58:42.000   28 35 34.11496  -17 55 01.60105    73.3084   6   6   0.0117   0.0315   0.0395   0.0052  -0.0146   0.0128   0.00    0.0
2021/10/05 01:59:12.000   28 35 34.11488  -17 55 01.60109    73.2992   6   6   0.0116   0.0312   0.0392   0.0052  -0.0145   0.0125   0.00    0.0
2021/10/05 01:59:42.000   28 35 34.11494  -17 55 01.60109    73.3041   6   6   0.0112   0.0301   0.0384   0.0052  -0.0142   0.0117   0.00    0.0
2021/10/05 02:00:12.000   28 35 34.11497  -17 55 01.60108    73.3076   6   6   0.0111   0.0298   0.0381   0.0053  -0.0142   0.0115   0.00    0.0
2021/10/05 02:00:42.000   28 35 34.11499  -17 55 01.60106    73.3096   6   6   0.0111   0.0297   0.0380   0.0053  -0.0141   0.0114   0.00    0.0
2021/10/05 02:01:12.000   28 35 34.11500  -17 55 01.60106    73.3106   6   6   0.0111   0.0297   0.0380   0.0053  -0.0141   0.0114   0.00    0.0
2021/10/05 02:01:42.000   28 35 34.11500  -17 55 01.60104    73.3107   6   6   0.0110   0.0296   0.0379   0.0053  -0.0141   0.0114   0.00    0.0
2021/10/05 02:02:12.000   28 35 34.11500  -17 55 01.60101    73.3106   6   6   0.0110   0.0296   0.0379   0.0053  -0.0141   0.0114   0.00    0.0
2021/10/05 02:02:42.000   28 35 34.11500  -17 55 01.60099    73.3105   6   6   0.0110   0.0296   0.0379   0.0053  -0.0141   0.0113   0.00    0.0
2021/10/05 02:03:12.000   28 35 34.11500  -17 55 01.60097    73.3105   6   6   0.0110   0.0295   0.0378   0.0053  -0.0141   0.0113   0.00    0.0
2021/10/05 02:03:42.000   28 35 34.11500  -17 55 01.60094    73.3101   6   6   0.0110   0.0294   0.0377   0.0053  -0.0141   0.0112   0.00    0.0
2021/10/05 02:04:12.000   28 35 34.11497  -17 55 01.60089    73.3059   6   6   0.0109   0.0291   0.0374   0.0053  -0.0140   0.0110   0.00    0.0
2021/10/05 02:04:42.000   28 35 34.11500  -17 55 01.60085    73.3067   6   5   0.0106   0.0281   0.0369   0.0054  -0.0138   0.0103   0.00    0.0
2021/10/05 02:05:12.000   28 35 34.11499  -17 55 01.60085    73.3058   6   5   0.0105   0.0279   0.0368   0.0054  -0.0137   0.0102   0.00    0.0
2021/10/05 02:05:42.000   28 35 34.11498  -17 55 01.60084    73.3051   6   5   0.0105   0.0278   0.0368   0.0054  -0.0137   0.0101   0.00    0.0
2021/10/05 02:06:12.000   28 35 34.11498  -17 55 01.60084    73.3048   6   5   0.0105   0.0278   0.0367   0.0054  -0.0137   0.0101   0.00    0.0
2021/10/05 02:06:42.000   28 35 34.11498  -17 55 01.60083    73.3047   6   5   0.0105   0.0278   0.0367   0.0054  -0.0137   0.0101   0.00    0.0
2021/10/05 02:07:12.000   28 35 34.11498  -17 55 01.60083    73.3046   6   5   0.0105   0.0277   0.0367   0.0054  -0.0137   0.0101   0.00    0.0
2021/10/05 02:07:42.000   28 35 34.11498  -17 55 01.60083    73.3048   6   5   0.0104   0.0277   0.0367   0.0054  -0.0137   0.0101   0.00    0.0
2021/10/05 02:08:12.000   28 35 34.11499  -17 55 01.60083    73.3053   6   5   0.0104   0.0277   0.0367   0.0054  -0.0137   0.0100   0.00    0.0
2021/10/05 02:08:42.000   28 35 34.11499  -17 55 01.60083    73.3059   6   5   0.0104   0.0276   0.0367   0.0054  -0.0136   0.0100   0.00    0.0
2021/10/05 02:09:12.000   28 35 34.11499  -17 55 01.60081    73.3067   6   5   0.0103   0.0273   0.0365   0.0054  -0.0136   0.0098   0.00    0.0
2021/10/05 02:09:42.000   28 35 34.11501  -17 55 01.60076    73.3076   6   5   0.0100   0.0264   0.0361   0.0055  -0.0135   0.0092   0.00    0.0
2021/10/05 02:10:12.000   28 35 34.11501  -17 55 01.60075    73.3078   6   5   0.0100   0.0262   0.0360   0.0055  -0.0135   0.0091   0.00    0.0
2021/10/05 02:10:42.000   28 35 34.11501  -17 55 01.60076    73.3080   6   5   0.0100   0.0262   0.0360   0.0055  -0.0135   0.0090   0.00    0.0
2021/10/05 02:11:12.000   28 35 34.11502  -17 55 01.60075    73.3081   6   5   0.0100   0.0261   0.0360   0.0055  -0.0135   0.0090   0.00    0.0
2021/10/05 02:11:42.000   28 35 34.11501  -17 55 01.60073    73.3079   6   5   0.0099   0.0261   0.0360   0.0055  -0.0135   0.0090   0.00    0.0
2021/10/05 02:12:12.000   28 35 34.11501  -17 55 01.60072    73.3078   6   5   0.0099   0.0261   0.0360   0.0055  -0.0135   0.0090   0.00    0.0
2021/10/05 02:12:42.000   28 35 34.11501  -17 55 01.60073    73.3079   6   5   0.0099   0.0261   0.0360   0.0055  -0.0135   0.0090   0.00    0.0
2021/10/05 02:13:12.000   28 35 34.11501  -17 55 01.60075    73.3079   6   5   0.0099   0.0260   0.0359   0.0055  -0.0134   0.0089   0.00    0.0
2021/10/05 02:13:42.000   28 35 34.11499  -17 55 01.60080    73.3070   6   5   0.0099   0.0260   0.0359   0.0055  -0.0134   0.0089   0.00    0.0
2021/10/05 02:14:12.000   28 35 34.11496  -17 55 01.60088    73.3065   6   5   0.0098   0.0257   0.0358   0.0055  -0.0134   0.0087   0.00    0.0
2021/10/05 02:14:42.000   28 35 34.11498  -17 55 01.60090    73.3069   6   5   0.0096   0.0250   0.0354   0.0056  -0.0134   0.0081   0.00    0.0
2021/10/05 02:15:12.000   28 35 34.11497  -17 55 01.60088    73.3058   6   5   0.0095   0.0248   0.0353   0.0056  -0.0134   0.0080   0.00    0.0
2021/10/05 02:15:42.000   28 35 34.11497  -17 55 01.60088    73.3054   6   5   0.0095   0.0247   0.0353   0.0056  -0.0134   0.0079   0.00    0.0
2021/10/05 02:16:12.000   28 35 34.11496  -17 55 01.60089    73.3050   6   5   0.0095   0.0247   0.0353   0.0056  -0.0134   0.0079   0.00    0.0
2021/10/05 02:16:42.000   28 35 34.11496  -17 55 01.60088    73.3047   6   5   0.0095   0.0247   0.0353   0.0056  -0.0134   0.0079   0.00    0.0
2021/10/05 02:17:12.000   28 35 34.11495  -17 55 01.60086    73.3045   6   5   0.0095   0.0247   0.0353   0.0056  -0.0134   0.0079   0.00    0.0
2021/10/05 02:17:42.000   28 35 34.11495  -17 55 01.60085    73.3044   6   5   0.0095   0.0246   0.0353   0.0056  -0.0134   0.0079   0.00    0.0
2021/10/05 02:18:12.000   28 35 34.11495  -17 55 01.60084    73.3047   6   5   0.0095   0.0246   0.0353   0.0056  -0.0134   0.0079   0.00    0.0
2021/10/05 02:18:42.000   28 35 34.11496  -17 55 01.60085    73.3052   6   5   0.0095   0.0245   0.0352   0.0056  -0.0134   0.0078   0.00    0.0
2021/10/05 02:19:12.000   28 35 34.11498  -17 55 01.60080    73.3057   6   5   0.0094   0.0243   0.0351   0.0056  -0.0134   0.0076   0.00    0.0
2021/10/05 02:19:42.000   28 35 34.11499  -17 55 01.60081    73.3060   6   5   0.0092   0.0237   0.0348   0.0056  -0.0134   0.0070   0.00    0.0
2021/10/05 02:20:12.000   28 35 34.11500  -17 55 01.60079    73.3062   6   5   0.0091   0.0235   0.0347   0.0056  -0.0134   0.0069   0.00    0.0
2021/10/05 02:20:42.000   28 35 34.11500  -17 55 01.60077    73.3066   6   5   0.0091   0.0235   0.0347   0.0056  -0.0134   0.0069   0.00    0.0
2021/10/05 02:21:12.000   28 35 34.11501  -17 55 01.60076    73.3068   6   5   0.0091   0.0234   0.0347   0.0056  -0.0134   0.0068   0.00    0.0
2021/10/05 02:21:42.000   28 35 34.11501  -17 55 01.60075    73.3071   6   5   0.0091   0.0234   0.0347   0.0056  -0.0134   0.0068   0.00    0.0
2021/10/05 02:22:12.000   28 35 34.11501  -17 55 01.60074    73.3073   6   5   0.0091   0.0234   0.0347   0.0056  -0.0134   0.0068   0.00    0.0
2021/10/05 02:22:42.000   28 35 34.11501  -17 55 01.60072    73.3076   6   5   0.0091   0.0234   0.0347   0.0056  -0.0134   0.0068   0.00    0.0
2021/10/05 02:23:12.000   28 35 34.11502  -17 55 01.60072    73.3081   6   5   0.0091   0.0234   0.0347   0.0056  -0.0134   0.0068   0.00    0.0
2021/10/05 02:23:42.000   28 35 34.11504  -17 55 01.60069    73.3090   6   5   0.0091   0.0233   0.0346   0.0056  -0.0134   0.0067   0.00    0.0
2021/10/05 02:24:12.000   28 35 34.11507  -17 55 01.60067    73.3113   6   5   0.0090   0.0231   0.0346   0.0056  -0.0135   0.0066   0.00    0.0
2021/10/05 02:24:42.000   28 35 34.11504  -17 55 01.60067    73.3091   6   5   0.0088   0.0226   0.0343   0.0057  -0.0136   0.0059   0.00    0.0
2021/10/05 02:25:12.000   28 35 34.11504  -17 55 01.60066    73.3095   6   5   0.0088   0.0224   0.0342   0.0057  -0.0136   0.0058   0.00    0.0
2021/10/05 02:25:42.000   28 35 34.11505  -17 55 01.60067    73.3099   6   5   0.0087   0.0224   0.0342   0.0057  -0.0136   0.0057   0.00    0.0
2021/10/05 02:26:12.000   28 35 34.11505  -17 55 01.60067    73.3102   6   5   0.0087   0.0224   0.0341   0.0057  -0.0136   0.0057   0.00    0.0
2021/10/05 02:26:42.000   28 35 34.11505  -17 55 01.60066    73.3103   6   5   0.0087   0.0224   0.0341   0.0057  -0.0136   0.0057   0.00    0.0
2021/10/05 02:27:12.000   28 35 34.11505  -17 55 01.60066    73.3103   6   5   0.0087   0.0223   0.0341   0.0057  -0.0136   0.0057   0.00    0.0
2021/10/05 02:27:42.000   28 35 34.11505  -17 55 01.60065    73.3106   6   5   0.0087   0.0223   0.0341   0.0057  -0.0136   0.0057   0.00    0.0
2021/10/05 02:28:12.000   28 35 34.11505  -17 55 01.60065    73.3105   6   5   0.0087   0.0223   0.0341   0.0057  -0.0136   0.0056   0.00    0.0
2021/10/05 02:28:42.000   28 35 34.11505  -17 55 01.60065    73.3099   6   5   0.0087   0.0223   0.0341   0.0057  -0.0136   0.0056   0.00    0.0
2021/10/05 02:29:12.000   28 35 34.11503  -17 55 01.60067    73.3080   6   5   0.0087   0.0221   0.0340   0.0057  -0.0136   0.0054   0.00    0.0
2021/10/05 02:29:42.000   28 35 34.11504  -17 55 01.60073    73.3082   6   5   0.0085   0.0216   0.0337   0.0057  -0.0138   0.0048   0.00    0.0
2021/10/05 02:30:12.000   28 35 34.11504  -17 55 01.60077    73.3091   6   5   0.0084   0.0215   0.0337   0.0058  -0.0138   0.0046   0.00    0.0
2021/10/05 02:30:42.000   28 35 34.11504  -17 55 01.60078    73.3093   6   5   0.0084   0.0215   0.0336   0.0058  -0.0138   0.0045   0.00    0.0
2021/10/05 02:31:12.000   28 35 34.11504  -17 55 01.60079    73.3095   6   5   0.0084   0.0214   0.0336   0.0058  -0.0138   0.0045   0.00    0.0
2021/10/05 02:31:42.000   28 35 34.11505  -17 55 01.60079    73.3096   6   5   0.0084   0.0214   0.0336   0.0058  -0.0138   0.0045   0.00    0.0
2021/10/05 02:32:12.000   28 35 34.11505  -17 55 01.60079    73.3097   6   5   0.0084   0.0214   0.0336   0.0058  -0.0138   0.0045   0.00    0.0
2021/10/05 02:32:42.000   28 35 34.11505  -17 55 01.60078    73.3101   6   5   0.0084   0.0214   0.0336   0.0058  -0.0138   0.0045   0.00    0.0
2021/10/05 02:33:12.000   28 35 34.11505  -17 55 01.60078    73.3105   6   5   0.0084   0.0214   0.0336   0.0058  -0.0138   0.0044   0.00    0.0
2021/10/05 02:33:42.000   28 35 34.11506  -17 55 01.60079    73.3110   6   5   0.0084   0.0213   0.0336   0.0058  -0.0138   0.0044   0.00    0.0
2021/10/05 02:34:12.000   28 35 34.11507  -17 55 01.60083    73.3121   6   5   0.0084   0.0212   0.0335   0.0058  -0.0138   0.0042   0.00    0.0
2021/10/05 02:34:42.000   28 35 34.11508  -17 55 01.60080    73.3132   6   5   0.0082   0.0208   0.0332   0.0058  -0.0140   0.0033   0.00    0.0
2021/10/05 02:35:12.000   28 35 34.11508  -17 55 01.60080    73.3136   6   5   0.0082   0.0207   0.0331   0.0058  -0.0140   0.0031   0.00    0.0
2021/10/05 02:35:42.000   28 35 34.11508  -17 55 01.60080    73.3135   6   5   0.0082   0.0207   0.0331   0.0058  -0.0140   0.0031   0.00    0.0
2021/10/05 02:36:12.000   28 35 34.11508  -17 55 01.60081    73.3134   6   5   0.0081   0.0207   0.0331   0.0058  -0.0140   0.0030   0.00    0.0
2021/10/05 02:36:42.000   28 35 34.11508  -17 55 01.60080    73.3132   6   5   0.0081   0.0207   0.0331   0.0058  -0.0140   0.0030   0.00    0.0
2021/10/05 02:37:12.000   28 35 34.11508  -17 55 01.60080    73.3131   6   5   0.0081   0.0206   0.0331   0.0058  -0.0140   0.0030   0.00    0.0
2021/10/05 02:37:42.000   28 35 34.11508  -17 55 01.60079    73.3130   6   5   0.0081   0.0206   0.0331   0.0058  -0.0140   0.0030   0.00    0.0
2021/10/05 02:38:12.000   28 35 34.11508  -17 55 01.60079    73.3130   6   5   0.0081   0.0206   0.0331   0.0058  -0.0140   0.0029   0.00    0.0
2021/10/05 02:38:42.000   28 35 34.11509  -17 55 01.60076    73.3133   6   5   0.0081   0.0206   0.0331   0.0058  -0.0141   0.0028   0.00    0.0
2021/10/05 02:39:12.000   28 35 34.11510  -17 55 01.60071    73.3145   6   5   0.0081   0.0205   0.0330   0.0058  -0.0141   0.0026   0.00    0.0
2021/10/05 02:39:42.000   28 35 34.11511  -17 55 01.60072    73.3146   6   5   0.0079   0.0201   0.0327   0.0059  -0.0143   0.0011   0.00    0.0
2021/10/05 02:40:12.000   28 35 34.11511  -17 55 01.60073    73.3143   6   5   0.0079   0.0201   0.0327   0.0059  -0.0143   0.0003   0.00    0.0
2021/10/05 02:40:42.000   28 35 34.11510  -17 55 01.60074    73.3139   6   5   0.0079   0.0200   0.0326   0.0059  -0.0143  -0.0006   0.00    0.0
2021/10/05 02:41:12.000   28 35 34.11510  -17 55 01.60073    73.3139   6   5   0.0079   0.0200   0.0326   0.0059  -0.0143  -0.0007   0.00    0.0
2021/10/05 02:41:42.000   28 35 34.11510  -17 55 01.60072    73.3139   6   5   0.0079   0.0200   0.0326   0.0059  -0.0143  -0.0008   0.00    0.0
2021/10/05 02:42:12.000   28 35 34.11511  -17 55 01.60071    73.3140   6   5   0.0079   0.0200   0.0326   0.0059  -0.0143  -0.0008   0.00    0.0
2021/10/05 02:42:42.000   28 35 34.11511  -17 55 01.60071    73.3143   6   5   0.0079   0.0200   0.0326   0.0059  -0.0143  -0.0009   0.00    0.0
2021/10/05 02:43:12.000   28 35 34.11511  -17 55 01.60070    73.3145   6   5   0.0079   0.0200   0.0326   0.0059  -0.0143  -0.0010   0.00    0.0
2021/10/05 02:43:42.000   28 35 34.11511  -17 55 01.60069    73.3148   6   6   0.0079   0.0199   0.0326   0.0059  -0.0143  -0.0012   0.00    0.0
2021/10/05 02:44:12.000   28 35 34.11511  -17 55 01.60066    73.3156   6   6   0.0078   0.0199   0.0325   0.0059  -0.0144  -0.0016   0.00    0.0
2021/10/05 02:44:42.000   28 35 34.11511  -17 55 01.60068    73.3148   6   6   0.0077   0.0196   0.0322   0.0060  -0.0145  -0.0027   0.00    0.0
2021/10/05 02:45:12.000   28 35 34.11511  -17 55 01.60069    73.3142   6   6   0.0077   0.0195   0.0322   0.0060  -0.0145  -0.0029   0.00    0.0
2021/10/05 02:45:42.000   28 35 34.11511  -17 55 01.60070    73.3138   6   6   0.0077   0.0195   0.0322   0.0060  -0.0145  -0.0029   0.00    0.0
2021/10/05 02:46:12.000   28 35 34.11511  -17 55 01.60069    73.3138   6   6   0.0077   0.0195   0.0321   0.0060  -0.0145  -0.0029   0.00    0.0
2021/10/05 02:46:42.000   28 35 34.11511  -17 55 01.60069    73.3137   6   6   0.0077   0.0195   0.0321   0.0060  -0.0145  -0.0030   0.00    0.0
2021/10/05 02:47:12.000   28 35 34.11511  -17 55 01.60069    73.3138   6   6   0.0077   0.0195   0.0321   0.0060  -0.0145  -0.0030   0.00    0.0
2021/10/05 02:47:42.000   28 35 34.11511  -17 55 01.60069    73.3137   6   6   0.0077   0.0194   0.0321   0.0060  -0.0145  -0.0030   0.00    0.0
2021/10/05 02:48:12.000   28 35 34.11511  -17 55 01.60067    73.3138   6   6   0.0077   0.0194   0.0321   0.0060  -0.0146  -0.0030   0.00    0.0
2021/10/05 02:48:42.000   28 35 34.11511  -17 55 01.60064    73.3138   6   6   0.0077   0.0194   0.0321   0.0060  -0.0146  -0.0031   0.00    0.0
2021/10/05 02:49:12.000   28 35 34.11511  -17 55 01.60059    73.3146   6   6   0.0076   0.0193   0.0320   0.0060  -0.0146  -0.0032   0.00    0.0
2021/10/05 02:49:42.000   28 35 34.11513  -17 55 01.60062    73.3148   6   6   0.0075   0.0191   0.0318   0.0061  -0.0147  -0.0038   0.00    0.0
2021/10/05 02:50:12.000   28 35 34.11510  -17 55 01.60067    73.3117   6   6   0.0075   0.0191   0.0317   0.0061  -0.0148  -0.0039   0.00    0.0
2021/10/05 02:50:42.000   28 35 34.11509  -17 55 01.60069    73.3107   6   6   0.0075   0.0190   0.0317   0.0061  -0.0148  -0.0039   0.00    0.0
2021/10/05 02:51:12.000   28 35 34.11509  -17 55 01.60068    73.3105   6   6   0.0075   0.0190   0.0317   0.0061  -0.0148  -0.0039   0.00    0.0
2021/10/05 02:51:42.000   28 35 34.11509  -17 55 01.60067    73.3104   6   6   0.0075   0.0190   0.0316   0.0061  -0.0148  -0.0040   0.00    0.0
2021/10/05 02:52:12.000   28 35 34.11509  -17 55 01.60067    73.3105   6   6   0.0075   0.0190   0.0316   0.0061  -0.0148  -0.0040   0.00    0.0
2021/10/05 02:52:42.000   28 35 34.11509  -17 55 01.60067    73.3107   6   7   0.0075   0.0190   0.0316   0.0061  -0.0148  -0.0040   0.00    0.0
2021/10/05 02:53:12.000   28 35 34.11509  -17 55 01.60067    73.3111   6   7   0.0075   0.0190   0.0316   0.0061  -0.0148  -0.0040   0.00    0.0
2021/10/05 02:53:42.000   28 35 34.11509  -17 55 01.60066    73.3120   6   7   0.0075   0.0190   0.0316   0.0061  -0.0148  -0.0040   0.00    0.0
2021/10/05 02:54:12.000   28 35 34.11509  -17 55 01.60064    73.3121   6   7   0.0074   0.0189   0.0315   0.0061  -0.0148  -0.0042   0.00    0.0
2021/10/05 02:54:42.000   28 35 34.11508  -17 55 01.60065    73.3109   6   7   0.0074   0.0187   0.0312   0.0062  -0.0149  -0.0045   0.00    0.0
2021/10/05 02:55:12.000   28 35 34.11508  -17 55 01.60068    73.3091   6   7   0.0073   0.0187   0.0312   0.0062  -0.0150  -0.0046   0.00    0.0
2021/10/05 02:55:42.000   28 35 34.11508  -17 55 01.60068    73.3080   6   7   0.0073   0.0187   0.0312   0.0062  -0.0150  -0.0046   0.00    0.0
2021/10/05 02:56:12.000   28 35 34.11508  -17 55 01.60068    73.3080   6   7   0.0073   0.0187   0.0311   0.0062  -0.0150  -0.0046   0.00    0.0
2021/10/05 02:56:42.000   28 35 34.11508  -17 55 01.60067    73.3080   6   7   0.0073   0.0187   0.0311   0.0062  -0.0150  -0.0046   0.00    0.0
2021/10/05 02:57:12.000   28 35 34.11508  -17 55 01.60066    73.3080   6   7   0.0073   0.0187   0.0311   0.0062  -0.0150  -0.0046   0.00    0.0
2021/10/05 02:57:42.000   28 35 34.11508  -17 55 01.60066    73.3081   6   7   0.0073   0.0186   0.0311   0.0062  -0.0150  -0.0047   0.00    0.0
2021/10/05 02:58:12.000   28 35 34.11508  -17 55 01.60065    73.3078   6   7   0.0073   0.0186   0.0311   0.0062  -0.0150  -0.0047   0.00    0.0
2021/10/05 02:58:42.000   28 35 34.11508  -17 55 01.60065    73.3078   6   7   0.0073   0.0186   0.0311   0.0062  -0.0150  -0.0047   0.00    0.0
2021/10/05 02:59:12.000   28 35 34.11508  -17 55 01.60066    73.3068   6   7   0.0073   0.0186   0.0310   0.0062  -0.0150  -0.0048   0.00    0.0
2021/10/05 02:59:42.000   28 35 34.11509  -17 55 01.60067    73.3066   6   7   0.0072   0.0184   0.0307   0.0062  -0.0151  -0.0050   0.00    0.0
2021/10/05 03:00:12.000   28 35 34.11509  -17 55 01.60067    73.3064   6   7   0.0072   0.0184   0.0307   0.0063  -0.0152  -0.0051   0.00    0.0
2021/10/05 03:00:42.000   28 35 34.11509  -17 55 01.60066    73.3070   6   7   0.0072   0.0184   0.0306   0.0063  -0.0152  -0.0051   0.00    0.0
2021/10/05 03:01:12.000   28 35 34.11509  -17 55 01.60066    73.3071   6   7   0.0072   0.0184   0.0306   0.0063  -0.0152  -0.0051   0.00    0.0
2021/10/05 03:01:42.000   28 35 34.11508  -17 55 01.60066    73.3069   6   7   0.0072   0.0184   0.0306   0.0063  -0.0152  -0.0051   0.00    0.0
2021/10/05 03:02:12.000   28 35 34.11508  -17 55 01.60065    73.3068   6   7   0.0072   0.0184   0.0306   0.0063  -0.0152  -0.0051   0.00    0.0
2021/10/05 03:02:42.000   28 35 34.11508  -17 55 01.60066    73.3065   6   7   0.0072   0.0184   0.0306   0.0063  -0.0152  -0.0051   0.00    0.0
2021/10/05 03:03:12.000   28 35 34.11508  -17 55 01.60065    73.3062   6   7   0.0072   0.0184   0.0306   0.0063  -0.0152  -0.0051   0.00    0.0
2021/10/05 03:03:42.000   28 35 34.11508  -17 55 01.60064    73.3059   6   7   0.0072   0.0183   0.0305   0.0063  -0.0152  -0.0052   0.00    0.0
2021/10/05 03:04:12.000   28 35 34.11509  -17 55 01.60065    73.3049   6   7   0.0071   0.0183   0.0305   0.0063  -0.0152  -0.0052   0.00    0.0
2021/10/05 03:04:42.000   28 35 34.11510  -17 55 01.60065    73.3044   6   7   0.0071   0.0182   0.0302   0.0063  -0.0153  -0.0054   0.00    0.0
2021/10/05 03:05:12.000   28 35 34.11510  -17 55 01.60065    73.3042   6   7   0.0070   0.0182   0.0301   0.0063  -0.0153  -0.0055   0.00    0.0
2021/10/05 03:05:42.000   28 35 34.11511  -17 55 01.60065    73.3042   6   7   0.0070   0.0182   0.0301   0.0063  -0.0153  -0.0055   0.00    0.0
2021/10/05 03:06:12.000   28 35 34.11511  -17 55 01.60065    73.3040   6   7   0.0070   0.0182   0.0301   0.0063  -0.0153  -0.0055   0.00    0.0
2021/10/05 03:06:42.000   28 35 34.11511  -17 55 01.60065    73.3040   6   7   0.0070   0.0182   0.0301   0.0063  -0.0153  -0.0055   0.00    0.0
2021/10/05 03:07:12.000   28 35 34.11511  -17 55 01.60064    73.3038   6   7   0.0070   0.0181   0.0301   0.0063  -0.0153  -0.0055   0.00    0.0
2021/10/05 03:07:42.000   28 35 34.11511  -17 55 01.60064    73.3036   6   7   0.0070   0.0181   0.0301   0.0063  -0.0153  -0.0055   0.00    0.0
2021/10/05 03:08:12.000   28 35 34.11511  -17 55 01.60063    73.3034   6   8   0.0070   0.0181   0.0301   0.0063  -0.0153  -0.0055   0.00    0.0
2021/10/05 03:08:42.000   28 35 34.11511  -17 55 01.60063    73.3031   6   8   0.0070   0.0181   0.0300   0.0063  -0.0153  -0.0055   0.00    0.0
2021/10/05 03:09:12.000   28 35 34.11510  -17 55 01.60064    73.3021   6   8   0.0070   0.0181   0.0299   0.0064  -0.0154  -0.0055   0.00    0.0
2021/10/05 03:09:42.000   28 35 34.11510  -17 55 01.60065    73.3017   6   8   0.0069   0.0180   0.0297   0.0064  -0.0155  -0.0057   0.00    0.0
2021/10/05 03:10:12.000   28 35 34.11510  -17 55 01.60065    73.3018   6   8   0.0069   0.0180   0.0296   0.0064  -0.0155  -0.0057   0.00    0.0
2021/10/05 03:10:42.000   28 35 34.11511  -17 55 01.60065    73.3016   6   8   0.0069   0.0180   0.0296   0.0064  -0.0155  -0.0057   0.00    0.0
2021/10/05 03:11:12.000   28 35 34.11511  -17 55 01.60064    73.3016   6   8   0.0069   0.0180   0.0296   0.0064  -0.0155  -0.0057   0.00    0.0
2021/10/05 03:11:42.000   28 35 34.11511  -17 55 01.60064    73.3017   6   8   0.0069   0.0180   0.0296   0.0064  -0.0155  -0.0057   0.00    0.0
2021/10/05 03:12:12.000   28 35 34.11511  -17 55 01.60064    73.3017   6   8   0.0069   0.0180   0.0296   0.0064  -0.0155  -0.0057   0.00    0.0
2021/10/05 03:12:42.000   28 35 34.11511  -17 55 01.60064    73.3017   6   8   0.0069   0.0180   0.0296   0.0064  -0.0155  -0.0057   0.00    0.0
2021/10/05 03:13:12.000   28 35 34.11511  -17 55 01.60063    73.3015   6   8   0.0069   0.0180   0.0296   0.0064  -0.0155  -0.0057   0.00    0.0
2021/10/05 03:13:42.000   28 35 34.11511  -17 55 01.60063    73.3010   6   8   0.0069   0.0180   0.0295   0.0064  -0.0155  -0.0058   0.00    0.0
2021/10/05 03:14:12.000   28 35 34.11512  -17 55 01.60063    73.3010   6   8   0.0069   0.0179   0.0295   0.0064  -0.0155  -0.0058   0.00    0.0
2021/10/05 03:14:42.000   28 35 34.11513  -17 55 01.60062    73.3025   6   8   0.0068   0.0179   0.0292   0.0065  -0.0156  -0.0059   0.00    0.0
2021/10/05 03:15:12.000   28 35 34.11513  -17 55 01.60061    73.3023   6   8   0.0068   0.0179   0.0292   0.0065  -0.0156  -0.0059   0.00    0.0
2021/10/05 03:15:42.000   28 35 34.11514  -17 55 01.60060    73.3018   6   8   0.0068   0.0178   0.0291   0.0065  -0.0156  -0.0059   0.00    0.0
2021/10/05 03:16:12.000   28 35 34.11514  -17 55 01.60059    73.3016   6   8   0.0068   0.0178   0.0291   0.0065  -0.0156  -0.0059   0.00    0.0
2021/10/05 03:16:42.000   28 35 34.11514  -17 55 01.60059    73.3014   6   8   0.0068   0.0178   0.0291   0.0065  -0.0156  -0.0059   0.00    0.0
2021/10/05 03:17:12.000   28 35 34.11514  -17 55 01.60058    73.3013   6   8   0.0068   0.0178   0.0291   0.0065  -0.0156  -0.0059   0.00    0.0
2021/10/05 03:17:42.000   28 35 34.11514  -17 55 01.60057    73.3012   6   8   0.0068   0.0178   0.0291   0.0065  -0.0156  -0.0059   0.00    0.0
2021/10/05 03:18:12.000   28 35 34.11515  -17 55 01.60056    73.3018   6   8   0.0068   0.0178   0.0291   0.0065  -0.0156  -0.0059   0.00    0.0
2021/10/05 03:18:42.000   28 35 34.11515  -17 55 01.60055    73.3026   6   8   0.0068   0.0178   0.0291   0.0065  -0.0156  -0.0059   0.00    0.0
2021/10/05 03:19:12.000   28 35 34.11515  -17 55 01.60053    73.3044   6   8   0.0068   0.0178   0.0290   0.0065  -0.0156  -0.0059   0.00    0.0
2021/10/05 03:19:42.000   28 35 34.11518  -17 55 01.60052    73.3059   6   8   0.0067   0.0178   0.0288   0.0065  -0.0157  -0.0060   0.00    0.0
2021/10/05 03:20:12.000   28 35 34.11519  -17 55 01.60053    73.3064   6   8   0.0067   0.0177   0.0287   0.0065  -0.0157  -0.0060   0.00    0.0
2021/10/05 03:20:42.000   28 35 34.11520  -17 55 01.60052    73.3063   6   8   0.0067   0.0177   0.0287   0.0065  -0.0157  -0.0060   0.00    0.0
2021/10/05 03:21:12.000   28 35 34.11520  -17 55 01.60052    73.3061   6   8   0.0067   0.0177   0.0287   0.0065  -0.0157  -0.0060   0.00    0.0
2021/10/05 03:21:42.000   28 35 34.11520  -17 55 01.60051    73.3061   6   8   0.0067   0.0177   0.0287   0.0065  -0.0157  -0.0060   0.00    0.0
2021/10/05 03:22:12.000   28 35 34.11520  -17 55 01.60051    73.3060   6   8   0.0067   0.0177   0.0287   0.0065  -0.0157  -0.0060   0.00    0.0
2021/10/05 03:22:42.000   28 35 34.11520  -17 55 01.60050    73.3059   6   8   0.0067   0.0177   0.0287   0.0065  -0.0157  -0.0060   0.00    0.0
2021/10/05 03:23:12.000   28 35 34.11520  -17 55 01.60050    73.3058   6   8   0.0067   0.0177   0.0287   0.0065  -0.0157  -0.0060   0.00    0.0
