% program   : RTKLIB ver.2.4.2
% inp file  : C:\IPNA\data\OBS\CVBB2840.o
% inp file  : C:\IPNA\data\NAV\CVBB2840.n
% inp file  : C:\IPNA\data\SP3\CVBB2840.sp3
% inp file  : C:\IPNA\data\CLOCK\CVBB2840.clk
% obs start : 2021/10/10 23:59:42.0 UTC (week2179  86400.0s)
% obs end   : 2021/10/11 23:59:12.0 UTC (week2179 172770.0s)
% pos mode  : ppp-static
% solution  : forward
% elev mask : 15.0 deg
% dynamics  : off
% tidecorr  : on
% tropo opt : est ztd
% ephemeris : precise
% antenna1  :                       ( 0.0000  0.0000  0.0000)
%
% (lat/lon/height=WGS84/ellipsoidal,Q=1:fix,2:float,3:sbas,4:dgps,5:single,6:ppp,ns=# of satellites)
%  UTC                     latitude(d'")   longitude(d'")  height(m)   Q  ns   sdn(m)   sde(m)   sdu(m)  sdne(m)  sdeu(m)  sdue(m) age(s)  ratio
2021/10/10 23:59:42.000   28 35 34.09886  -17 55 01.62115    75.2512   6   6   1.6589   1.4522   5.2820  -0.5943   1.1815  -2.1483   0.00    0.0
2021/10/11 00:00:12.000   28 35 34.11462  -17 55 01.60930    74.3217   6   6   1.1419   1.0231   3.4509  -0.3930   0.7598  -1.4073   0.00    0.0
2021/10/11 00:00:42.000   28 35 34.10793  -17 55 01.60278    74.2959   6   6   0.9204   0.8342   2.7115  -0.3103   0.5926  -1.1071   0.00    0.0
2021/10/11 00:01:12.000   28 35 34.10202  -17 55 01.59808    74.5860   6   6   0.7909   0.7221   2.2954  -0.2631   0.4995  -0.9374   0.00    0.0
2021/10/11 00:01:42.000   28 35 34.09967  -17 55 01.59961    74.7159   6   6   0.7039   0.6458   2.0406  -0.2319   0.4405  -0.8284   0.00    0.0
2021/10/11 00:02:12.000   28 35 34.09469  -17 55 01.59642    75.0431   6   6   0.6402   0.5897   1.8541  -0.2093   0.3982  -0.7493   0.00    0.0
2021/10/11 00:02:42.000   28 35 34.09357  -17 55 01.59686    75.0559   6   6   0.5842   0.5451   1.6612  -0.1862   0.3496  -0.6665   0.00    0.0
2021/10/11 00:03:12.000   28 35 34.09580  -17 55 01.60231    74.7152   6   6   0.5297   0.5080   1.4412  -0.1597   0.2875  -0.5703   0.00    0.0
2021/10/11 00:03:42.000   28 35 34.10225  -17 55 01.60782    74.1642   6   6   0.4706   0.4759   1.1755  -0.1270   0.1997  -0.4506   0.00    0.0
2021/10/11 00:04:12.000   28 35 34.10715  -17 55 01.61154    73.6901   6   6   0.3989   0.4472   0.8651  -0.0880  -0.0111  -0.3023   0.00    0.0
2021/10/11 00:04:42.000   28 35 34.10854  -17 55 01.61243    73.6117   6   6   0.3240   0.4218   0.6175  -0.0612  -0.1480  -0.1652   0.00    0.0
2021/10/11 00:05:12.000   28 35 34.10957  -17 55 01.61198    73.4999   6   6   0.3057   0.4034   0.5843  -0.0559  -0.1458  -0.1492   0.00    0.0
2021/10/11 00:05:42.000   28 35 34.10934  -17 55 01.61064    73.4463   6   6   0.2952   0.3877   0.5703  -0.0531  -0.1392  -0.1446   0.00    0.0
2021/10/11 00:06:12.000   28 35 34.10846  -17 55 01.61061    73.4287   6   6   0.2871   0.3739   0.5611  -0.0512  -0.1321  -0.1427   0.00    0.0
2021/10/11 00:06:42.000   28 35 34.10839  -17 55 01.61084    73.3904   6   6   0.2802   0.3616   0.5540  -0.0496  -0.1253  -0.1418   0.00    0.0
2021/10/11 00:07:12.000   28 35 34.10776  -17 55 01.61012    73.3859   6   6   0.2741   0.3504   0.5481  -0.0483  -0.1188  -0.1413   0.00    0.0
2021/10/11 00:07:42.000   28 35 34.10638  -17 55 01.60984    73.3922   6   6   0.2674   0.3401   0.5394  -0.0465  -0.1137  -0.1389   0.00    0.0
2021/10/11 00:08:12.000   28 35 34.10540  -17 55 01.60745    73.3885   6   6   0.2591   0.3305   0.5254  -0.0437  -0.1109  -0.1328   0.00    0.0
2021/10/11 00:08:42.000   28 35 34.10439  -17 55 01.60766    73.3991   6   6   0.2468   0.3211   0.4999  -0.0390  -0.1121  -0.1180   0.00    0.0
2021/10/11 00:09:12.000   28 35 34.10477  -17 55 01.60771    73.3312   6   6   0.2241   0.3110   0.4509  -0.0302  -0.1209  -0.0764   0.00    0.0
2021/10/11 00:09:42.000   28 35 34.10590  -17 55 01.60881    73.2434   6   6   0.1884   0.2991   0.3865  -0.0279  -0.1347   0.0727   0.00    0.0
2021/10/11 00:10:12.000   28 35 34.10655  -17 55 01.60944    73.2038   6   6   0.1805   0.2914   0.3759  -0.0266  -0.1341   0.0806   0.00    0.0
2021/10/11 00:10:42.000   28 35 34.10610  -17 55 01.61034    73.2249   6   6   0.1769   0.2850   0.3717  -0.0257  -0.1317   0.0820   0.00    0.0
2021/10/11 00:11:12.000   28 35 34.10542  -17 55 01.61074    73.2311   6   6   0.1744   0.2792   0.3692  -0.0249  -0.1291   0.0821   0.00    0.0
2021/10/11 00:11:42.000   28 35 34.10511  -17 55 01.61091    73.2351   6   6   0.1723   0.2739   0.3673  -0.0242  -0.1265   0.0816   0.00    0.0
2021/10/11 00:12:12.000   28 35 34.10506  -17 55 01.61021    73.2355   6   6   0.1706   0.2689   0.3658  -0.0235  -0.1239   0.0809   0.00    0.0
2021/10/11 00:12:42.000   28 35 34.10489  -17 55 01.60975    73.2308   6   6   0.1685   0.2641   0.3637  -0.0227  -0.1216   0.0808   0.00    0.0
2021/10/11 00:13:12.000   28 35 34.10444  -17 55 01.61017    73.2421   6   6   0.1656   0.2593   0.3604  -0.0219  -0.1198   0.0820   0.00    0.0
2021/10/11 00:13:42.000   28 35 34.10345  -17 55 01.60979    73.2866   6   6   0.1611   0.2544   0.3544  -0.0209  -0.1190   0.0860   0.00    0.0
2021/10/11 00:14:12.000   28 35 34.10230  -17 55 01.60909    73.3571   6   6   0.1516   0.2482   0.3416  -0.0214  -0.1209   0.0963   0.00    0.0
2021/10/11 00:14:42.000   28 35 34.10499  -17 55 01.60850    73.2736   6   6   0.1337   0.2395   0.3200  -0.0302  -0.1269   0.1130   0.00    0.0
2021/10/11 00:15:12.000   28 35 34.10524  -17 55 01.60811    73.2612   6   6   0.1296   0.2347   0.3151  -0.0309  -0.1268   0.1150   0.00    0.0
2021/10/11 00:15:42.000   28 35 34.10516  -17 55 01.60768    73.2595   6   6   0.1279   0.2311   0.3130  -0.0307  -0.1256   0.1151   0.00    0.0
2021/10/11 00:16:12.000   28 35 34.10510  -17 55 01.60767    73.2663   6   6   0.1268   0.2279   0.3116  -0.0303  -0.1240   0.1149   0.00    0.0
2021/10/11 00:16:42.000   28 35 34.10518  -17 55 01.60713    73.2619   6   6   0.1259   0.2249   0.3105  -0.0298  -0.1224   0.1145   0.00    0.0
2021/10/11 00:17:12.000   28 35 34.10505  -17 55 01.60689    73.2495   6   6   0.1252   0.2221   0.3096  -0.0292  -0.1209   0.1140   0.00    0.0
2021/10/11 00:17:42.000   28 35 34.10500  -17 55 01.60672    73.2410   6   6   0.1242   0.2193   0.3085  -0.0288  -0.1194   0.1137   0.00    0.0
2021/10/11 00:18:12.000   28 35 34.10515  -17 55 01.60681    73.2478   6   6   0.1230   0.2164   0.3069  -0.0284  -0.1182   0.1137   0.00    0.0
2021/10/11 00:18:42.000   28 35 34.10518  -17 55 01.60665    73.2654   6   6   0.1209   0.2132   0.3042  -0.0285  -0.1174   0.1143   0.00    0.0
2021/10/11 00:19:12.000   28 35 34.10543  -17 55 01.60590    73.2897   6   6   0.1163   0.2086   0.2982  -0.0302  -0.1179   0.1169   0.00    0.0
2021/10/11 00:19:42.000   28 35 34.10702  -17 55 01.60554    73.2342   6   6   0.1059   0.2009   0.2869  -0.0365  -0.1208   0.1218   0.00    0.0
2021/10/11 00:20:12.000   28 35 34.10737  -17 55 01.60573    73.2106   6   6   0.1037   0.1973   0.2835  -0.0371  -0.1204   0.1220   0.00    0.0
2021/10/11 00:20:42.000   28 35 34.10734  -17 55 01.60571    73.1899   6   6   0.1028   0.1949   0.2820  -0.0369  -0.1194   0.1217   0.00    0.0
2021/10/11 00:21:12.000   28 35 34.10733  -17 55 01.60569    73.1806   6   6   0.1022   0.1929   0.2809  -0.0365  -0.1182   0.1213   0.00    0.0
2021/10/11 00:21:42.000   28 35 34.10729  -17 55 01.60591    73.1773   6   6   0.1017   0.1910   0.2800  -0.0361  -0.1171   0.1209   0.00    0.0
2021/10/11 00:22:12.000   28 35 34.10728  -17 55 01.60566    73.1708   6   6   0.1013   0.1892   0.2792  -0.0356  -0.1159   0.1205   0.00    0.0
2021/10/11 00:22:42.000   28 35 34.10719  -17 55 01.60548    73.1645   6   6   0.1008   0.1874   0.2783  -0.0351  -0.1148   0.1202   0.00    0.0
2021/10/11 00:23:12.000   28 35 34.10711  -17 55 01.60548    73.1679   6   6   0.1001   0.1855   0.2770  -0.0348  -0.1137   0.1198   0.00    0.0
2021/10/11 00:23:42.000   28 35 34.10721  -17 55 01.60524    73.1717   6   6   0.0990   0.1832   0.2750  -0.0346  -0.1128   0.1196   0.00    0.0
2021/10/11 00:24:12.000   28 35 34.10771  -17 55 01.60471    73.1870   6   6   0.0963   0.1794   0.2704  -0.0352  -0.1119   0.1195   0.00    0.0
2021/10/11 00:24:42.000   28 35 34.10928  -17 55 01.60464    73.2462   6   6   0.0892   0.1719   0.2607  -0.0377  -0.1111   0.1185   0.00    0.0
2021/10/11 00:25:12.000   28 35 34.10956  -17 55 01.60480    73.2529   6   6   0.0877   0.1689   0.2572  -0.0376  -0.1099   0.1178   0.00    0.0
2021/10/11 00:25:42.000   28 35 34.10952  -17 55 01.60486    73.2611   6   6   0.0870   0.1672   0.2556  -0.0373  -0.1089   0.1173   0.00    0.0
2021/10/11 00:26:12.000   28 35 34.10949  -17 55 01.60499    73.2537   6   6   0.0866   0.1658   0.2546  -0.0369  -0.1079   0.1168   0.00    0.0
2021/10/11 00:26:42.000   28 35 34.10952  -17 55 01.60508    73.2523   6   6   0.0863   0.1645   0.2537  -0.0365  -0.1070   0.1165   0.00    0.0
2021/10/11 00:27:12.000   28 35 34.10950  -17 55 01.60502    73.2515   6   6   0.0860   0.1633   0.2530  -0.0360  -0.1061   0.1161   0.00    0.0
2021/10/11 00:27:42.000   28 35 34.10944  -17 55 01.60497    73.2498   6   6   0.0857   0.1621   0.2521  -0.0356  -0.1052   0.1157   0.00    0.0
2021/10/11 00:28:12.000   28 35 34.10942  -17 55 01.60499    73.2413   6   6   0.0852   0.1607   0.2508  -0.0352  -0.1042   0.1152   0.00    0.0
2021/10/11 00:28:42.000   28 35 34.10927  -17 55 01.60505    73.2335   6   6   0.0844   0.1589   0.2486  -0.0347  -0.1029   0.1145   0.00    0.0
2021/10/11 00:29:12.000   28 35 34.10886  -17 55 01.60524    73.2320   6   6   0.0823   0.1555   0.2433  -0.0340  -0.1007   0.1128   0.00    0.0
2021/10/11 00:29:42.000   28 35 34.11032  -17 55 01.60562    73.2868   6   6   0.0760   0.1481   0.2312  -0.0333  -0.0962   0.1080   0.00    0.0
2021/10/11 00:30:12.000   28 35 34.11062  -17 55 01.60599    73.2696   6   6   0.0747   0.1457   0.2271  -0.0326  -0.0945   0.1065   0.00    0.0
2021/10/11 00:30:42.000   28 35 34.11064  -17 55 01.60607    73.2612   6   6   0.0741   0.1443   0.2254  -0.0321  -0.0935   0.1058   0.00    0.0
2021/10/11 00:31:12.000   28 35 34.11061  -17 55 01.60614    73.2579   6   6   0.0738   0.1433   0.2243  -0.0316  -0.0926   0.1053   0.00    0.0
2021/10/11 00:31:42.000   28 35 34.11058  -17 55 01.60591    73.2529   6   6   0.0735   0.1425   0.2235  -0.0313  -0.0919   0.1049   0.00    0.0
2021/10/11 00:32:12.000   28 35 34.11058  -17 55 01.60578    73.2511   6   6   0.0733   0.1417   0.2229  -0.0309  -0.0912   0.1046   0.00    0.0
2021/10/11 00:32:42.000   28 35 34.11064  -17 55 01.60578    73.2523   6   6   0.0731   0.1408   0.2220  -0.0305  -0.0904   0.1042   0.00    0.0
2021/10/11 00:33:12.000   28 35 34.11074  -17 55 01.60561    73.2531   6   6   0.0727   0.1398   0.2207  -0.0300  -0.0895   0.1036   0.00    0.0
2021/10/11 00:33:42.000   28 35 34.11103  -17 55 01.60551    73.2500   6   6   0.0719   0.1384   0.2182  -0.0293  -0.0881   0.1026   0.00    0.0
2021/10/11 00:34:12.000   28 35 34.11178  -17 55 01.60551    73.2671   6   6   0.0699   0.1354   0.2122  -0.0279  -0.0854   0.1000   0.00    0.0
2021/10/11 00:34:42.000   28 35 34.11326  -17 55 01.60572    73.4076   6   7   0.0640   0.1283   0.1986  -0.0257  -0.0796   0.0931   0.00    0.0
2021/10/11 00:35:12.000   28 35 34.11360  -17 55 01.60586    73.4653   6   7   0.0627   0.1260   0.1941  -0.0244  -0.0773   0.0911   0.00    0.0
2021/10/11 00:35:42.000   28 35 34.11371  -17 55 01.60580    73.4843   6   7   0.0621   0.1249   0.1921  -0.0237  -0.0761   0.0902   0.00    0.0
2021/10/11 00:36:12.000   28 35 34.11373  -17 55 01.60584    73.4922   6   7   0.0618   0.1240   0.1909  -0.0232  -0.0752   0.0897   0.00    0.0
2021/10/11 00:36:42.000   28 35 34.11372  -17 55 01.60583    73.4937   6   7   0.0616   0.1233   0.1901  -0.0227  -0.0744   0.0892   0.00    0.0
2021/10/11 00:37:12.000   28 35 34.11366  -17 55 01.60569    73.4864   6   7   0.0614   0.1227   0.1893  -0.0223  -0.0737   0.0889   0.00    0.0
2021/10/11 00:37:42.000   28 35 34.11368  -17 55 01.60591    73.4900   6   7   0.0611   0.1220   0.1883  -0.0217  -0.0729   0.0884   0.00    0.0
2021/10/11 00:38:12.000   28 35 34.11373  -17 55 01.60592    73.4929   6   7   0.0607   0.1212   0.1865  -0.0210  -0.0718   0.0875   0.00    0.0
2021/10/11 00:38:42.000   28 35 34.11385  -17 55 01.60591    73.4967   6   7   0.0598   0.1199   0.1831  -0.0199  -0.0702   0.0859   0.00    0.0
2021/10/11 00:39:12.000   28 35 34.11420  -17 55 01.60571    73.5218   6   7   0.0577   0.1172   0.1755  -0.0177  -0.0668   0.0822   0.00    0.0
2021/10/11 00:39:42.000   28 35 34.11450  -17 55 01.60562    73.5428   6   7   0.0524   0.1107   0.1613  -0.0150  -0.0609   0.0746   0.00    0.0
2021/10/11 00:40:12.000   28 35 34.11427  -17 55 01.60575    73.5313   6   7   0.0511   0.1088   0.1565  -0.0134  -0.0586   0.0724   0.00    0.0
2021/10/11 00:40:42.000   28 35 34.11415  -17 55 01.60560    73.5165   6   7   0.0506   0.1079   0.1545  -0.0126  -0.0576   0.0714   0.00    0.0
2021/10/11 00:41:12.000   28 35 34.11412  -17 55 01.60549    73.5104   6   7   0.0504   0.1073   0.1534  -0.0120  -0.0569   0.0709   0.00    0.0
2021/10/11 00:41:42.000   28 35 34.11410  -17 55 01.60550    73.5066   6   7   0.0502   0.1068   0.1526  -0.0115  -0.0563   0.0705   0.00    0.0
2021/10/11 00:42:12.000   28 35 34.11408  -17 55 01.60529    73.4991   6   7   0.0500   0.1063   0.1520  -0.0111  -0.0558   0.0702   0.00    0.0
2021/10/11 00:42:42.000   28 35 34.11408  -17 55 01.60507    73.4917   6   7   0.0498   0.1058   0.1510  -0.0106  -0.0552   0.0698   0.00    0.0
2021/10/11 00:43:12.000   28 35 34.11411  -17 55 01.60518    73.4887   6   7   0.0494   0.1052   0.1494  -0.0098  -0.0544   0.0690   0.00    0.0
2021/10/11 00:43:42.000   28 35 34.11419  -17 55 01.60524    73.4869   6   7   0.0487   0.1042   0.1462  -0.0082  -0.0530   0.0674   0.00    0.0
2021/10/11 00:44:12.000   28 35 34.11416  -17 55 01.60541    73.4714   6   7   0.0469   0.1019   0.1391  -0.0041  -0.0500   0.0639   0.00    0.0
2021/10/11 00:44:42.000   28 35 34.11439  -17 55 01.60542    73.4863   6   7   0.0424   0.0961   0.1267   0.0047  -0.0449   0.0571   0.00    0.0
2021/10/11 00:45:12.000   28 35 34.11446  -17 55 01.60538    73.4874   6   7   0.0414   0.0944   0.1225   0.0068  -0.0430   0.0551   0.00    0.0
2021/10/11 00:45:42.000   28 35 34.11444  -17 55 01.60538    73.4810   6   7   0.0410   0.0937   0.1208   0.0076  -0.0422   0.0543   0.00    0.0
2021/10/11 00:46:12.000   28 35 34.11440  -17 55 01.60540    73.4764   6   7   0.0408   0.0933   0.1199   0.0080  -0.0417   0.0539   0.00    0.0
2021/10/11 00:46:42.000   28 35 34.11435  -17 55 01.60543    73.4701   6   7   0.0406   0.0929   0.1193   0.0083  -0.0413   0.0536   0.00    0.0
2021/10/11 00:47:12.000   28 35 34.11430  -17 55 01.60533    73.4652   6   7   0.0405   0.0926   0.1189   0.0085  -0.0410   0.0534   0.00    0.0
2021/10/11 00:47:42.000   28 35 34.11424  -17 55 01.60530    73.4599   6   7   0.0404   0.0922   0.1182   0.0088  -0.0406   0.0530   0.00    0.0
2021/10/11 00:48:12.000   28 35 34.11425  -17 55 01.60526    73.4638   6   7   0.0401   0.0918   0.1169   0.0092  -0.0400   0.0524   0.00    0.0
2021/10/11 00:48:42.000   28 35 34.11426  -17 55 01.60537    73.4706   6   7   0.0396   0.0909   0.1145   0.0100  -0.0389   0.0512   0.00    0.0
2021/10/11 00:49:12.000   28 35 34.11431  -17 55 01.60558    73.4767   6   7   0.0382   0.0890   0.1091   0.0112  -0.0366   0.0485   0.00    0.0
2021/10/11 00:49:42.000   28 35 34.11447  -17 55 01.60581    73.4736   6   7   0.0348   0.0839   0.0997   0.0113  -0.0327   0.0433   0.00    0.0
2021/10/11 00:50:12.000   28 35 34.11438  -17 55 01.60583    73.4674   6   7   0.0340   0.0825   0.0965   0.0118  -0.0312   0.0417   0.00    0.0
2021/10/11 00:50:42.000   28 35 34.11432  -17 55 01.60575    73.4660   6   8   0.0337   0.0819   0.0952   0.0120  -0.0306   0.0411   0.00    0.0
2021/10/11 00:51:12.000   28 35 34.11429  -17 55 01.60571    73.4646   6   8   0.0336   0.0816   0.0946   0.0121  -0.0303   0.0409   0.00    0.0
2021/10/11 00:51:42.000   28 35 34.11426  -17 55 01.60573    73.4644   6   8   0.0335   0.0813   0.0943   0.0121  -0.0300   0.0407   0.00    0.0
2021/10/11 00:52:12.000   28 35 34.11424  -17 55 01.60571    73.4645   6   8   0.0334   0.0810   0.0940   0.0122  -0.0298   0.0406   0.00    0.0
2021/10/11 00:52:42.000   28 35 34.11423  -17 55 01.60571    73.4635   6   8   0.0333   0.0808   0.0936   0.0122  -0.0295   0.0404   0.00    0.0
2021/10/11 00:53:12.000   28 35 34.11421  -17 55 01.60569    73.4607   6   8   0.0332   0.0804   0.0929   0.0123  -0.0291   0.0401   0.00    0.0
2021/10/11 00:53:42.000   28 35 34.11416  -17 55 01.60570    73.4568   6   8   0.0328   0.0797   0.0915   0.0125  -0.0285   0.0394   0.00    0.0
2021/10/11 00:54:12.000   28 35 34.11408  -17 55 01.60583    73.4489   6   8   0.0320   0.0781   0.0884   0.0128  -0.0269   0.0379   0.00    0.0
2021/10/11 00:54:42.000   28 35 34.11443  -17 55 01.60574    73.4669   6   8   0.0296   0.0737   0.0824   0.0121  -0.0244   0.0345   0.00    0.0
2021/10/11 00:55:12.000   28 35 34.11458  -17 55 01.60569    73.4635   6   8   0.0290   0.0725   0.0803   0.0123  -0.0234   0.0335   0.00    0.0
2021/10/11 00:55:42.000   28 35 34.11461  -17 55 01.60568    73.4625   6   8   0.0288   0.0720   0.0795   0.0123  -0.0229   0.0331   0.00    0.0
2021/10/11 00:56:12.000   28 35 34.11461  -17 55 01.60561    73.4626   6   8   0.0287   0.0718   0.0791   0.0124  -0.0227   0.0329   0.00    0.0
2021/10/11 00:56:42.000   28 35 34.11461  -17 55 01.60558    73.4633   6   8   0.0286   0.0715   0.0788   0.0124  -0.0225   0.0328   0.00    0.0
2021/10/11 00:57:12.000   28 35 34.11462  -17 55 01.60559    73.4635   6   8   0.0286   0.0714   0.0786   0.0124  -0.0224   0.0327   0.00    0.0
2021/10/11 00:57:42.000   28 35 34.11463  -17 55 01.60561    73.4639   6   8   0.0285   0.0712   0.0783   0.0124  -0.0222   0.0325   0.00    0.0
2021/10/11 00:58:12.000   28 35 34.11465  -17 55 01.60559    73.4634   6   8   0.0284   0.0708   0.0777   0.0124  -0.0220   0.0323   0.00    0.0
2021/10/11 00:58:42.000   28 35 34.11465  -17 55 01.60558    73.4627   6   8   0.0281   0.0703   0.0766   0.0124  -0.0215   0.0318   0.00    0.0
2021/10/11 00:59:12.000   28 35 34.11473  -17 55 01.60547    73.4704   6   8   0.0275   0.0689   0.0742   0.0124  -0.0206   0.0306   0.00    0.0
2021/10/11 00:59:42.000   28 35 34.11492  -17 55 01.60527    73.4710   6   8   0.0256   0.0652   0.0699   0.0117  -0.0187   0.0280   0.00    0.0
2021/10/11 01:00:12.000   28 35 34.11492  -17 55 01.60519    73.4720   6   8   0.0252   0.0642   0.0684   0.0118  -0.0178   0.0273   0.00    0.0
2021/10/11 01:00:42.000   28 35 34.11491  -17 55 01.60515    73.4748   6   7   0.0250   0.0638   0.0678   0.0118  -0.0175   0.0270   0.00    0.0
2021/10/11 01:01:12.000   28 35 34.11491  -17 55 01.60509    73.4772   6   7   0.0249   0.0636   0.0674   0.0118  -0.0172   0.0269   0.00    0.0
2021/10/11 01:01:42.000   28 35 34.11490  -17 55 01.60502    73.4778   6   6   0.0249   0.0634   0.0674   0.0118  -0.0171   0.0268   0.00    0.0
2021/10/11 01:02:12.000   28 35 34.11490  -17 55 01.60496    73.4782   6   6   0.0249   0.0633   0.0673   0.0118  -0.0171   0.0268   0.00    0.0
2021/10/11 01:02:42.000   28 35 34.11490  -17 55 01.60490    73.4788   6   6   0.0248   0.0632   0.0672   0.0118  -0.0170   0.0267   0.00    0.0
2021/10/11 01:03:12.000   28 35 34.11490  -17 55 01.60485    73.4781   6   6   0.0247   0.0629   0.0670   0.0118  -0.0168   0.0266   0.00    0.0
2021/10/11 01:03:42.000   28 35 34.11489  -17 55 01.60479    73.4763   6   6   0.0246   0.0625   0.0667   0.0118  -0.0165   0.0264   0.00    0.0
2021/10/11 01:04:12.000   28 35 34.11492  -17 55 01.60469    73.4703   6   6   0.0241   0.0614   0.0657   0.0118  -0.0159   0.0257   0.00    0.0
2021/10/11 01:04:42.000   28 35 34.11497  -17 55 01.60455    73.4671   6   6   0.0226   0.0581   0.0634   0.0114  -0.0147   0.0239   0.00    0.0
2021/10/11 01:05:12.000   28 35 34.11493  -17 55 01.60446    73.4640   6   6   0.0223   0.0573   0.0627   0.0113  -0.0142   0.0234   0.00    0.0
2021/10/11 01:05:42.000   28 35 34.11492  -17 55 01.60440    73.4619   6   6   0.0222   0.0570   0.0625   0.0113  -0.0140   0.0232   0.00    0.0
2021/10/11 01:06:12.000   28 35 34.11491  -17 55 01.60434    73.4607   6   6   0.0221   0.0568   0.0623   0.0113  -0.0139   0.0232   0.00    0.0
2021/10/11 01:06:42.000   28 35 34.11491  -17 55 01.60429    73.4609   6   6   0.0221   0.0567   0.0623   0.0113  -0.0138   0.0231   0.00    0.0
2021/10/11 01:07:12.000   28 35 34.11490  -17 55 01.60425    73.4611   6   6   0.0221   0.0566   0.0622   0.0113  -0.0138   0.0231   0.00    0.0
2021/10/11 01:07:42.000   28 35 34.11489  -17 55 01.60419    73.4608   6   6   0.0220   0.0565   0.0621   0.0113  -0.0137   0.0230   0.00    0.0
2021/10/11 01:08:12.000   28 35 34.11489  -17 55 01.60415    73.4601   6   6   0.0220   0.0563   0.0620   0.0113  -0.0136   0.0229   0.00    0.0
2021/10/11 01:08:42.000   28 35 34.11492  -17 55 01.60410    73.4604   6   6   0.0218   0.0559   0.0617   0.0113  -0.0134   0.0227   0.00    0.0
2021/10/11 01:09:12.000   28 35 34.11495  -17 55 01.60403    73.4626   6   6   0.0214   0.0550   0.0610   0.0113  -0.0129   0.0222   0.00    0.0
2021/10/11 01:09:42.000   28 35 34.11506  -17 55 01.60393    73.4691   6   6   0.0202   0.0521   0.0592   0.0107  -0.0123   0.0205   0.00    0.0
2021/10/11 01:10:12.000   28 35 34.11506  -17 55 01.60391    73.4702   6   6   0.0199   0.0514   0.0587   0.0107  -0.0119   0.0201   0.00    0.0
2021/10/11 01:10:42.000   28 35 34.11503  -17 55 01.60393    73.4704   6   6   0.0198   0.0511   0.0585   0.0107  -0.0118   0.0200   0.00    0.0
2021/10/11 01:11:12.000   28 35 34.11502  -17 55 01.60394    73.4709   6   6   0.0198   0.0510   0.0584   0.0107  -0.0117   0.0199   0.00    0.0
2021/10/11 01:11:42.000   28 35 34.11502  -17 55 01.60393    73.4714   6   6   0.0198   0.0509   0.0583   0.0107  -0.0117   0.0199   0.00    0.0
2021/10/11 01:12:12.000   28 35 34.11502  -17 55 01.60390    73.4718   6   6   0.0197   0.0508   0.0583   0.0107  -0.0117   0.0199   0.00    0.0
2021/10/11 01:12:42.000   28 35 34.11502  -17 55 01.60386    73.4726   6   6   0.0197   0.0507   0.0582   0.0107  -0.0116   0.0198   0.00    0.0
2021/10/11 01:13:12.000   28 35 34.11503  -17 55 01.60383    73.4732   6   6   0.0197   0.0505   0.0582   0.0107  -0.0115   0.0197   0.00    0.0
2021/10/11 01:13:42.000   28 35 34.11504  -17 55 01.60379    73.4746   6   6   0.0195   0.0503   0.0580   0.0106  -0.0114   0.0196   0.00    0.0
2021/10/11 01:14:12.000   28 35 34.11511  -17 55 01.60375    73.4760   6   6   0.0192   0.0495   0.0574   0.0106  -0.0111   0.0191   0.00    0.0
2021/10/11 01:14:42.000   28 35 34.11519  -17 55 01.60362    73.4772   6   6   0.0182   0.0470   0.0560   0.0101  -0.0109   0.0176   0.00    0.0
2021/10/11 01:15:12.000   28 35 34.11524  -17 55 01.60352    73.4802   6   6   0.0180   0.0464   0.0556   0.0101  -0.0107   0.0172   0.00    0.0
2021/10/11 01:15:42.000   28 35 34.11527  -17 55 01.60347    73.4821   6   6   0.0179   0.0462   0.0554   0.0100  -0.0106   0.0171   0.00    0.0
2021/10/11 01:16:12.000   28 35 34.11528  -17 55 01.60345    73.4827   6   6   0.0179   0.0461   0.0554   0.0100  -0.0105   0.0170   0.00    0.0
2021/10/11 01:16:42.000   28 35 34.11529  -17 55 01.60343    73.4831   6   6   0.0178   0.0460   0.0553   0.0100  -0.0105   0.0170   0.00    0.0
2021/10/11 01:17:12.000   28 35 34.11530  -17 55 01.60340    73.4832   6   6   0.0178   0.0459   0.0553   0.0100  -0.0105   0.0170   0.00    0.0
2021/10/11 01:17:42.000   28 35 34.11530  -17 55 01.60340    73.4835   6   6   0.0178   0.0459   0.0553   0.0100  -0.0105   0.0169   0.00    0.0
2021/10/11 01:18:12.000   28 35 34.11530  -17 55 01.60338    73.4834   6   6   0.0178   0.0457   0.0552   0.0100  -0.0104   0.0169   0.00    0.0
2021/10/11 01:18:42.000   28 35 34.11530  -17 55 01.60336    73.4835   6   6   0.0177   0.0455   0.0550   0.0100  -0.0104   0.0167   0.00    0.0
2021/10/11 01:19:12.000   28 35 34.11535  -17 55 01.60326    73.4878   6   6   0.0174   0.0448   0.0546   0.0099  -0.0102   0.0163   0.00    0.0
2021/10/11 01:19:42.000   28 35 34.11536  -17 55 01.60313    73.4852   6   6   0.0166   0.0427   0.0534   0.0096  -0.0103   0.0149   0.00    0.0
2021/10/11 01:20:12.000   28 35 34.11534  -17 55 01.60307    73.4836   6   6   0.0164   0.0422   0.0531   0.0096  -0.0102   0.0145   0.00    0.0
2021/10/11 01:20:42.000   28 35 34.11535  -17 55 01.60304    73.4844   6   6   0.0163   0.0420   0.0530   0.0095  -0.0102   0.0144   0.00    0.0
2021/10/11 01:21:12.000   28 35 34.11535  -17 55 01.60301    73.4843   6   6   0.0163   0.0419   0.0530   0.0095  -0.0102   0.0144   0.00    0.0
2021/10/11 01:21:42.000   28 35 34.11535  -17 55 01.60295    73.4843   6   6   0.0163   0.0418   0.0529   0.0095  -0.0102   0.0143   0.00    0.0
2021/10/11 01:22:12.000   28 35 34.11535  -17 55 01.60291    73.4844   6   6   0.0163   0.0418   0.0529   0.0095  -0.0102   0.0143   0.00    0.0
2021/10/11 01:22:42.000   28 35 34.11535  -17 55 01.60289    73.4848   6   6   0.0163   0.0417   0.0529   0.0095  -0.0102   0.0143   0.00    0.0
2021/10/11 01:23:12.000   28 35 34.11534  -17 55 01.60286    73.4847   6   6   0.0162   0.0416   0.0528   0.0095  -0.0102   0.0142   0.00    0.0
2021/10/11 01:23:42.000   28 35 34.11531  -17 55 01.60283    73.4838   6   6   0.0162   0.0414   0.0527   0.0095  -0.0101   0.0141   0.00    0.0
2021/10/11 01:24:12.000   28 35 34.11524  -17 55 01.60282    73.4797   6   6   0.0159   0.0408   0.0524   0.0094  -0.0102   0.0136   0.00    0.0
2021/10/11 01:24:42.000   28 35 34.11520  -17 55 01.60268    73.4737   6   6   0.0152   0.0390   0.0514   0.0091  -0.0106   0.0123   0.00    0.0
2021/10/11 01:25:12.000   28 35 34.11519  -17 55 01.60264    73.4742   6   6   0.0151   0.0385   0.0511   0.0090  -0.0106   0.0119   0.00    0.0
2021/10/11 01:25:42.000   28 35 34.11517  -17 55 01.60264    73.4737   6   6   0.0150   0.0384   0.0510   0.0090  -0.0106   0.0118   0.00    0.0
2021/10/11 01:26:12.000   28 35 34.11516  -17 55 01.60261    73.4733   6   6   0.0150   0.0383   0.0510   0.0090  -0.0106   0.0118   0.00    0.0
2021/10/11 01:26:42.000   28 35 34.11515  -17 55 01.60260    73.4731   6   6   0.0150   0.0382   0.0509   0.0090  -0.0106   0.0117   0.00    0.0
2021/10/11 01:27:12.000   28 35 34.11515  -17 55 01.60261    73.4732   6   6   0.0150   0.0382   0.0509   0.0090  -0.0106   0.0117   0.00    0.0
2021/10/11 01:27:42.000   28 35 34.11515  -17 55 01.60260    73.4729   6   6   0.0150   0.0381   0.0509   0.0090  -0.0107   0.0117   0.00    0.0
2021/10/11 01:28:12.000   28 35 34.11514  -17 55 01.60258    73.4726   6   6   0.0149   0.0380   0.0508   0.0090  -0.0107   0.0116   0.00    0.0
2021/10/11 01:28:42.000   28 35 34.11513  -17 55 01.60255    73.4722   6   6   0.0149   0.0379   0.0507   0.0090  -0.0107   0.0114   0.00    0.0
2021/10/11 01:29:12.000   28 35 34.11510  -17 55 01.60255    73.4711   6   6   0.0147   0.0374   0.0504   0.0089  -0.0108   0.0110   0.00    0.0
2021/10/11 01:29:42.000   28 35 34.11506  -17 55 01.60243    73.4654   6   6   0.0141   0.0358   0.0495   0.0087  -0.0114   0.0096   0.00    0.0
2021/10/11 01:30:12.000   28 35 34.11505  -17 55 01.60233    73.4614   6   6   0.0140   0.0354   0.0493   0.0086  -0.0115   0.0092   0.00    0.0
2021/10/11 01:30:42.000   28 35 34.11504  -17 55 01.60227    73.4592   6   6   0.0140   0.0353   0.0492   0.0086  -0.0115   0.0091   0.00    0.0
2021/10/11 01:31:12.000   28 35 34.11504  -17 55 01.60223    73.4586   6   6   0.0139   0.0352   0.0492   0.0086  -0.0115   0.0091   0.00    0.0
2021/10/11 01:31:42.000   28 35 34.11504  -17 55 01.60221    73.4585   6   6   0.0139   0.0352   0.0491   0.0086  -0.0115   0.0090   0.00    0.0
2021/10/11 01:32:12.000   28 35 34.11504  -17 55 01.60218    73.4584   6   6   0.0139   0.0351   0.0491   0.0086  -0.0115   0.0090   0.00    0.0
2021/10/11 01:32:42.000   28 35 34.11504  -17 55 01.60216    73.4582   6   6   0.0139   0.0351   0.0491   0.0086  -0.0116   0.0089   0.00    0.0
2021/10/11 01:33:12.000   28 35 34.11504  -17 55 01.60213    73.4581   6   6   0.0139   0.0350   0.0490   0.0086  -0.0116   0.0089   0.00    0.0
2021/10/11 01:33:42.000   28 35 34.11503  -17 55 01.60211    73.4563   6   6   0.0138   0.0348   0.0489   0.0086  -0.0116   0.0087   0.00    0.0
2021/10/11 01:34:12.000   28 35 34.11503  -17 55 01.60207    73.4540   6   6   0.0137   0.0344   0.0486   0.0085  -0.0118   0.0082   0.00    0.0
2021/10/11 01:34:42.000   28 35 34.11503  -17 55 01.60198    73.4511   6   6   0.0132   0.0330   0.0478   0.0084  -0.0123   0.0067   0.00    0.0
2021/10/11 01:35:12.000   28 35 34.11499  -17 55 01.60197    73.4493   6   6   0.0131   0.0327   0.0475   0.0084  -0.0124   0.0063   0.00    0.0
2021/10/11 01:35:42.000   28 35 34.11498  -17 55 01.60195    73.4490   6   6   0.0131   0.0326   0.0474   0.0084  -0.0125   0.0061   0.00    0.0
2021/10/11 01:36:12.000   28 35 34.11498  -17 55 01.60193    73.4494   6   6   0.0130   0.0325   0.0473   0.0084  -0.0125   0.0060   0.00    0.0
2021/10/11 01:36:42.000   28 35 34.11499  -17 55 01.60189    73.4492   6   6   0.0130   0.0325   0.0473   0.0083  -0.0125   0.0060   0.00    0.0
2021/10/11 01:37:12.000   28 35 34.11499  -17 55 01.60185    73.4486   6   6   0.0130   0.0325   0.0473   0.0083  -0.0125   0.0059   0.00    0.0
2021/10/11 01:37:42.000   28 35 34.11499  -17 55 01.60181    73.4477   6   6   0.0130   0.0324   0.0472   0.0083  -0.0125   0.0059   0.00    0.0
2021/10/11 01:38:12.000   28 35 34.11498  -17 55 01.60180    73.4462   6   6   0.0130   0.0324   0.0472   0.0083  -0.0126   0.0058   0.00    0.0
2021/10/11 01:38:42.000   28 35 34.11498  -17 55 01.60177    73.4436   6   6   0.0130   0.0322   0.0470   0.0083  -0.0126   0.0056   0.00    0.0
2021/10/11 01:39:12.000   28 35 34.11498  -17 55 01.60172    73.4406   6   6   0.0128   0.0319   0.0467   0.0083  -0.0127   0.0050   0.00    0.0
2021/10/11 01:39:42.000   28 35 34.11500  -17 55 01.60167    73.4405   6   5   0.0125   0.0307   0.0462   0.0082  -0.0132   0.0031   0.00    0.0
2021/10/11 01:40:12.000   28 35 34.11503  -17 55 01.60163    73.4419   6   5   0.0124   0.0304   0.0461   0.0082  -0.0133   0.0025   0.00    0.0
2021/10/11 01:40:42.000   28 35 34.11504  -17 55 01.60161    73.4432   6   5   0.0123   0.0303   0.0461   0.0082  -0.0133   0.0023   0.00    0.0
2021/10/11 01:41:12.000   28 35 34.11504  -17 55 01.60160    73.4434   6   5   0.0123   0.0303   0.0460   0.0082  -0.0133   0.0021   0.00    0.0
2021/10/11 01:41:42.000   28 35 34.11504  -17 55 01.60160    73.4434   6   5   0.0123   0.0302   0.0460   0.0082  -0.0133   0.0020   0.00    0.0
2021/10/11 01:42:12.000   28 35 34.11504  -17 55 01.60160    73.4433   6   5   0.0123   0.0302   0.0460   0.0082  -0.0133   0.0020   0.00    0.0
2021/10/11 01:42:42.000   28 35 34.11503  -17 55 01.60161    73.4433   6   5   0.0123   0.0302   0.0460   0.0082  -0.0133   0.0019   0.00    0.0
2021/10/11 01:43:12.000   28 35 34.11503  -17 55 01.60161    73.4436   6   5   0.0123   0.0301   0.0460   0.0082  -0.0134   0.0017   0.00    0.0
2021/10/11 01:43:42.000   28 35 34.11504  -17 55 01.60163    73.4442   6   5   0.0123   0.0300   0.0459   0.0082  -0.0134   0.0013   0.00    0.0
2021/10/11 01:44:12.000   28 35 34.11504  -17 55 01.60168    73.4455   6   5   0.0122   0.0297   0.0458   0.0082  -0.0135  -0.0016   0.00    0.0
2021/10/11 01:44:42.000   28 35 34.11506  -17 55 01.60171    73.4455   6   5   0.0118   0.0287   0.0454   0.0081  -0.0140  -0.0040   0.00    0.0
2021/10/11 01:45:12.000   28 35 34.11509  -17 55 01.60166    73.4463   6   5   0.0117   0.0285   0.0453   0.0081  -0.0141  -0.0043   0.00    0.0
2021/10/11 01:45:42.000   28 35 34.11510  -17 55 01.60164    73.4466   6   5   0.0117   0.0284   0.0452   0.0081  -0.0141  -0.0044   0.00    0.0
2021/10/11 01:46:12.000   28 35 34.11511  -17 55 01.60160    73.4471   6   5   0.0117   0.0283   0.0452   0.0081  -0.0141  -0.0045   0.00    0.0
2021/10/11 01:46:42.000   28 35 34.11511  -17 55 01.60157    73.4472   6   5   0.0117   0.0283   0.0452   0.0081  -0.0141  -0.0045   0.00    0.0
2021/10/11 01:47:12.000   28 35 34.11512  -17 55 01.60155    73.4472   6   5   0.0117   0.0283   0.0452   0.0081  -0.0141  -0.0046   0.00    0.0
2021/10/11 01:47:42.000   28 35 34.11512  -17 55 01.60153    73.4472   6   5   0.0117   0.0283   0.0452   0.0081  -0.0142  -0.0046   0.00    0.0
2021/10/11 01:48:12.000   28 35 34.11511  -17 55 01.60152    73.4468   6   5   0.0117   0.0282   0.0452   0.0081  -0.0142  -0.0046   0.00    0.0
2021/10/11 01:48:42.000   28 35 34.11511  -17 55 01.60152    73.4463   6   5   0.0116   0.0281   0.0451   0.0081  -0.0142  -0.0048   0.00    0.0
2021/10/11 01:49:12.000   28 35 34.11509  -17 55 01.60155    73.4457   6   5   0.0116   0.0279   0.0450   0.0081  -0.0143  -0.0051   0.00    0.0
2021/10/11 01:49:42.000   28 35 34.11510  -17 55 01.60155    73.4454   6   5   0.0113   0.0270   0.0446   0.0081  -0.0148  -0.0061   0.00    0.0
2021/10/11 01:50:12.000   28 35 34.11509  -17 55 01.60154    73.4438   6   5   0.0112   0.0268   0.0446   0.0081  -0.0149  -0.0063   0.00    0.0
2021/10/11 01:50:42.000   28 35 34.11508  -17 55 01.60152    73.4426   6   5   0.0112   0.0267   0.0445   0.0081  -0.0149  -0.0064   0.00    0.0
2021/10/11 01:51:12.000   28 35 34.11508  -17 55 01.60152    73.4420   6   5   0.0112   0.0267   0.0445   0.0081  -0.0149  -0.0064   0.00    0.0
2021/10/11 01:51:42.000   28 35 34.11508  -17 55 01.60151    73.4418   6   5   0.0112   0.0267   0.0445   0.0081  -0.0150  -0.0064   0.00    0.0
2021/10/11 01:52:12.000   28 35 34.11508  -17 55 01.60150    73.4416   6   5   0.0112   0.0266   0.0445   0.0081  -0.0150  -0.0064   0.00    0.0
2021/10/11 01:52:42.000   28 35 34.11507  -17 55 01.60149    73.4413   6   5   0.0112   0.0266   0.0445   0.0081  -0.0150  -0.0065   0.00    0.0
2021/10/11 01:53:12.000   28 35 34.11507  -17 55 01.60147    73.4410   6   5   0.0111   0.0266   0.0445   0.0081  -0.0150  -0.0065   0.00    0.0
2021/10/11 01:53:42.000   28 35 34.11507  -17 55 01.60145    73.4400   6   5   0.0111   0.0265   0.0444   0.0081  -0.0150  -0.0066   0.00    0.0
2021/10/11 01:54:12.000   28 35 34.11507  -17 55 01.60143    73.4391   6   5   0.0110   0.0263   0.0443   0.0081  -0.0152  -0.0068   0.00    0.0
2021/10/11 01:54:42.000   28 35 34.11506  -17 55 01.60151    73.4384   6   5   0.0108   0.0256   0.0440   0.0081  -0.0156  -0.0075   0.00    0.0
2021/10/11 01:55:12.000   28 35 34.11505  -17 55 01.60152    73.4380   6   5   0.0107   0.0254   0.0439   0.0081  -0.0157  -0.0076   0.00    0.0
2021/10/11 01:55:42.000   28 35 34.11504  -17 55 01.60154    73.4370   6   5   0.0107   0.0253   0.0438   0.0081  -0.0157  -0.0077   0.00    0.0
2021/10/11 01:56:12.000   28 35 34.11502  -17 55 01.60156    73.4362   6   5   0.0107   0.0253   0.0438   0.0081  -0.0158  -0.0077   0.00    0.0
2021/10/11 01:56:42.000   28 35 34.11502  -17 55 01.60157    73.4358   6   5   0.0107   0.0253   0.0438   0.0081  -0.0158  -0.0077   0.00    0.0
2021/10/11 01:57:12.000   28 35 34.11501  -17 55 01.60157    73.4356   6   5   0.0107   0.0253   0.0438   0.0081  -0.0158  -0.0077   0.00    0.0
2021/10/11 01:57:42.000   28 35 34.11501  -17 55 01.60157    73.4354   6   5   0.0107   0.0252   0.0438   0.0081  -0.0158  -0.0077   0.00    0.0
2021/10/11 01:58:12.000   28 35 34.11500  -17 55 01.60157    73.4349   6   5   0.0107   0.0252   0.0438   0.0081  -0.0158  -0.0078   0.00    0.0
2021/10/11 01:58:42.000   28 35 34.11500  -17 55 01.60157    73.4348   6   5   0.0107   0.0251   0.0438   0.0081  -0.0158  -0.0078   0.00    0.0
2021/10/11 01:59:12.000   28 35 34.11502  -17 55 01.60155    73.4362   6   5   0.0106   0.0250   0.0436   0.0081  -0.0159  -0.0080   0.00    0.0
2021/10/11 01:59:42.000   28 35 34.11502  -17 55 01.60158    73.4353   6   5   0.0104   0.0244   0.0433   0.0081  -0.0164  -0.0085   0.00    0.0
2021/10/11 02:00:12.000   28 35 34.11502  -17 55 01.60158    73.4342   6   5   0.0103   0.0242   0.0432   0.0081  -0.0165  -0.0086   0.00    0.0
2021/10/11 02:00:42.000   28 35 34.11502  -17 55 01.60157    73.4344   6   5   0.0103   0.0242   0.0432   0.0081  -0.0165  -0.0086   0.00    0.0
2021/10/11 02:01:12.000   28 35 34.11502  -17 55 01.60157    73.4345   6   5   0.0103   0.0241   0.0432   0.0081  -0.0165  -0.0086   0.00    0.0
2021/10/11 02:01:42.000   28 35 34.11502  -17 55 01.60156    73.4344   6   5   0.0103   0.0241   0.0432   0.0081  -0.0165  -0.0086   0.00    0.0
2021/10/11 02:02:12.000   28 35 34.11502  -17 55 01.60155    73.4344   6   5   0.0103   0.0241   0.0432   0.0081  -0.0165  -0.0086   0.00    0.0
2021/10/11 02:02:42.000   28 35 34.11502  -17 55 01.60156    73.4344   6   5   0.0103   0.0241   0.0431   0.0081  -0.0165  -0.0087   0.00    0.0
2021/10/11 02:03:12.000   28 35 34.11502  -17 55 01.60156    73.4347   6   5   0.0103   0.0241   0.0431   0.0081  -0.0165  -0.0087   0.00    0.0
2021/10/11 02:03:42.000   28 35 34.11502  -17 55 01.60157    73.4350   6   5   0.0103   0.0240   0.0431   0.0081  -0.0166  -0.0087   0.00    0.0
2021/10/11 02:04:12.000   28 35 34.11504  -17 55 01.60156    73.4361   6   5   0.0102   0.0239   0.0430   0.0081  -0.0167  -0.0088   0.00    0.0
2021/10/11 02:04:42.000   28 35 34.11501  -17 55 01.60169    73.4326   6   5   0.0100   0.0234   0.0426   0.0082  -0.0171  -0.0092   0.00    0.0
2021/10/11 02:05:12.000   28 35 34.11500  -17 55 01.60173    73.4312   6   5   0.0100   0.0232   0.0425   0.0082  -0.0172  -0.0093   0.00    0.0
2021/10/11 02:05:42.000   28 35 34.11499  -17 55 01.60175    73.4301   6   5   0.0100   0.0232   0.0425   0.0082  -0.0172  -0.0093   0.00    0.0
2021/10/11 02:06:12.000   28 35 34.11499  -17 55 01.60175    73.4299   6   5   0.0100   0.0232   0.0425   0.0082  -0.0172  -0.0094   0.00    0.0
2021/10/11 02:06:42.000   28 35 34.11499  -17 55 01.60175    73.4300   6   5   0.0100   0.0232   0.0425   0.0082  -0.0172  -0.0094   0.00    0.0
2021/10/11 02:07:12.000   28 35 34.11499  -17 55 01.60175    73.4301   6   5   0.0100   0.0232   0.0425   0.0082  -0.0172  -0.0094   0.00    0.0
2021/10/11 02:07:42.000   28 35 34.11499  -17 55 01.60175    73.4303   6   5   0.0100   0.0231   0.0425   0.0082  -0.0172  -0.0094   0.00    0.0
2021/10/11 02:08:12.000   28 35 34.11499  -17 55 01.60176    73.4303   6   5   0.0100   0.0231   0.0425   0.0082  -0.0172  -0.0094   0.00    0.0
2021/10/11 02:08:42.000   28 35 34.11499  -17 55 01.60174    73.4300   6   5   0.0099   0.0231   0.0424   0.0082  -0.0173  -0.0094   0.00    0.0
2021/10/11 02:09:12.000   28 35 34.11498  -17 55 01.60175    73.4283   6   5   0.0099   0.0230   0.0423   0.0082  -0.0174  -0.0095   0.00    0.0
2021/10/11 02:09:42.000   28 35 34.11498  -17 55 01.60183    73.4258   6   5   0.0097   0.0226   0.0419   0.0083  -0.0177  -0.0098   0.00    0.0
2021/10/11 02:10:12.000   28 35 34.11498  -17 55 01.60181    73.4259   6   5   0.0097   0.0225   0.0419   0.0083  -0.0178  -0.0099   0.00    0.0
2021/10/11 02:10:42.000   28 35 34.11499  -17 55 01.60180    73.4259   6   5   0.0097   0.0224   0.0418   0.0083  -0.0178  -0.0099   0.00    0.0
2021/10/11 02:11:12.000   28 35 34.11498  -17 55 01.60179    73.4254   6   5   0.0097   0.0224   0.0418   0.0083  -0.0178  -0.0099   0.00    0.0
2021/10/11 02:11:42.000   28 35 34.11498  -17 55 01.60178    73.4249   6   5   0.0097   0.0224   0.0418   0.0083  -0.0178  -0.0099   0.00    0.0
2021/10/11 02:12:12.000   28 35 34.11498  -17 55 01.60176    73.4243   6   5   0.0097   0.0224   0.0418   0.0083  -0.0178  -0.0099   0.00    0.0
2021/10/11 02:12:42.000   28 35 34.11498  -17 55 01.60176    73.4237   6   5   0.0097   0.0224   0.0418   0.0083  -0.0178  -0.0099   0.00    0.0
2021/10/11 02:13:12.000   28 35 34.11497  -17 55 01.60176    73.4228   6   5   0.0097   0.0224   0.0418   0.0083  -0.0179  -0.0099   0.00    0.0
2021/10/11 02:13:42.000   28 35 34.11496  -17 55 01.60177    73.4215   6   5   0.0096   0.0223   0.0417   0.0083  -0.0179  -0.0100   0.00    0.0
2021/10/11 02:14:12.000   28 35 34.11494  -17 55 01.60179    73.4188   6   5   0.0096   0.0222   0.0416   0.0083  -0.0180  -0.0100   0.00    0.0
2021/10/11 02:14:42.000   28 35 34.11493  -17 55 01.60181    73.4170   6   5   0.0095   0.0219   0.0412   0.0084  -0.0183  -0.0102   0.00    0.0
2021/10/11 02:15:12.000   28 35 34.11492  -17 55 01.60182    73.4155   6   5   0.0094   0.0218   0.0412   0.0084  -0.0183  -0.0103   0.00    0.0
2021/10/11 02:15:42.000   28 35 34.11492  -17 55 01.60182    73.4152   6   5   0.0094   0.0218   0.0411   0.0084  -0.0184  -0.0103   0.00    0.0
2021/10/11 02:16:12.000   28 35 34.11491  -17 55 01.60182    73.4150   6   5   0.0094   0.0218   0.0411   0.0084  -0.0184  -0.0103   0.00    0.0
2021/10/11 02:16:42.000   28 35 34.11491  -17 55 01.60181    73.4147   6   5   0.0094   0.0218   0.0411   0.0084  -0.0184  -0.0103   0.00    0.0
2021/10/11 02:17:12.000   28 35 34.11491  -17 55 01.60180    73.4145   6   5   0.0094   0.0218   0.0411   0.0084  -0.0184  -0.0103   0.00    0.0
2021/10/11 02:17:42.000   28 35 34.11491  -17 55 01.60178    73.4143   6   5   0.0094   0.0218   0.0411   0.0084  -0.0184  -0.0103   0.00    0.0
2021/10/11 02:18:12.000   28 35 34.11492  -17 55 01.60176    73.4146   6   5   0.0094   0.0218   0.0411   0.0084  -0.0184  -0.0103   0.00    0.0
2021/10/11 02:18:42.000   28 35 34.11492  -17 55 01.60175    73.4151   6   6   0.0094   0.0217   0.0410   0.0084  -0.0184  -0.0104   0.00    0.0
2021/10/11 02:19:12.000   28 35 34.11492  -17 55 01.60173    73.4146   6   6   0.0094   0.0217   0.0409   0.0084  -0.0185  -0.0104   0.00    0.0
2021/10/11 02:19:42.000   28 35 34.11492  -17 55 01.60173    73.4144   6   6   0.0092   0.0214   0.0405   0.0085  -0.0187  -0.0106   0.00    0.0
2021/10/11 02:20:12.000   28 35 34.11491  -17 55 01.60173    73.4132   6   6   0.0092   0.0214   0.0404   0.0085  -0.0188  -0.0106   0.00    0.0
2021/10/11 02:20:42.000   28 35 34.11491  -17 55 01.60172    73.4133   6   6   0.0092   0.0213   0.0404   0.0085  -0.0188  -0.0106   0.00    0.0
2021/10/11 02:21:12.000   28 35 34.11492  -17 55 01.60170    73.4134   6   6   0.0092   0.0213   0.0404   0.0085  -0.0188  -0.0106   0.00    0.0
2021/10/11 02:21:42.000   28 35 34.11492  -17 55 01.60169    73.4134   6   6   0.0092   0.0213   0.0404   0.0085  -0.0188  -0.0106   0.00    0.0
2021/10/11 02:22:12.000   28 35 34.11492  -17 55 01.60169    73.4135   6   6   0.0092   0.0213   0.0404   0.0085  -0.0188  -0.0106   0.00    0.0
2021/10/11 02:22:42.000   28 35 34.11492  -17 55 01.60169    73.4136   6   6   0.0092   0.0213   0.0404   0.0085  -0.0188  -0.0106   0.00    0.0
2021/10/11 02:23:12.000   28 35 34.11492  -17 55 01.60168    73.4140   6   6   0.0092   0.0213   0.0403   0.0085  -0.0188  -0.0106   0.00    0.0
2021/10/11 02:23:42.000   28 35 34.11493  -17 55 01.60167    73.4149   6   6   0.0092   0.0213   0.0403   0.0085  -0.0189  -0.0107   0.00    0.0
2021/10/11 02:24:12.000   28 35 34.11496  -17 55 01.60166    73.4161   6   6   0.0091   0.0212   0.0402   0.0085  -0.0189  -0.0107   0.00    0.0
2021/10/11 02:24:42.000   28 35 34.11496  -17 55 01.60169    73.4142   6   6   0.0090   0.0210   0.0398   0.0086  -0.0191  -0.0108   0.00    0.0
2021/10/11 02:25:12.000   28 35 34.11495  -17 55 01.60170    73.4124   6   6   0.0090   0.0210   0.0397   0.0086  -0.0192  -0.0108   0.00    0.0
2021/10/11 02:25:42.000   28 35 34.11495  -17 55 01.60170    73.4123   6   6   0.0090   0.0210   0.0396   0.0086  -0.0192  -0.0108   0.00    0.0
2021/10/11 02:26:12.000   28 35 34.11495  -17 55 01.60169    73.4124   6   6   0.0090   0.0209   0.0396   0.0086  -0.0192  -0.0108   0.00    0.0
2021/10/11 02:26:42.000   28 35 34.11495  -17 55 01.60169    73.4120   6   6   0.0090   0.0209   0.0396   0.0086  -0.0192  -0.0108   0.00    0.0
2021/10/11 02:27:12.000   28 35 34.11495  -17 55 01.60168    73.4117   6   6   0.0090   0.0209   0.0396   0.0086  -0.0192  -0.0108   0.00    0.0
2021/10/11 02:27:42.000   28 35 34.11494  -17 55 01.60168    73.4115   6   6   0.0090   0.0209   0.0396   0.0086  -0.0192  -0.0108   0.00    0.0
2021/10/11 02:28:12.000   28 35 34.11494  -17 55 01.60168    73.4107   6   7   0.0090   0.0209   0.0395   0.0086  -0.0192  -0.0109   0.00    0.0
2021/10/11 02:28:42.000   28 35 34.11493  -17 55 01.60169    73.4093   6   7   0.0090   0.0209   0.0395   0.0086  -0.0192  -0.0109   0.00    0.0
2021/10/11 02:29:12.000   28 35 34.11491  -17 55 01.60172    73.4064   6   7   0.0089   0.0209   0.0394   0.0086  -0.0193  -0.0109   0.00    0.0
2021/10/11 02:29:42.000   28 35 34.11490  -17 55 01.60175    73.4051   6   7   0.0088   0.0207   0.0389   0.0087  -0.0195  -0.0110   0.00    0.0
2021/10/11 02:30:12.000   28 35 34.11490  -17 55 01.60176    73.4032   6   7   0.0088   0.0207   0.0388   0.0087  -0.0195  -0.0110   0.00    0.0
2021/10/11 02:30:42.000   28 35 34.11489  -17 55 01.60176    73.4012   6   7   0.0088   0.0207   0.0388   0.0087  -0.0195  -0.0110   0.00    0.0
2021/10/11 02:31:12.000   28 35 34.11489  -17 55 01.60176    73.4004   6   7   0.0088   0.0207   0.0388   0.0087  -0.0195  -0.0110   0.00    0.0
2021/10/11 02:31:42.000   28 35 34.11489  -17 55 01.60175    73.4000   6   7   0.0088   0.0206   0.0388   0.0087  -0.0195  -0.0110   0.00    0.0
2021/10/11 02:32:12.000   28 35 34.11489  -17 55 01.60175    73.3997   6   7   0.0088   0.0206   0.0387   0.0087  -0.0195  -0.0110   0.00    0.0
2021/10/11 02:32:42.000   28 35 34.11490  -17 55 01.60175    73.3991   6   7   0.0088   0.0206   0.0387   0.0087  -0.0195  -0.0110   0.00    0.0
2021/10/11 02:33:12.000   28 35 34.11490  -17 55 01.60175    73.3981   6   7   0.0088   0.0206   0.0387   0.0087  -0.0195  -0.0110   0.00    0.0
2021/10/11 02:33:42.000   28 35 34.11490  -17 55 01.60175    73.3961   6   7   0.0088   0.0206   0.0387   0.0087  -0.0195  -0.0110   0.00    0.0
2021/10/11 02:34:12.000   28 35 34.11490  -17 55 01.60173    73.3963   6   7   0.0088   0.0206   0.0385   0.0087  -0.0196  -0.0110   0.00    0.0
2021/10/11 02:34:42.000   28 35 34.11487  -17 55 01.60171    73.3972   6   7   0.0087   0.0205   0.0381   0.0088  -0.0197  -0.0110   0.00    0.0
2021/10/11 02:35:12.000   28 35 34.11487  -17 55 01.60170    73.3972   6   7   0.0086   0.0205   0.0380   0.0088  -0.0197  -0.0110   0.00    0.0
2021/10/11 02:35:42.000   28 35 34.11488  -17 55 01.60169    73.3964   6   7   0.0086   0.0204   0.0379   0.0088  -0.0197  -0.0110   0.00    0.0
2021/10/11 02:36:12.000   28 35 34.11488  -17 55 01.60169    73.3961   6   7   0.0086   0.0204   0.0379   0.0088  -0.0197  -0.0110   0.00    0.0
2021/10/11 02:36:42.000   28 35 34.11488  -17 55 01.60169    73.3960   6   7   0.0086   0.0204   0.0379   0.0088  -0.0197  -0.0110   0.00    0.0
2021/10/11 02:37:12.000   28 35 34.11488  -17 55 01.60169    73.3958   6   7   0.0086   0.0204   0.0379   0.0088  -0.0197  -0.0110   0.00    0.0
2021/10/11 02:37:42.000   28 35 34.11488  -17 55 01.60168    73.3957   6   7   0.0086   0.0204   0.0379   0.0088  -0.0197  -0.0110   0.00    0.0
2021/10/11 02:38:12.000   28 35 34.11488  -17 55 01.60169    73.3950   6   7   0.0086   0.0204   0.0378   0.0088  -0.0197  -0.0110   0.00    0.0
2021/10/11 02:38:42.000   28 35 34.11487  -17 55 01.60169    73.3930   6   7   0.0086   0.0204   0.0378   0.0088  -0.0197  -0.0110   0.00    0.0
2021/10/11 02:39:12.000   28 35 34.11486  -17 55 01.60170    73.3906   6   7   0.0086   0.0204   0.0377   0.0088  -0.0198  -0.0110   0.00    0.0
2021/10/11 02:39:42.000   28 35 34.11484  -17 55 01.60168    73.3906   6   7   0.0085   0.0203   0.0373   0.0088  -0.0199  -0.0110   0.00    0.0
2021/10/11 02:40:12.000   28 35 34.11484  -17 55 01.60168    73.3907   6   7   0.0085   0.0203   0.0372   0.0089  -0.0199  -0.0110   0.00    0.0
2021/10/11 02:40:42.000   28 35 34.11483  -17 55 01.60169    73.3909   6   7   0.0085   0.0203   0.0371   0.0089  -0.0199  -0.0110   0.00    0.0
2021/10/11 02:41:12.000   28 35 34.11483  -17 55 01.60169    73.3912   6   7   0.0085   0.0203   0.0371   0.0089  -0.0199  -0.0110   0.00    0.0
2021/10/11 02:41:42.000   28 35 34.11483  -17 55 01.60169    73.3915   6   7   0.0085   0.0203   0.0371   0.0089  -0.0199  -0.0110   0.00    0.0
2021/10/11 02:42:12.000   28 35 34.11483  -17 55 01.60169    73.3917   6   7   0.0085   0.0203   0.0371   0.0089  -0.0199  -0.0110   0.00    0.0
2021/10/11 02:42:42.000   28 35 34.11483  -17 55 01.60168    73.3918   6   7   0.0085   0.0203   0.0371   0.0089  -0.0199  -0.0110   0.00    0.0
2021/10/11 02:43:12.000   28 35 34.11482  -17 55 01.60167    73.3923   6   8   0.0085   0.0203   0.0371   0.0089  -0.0199  -0.0110   0.00    0.0
2021/10/11 02:43:42.000   28 35 34.11482  -17 55 01.60166    73.3926   6   8   0.0084   0.0202   0.0370   0.0089  -0.0199  -0.0110   0.00    0.0
2021/10/11 02:44:12.000   28 35 34.11481  -17 55 01.60166    73.3930   6   8   0.0084   0.0202   0.0369   0.0089  -0.0199  -0.0110   0.00    0.0
2021/10/11 02:44:42.000   28 35 34.11480  -17 55 01.60167    73.3924   6   8   0.0083   0.0202   0.0365   0.0089  -0.0200  -0.0110   0.00    0.0
2021/10/11 02:45:12.000   28 35 34.11479  -17 55 01.60166    73.3948   6   8   0.0083   0.0202   0.0364   0.0089  -0.0200  -0.0110   0.00    0.0
2021/10/11 02:45:42.000   28 35 34.11478  -17 55 01.60166    73.3963   6   8   0.0083   0.0202   0.0364   0.0089  -0.0200  -0.0110   0.00    0.0
2021/10/11 02:46:12.000   28 35 34.11478  -17 55 01.60165    73.3968   6   8   0.0083   0.0202   0.0364   0.0089  -0.0200  -0.0110   0.00    0.0
2021/10/11 02:46:42.000   28 35 34.11478  -17 55 01.60165    73.3969   6   8   0.0083   0.0202   0.0364   0.0089  -0.0200  -0.0110   0.00    0.0
2021/10/11 02:47:12.000   28 35 34.11478  -17 55 01.60165    73.3965   6   8   0.0083   0.0201   0.0363   0.0089  -0.0200  -0.0110   0.00    0.0
2021/10/11 02:47:42.000   28 35 34.11478  -17 55 01.60164    73.3963   6   8   0.0083   0.0201   0.0363   0.0089  -0.0200  -0.0110   0.00    0.0
2021/10/11 02:48:12.000   28 35 34.11478  -17 55 01.60164    73.3962   6   8   0.0083   0.0201   0.0363   0.0089  -0.0200  -0.0110   0.00    0.0
2021/10/11 02:48:42.000   28 35 34.11478  -17 55 01.60163    73.3964   6   8   0.0083   0.0201   0.0363   0.0089  -0.0200  -0.0110   0.00    0.0
2021/10/11 02:49:12.000   28 35 34.11478  -17 55 01.60162    73.3971   6   8   0.0083   0.0201   0.0362   0.0089  -0.0200  -0.0110   0.00    0.0
2021/10/11 02:49:42.000   28 35 34.11479  -17 55 01.60163    73.3963   6   8   0.0082   0.0201   0.0358   0.0090  -0.0201  -0.0109   0.00    0.0
2021/10/11 02:50:12.000   28 35 34.11480  -17 55 01.60162    73.3967   6   8   0.0082   0.0201   0.0358   0.0090  -0.0201  -0.0109   0.00    0.0
2021/10/11 02:50:42.000   28 35 34.11480  -17 55 01.60162    73.3951   6   8   0.0082   0.0201   0.0357   0.0090  -0.0201  -0.0109   0.00    0.0
2021/10/11 02:51:12.000   28 35 34.11480  -17 55 01.60161    73.3941   6   8   0.0082   0.0201   0.0357   0.0090  -0.0201  -0.0109   0.00    0.0
2021/10/11 02:51:42.000   28 35 34.11480  -17 55 01.60161    73.3936   6   8   0.0082   0.0201   0.0357   0.0090  -0.0201  -0.0109   0.00    0.0
2021/10/11 02:52:12.000   28 35 34.11480  -17 55 01.60160    73.3933   6   8   0.0082   0.0201   0.0357   0.0090  -0.0201  -0.0109   0.00    0.0
2021/10/11 02:52:42.000   28 35 34.11480  -17 55 01.60159    73.3931   6   8   0.0082   0.0201   0.0357   0.0090  -0.0201  -0.0109   0.00    0.0
2021/10/11 02:53:12.000   28 35 34.11480  -17 55 01.60158    73.3926   6   8   0.0081   0.0201   0.0357   0.0090  -0.0201  -0.0109   0.00    0.0
2021/10/11 02:53:42.000   28 35 34.11481  -17 55 01.60157    73.3919   6   8   0.0081   0.0201   0.0356   0.0090  -0.0201  -0.0109   0.00    0.0
2021/10/11 02:54:12.000   28 35 34.11483  -17 55 01.60156    73.3918   6   8   0.0081   0.0200   0.0355   0.0090  -0.0201  -0.0109   0.00    0.0
2021/10/11 02:54:42.000   28 35 34.11486  -17 55 01.60156    73.3908   6   8   0.0080   0.0200   0.0352   0.0090  -0.0202  -0.0109   0.00    0.0
2021/10/11 02:55:12.000   28 35 34.11487  -17 55 01.60157    73.3892   6   8   0.0080   0.0200   0.0351   0.0090  -0.0202  -0.0109   0.00    0.0
2021/10/11 02:55:42.000   28 35 34.11487  -17 55 01.60157    73.3879   6   8   0.0080   0.0200   0.0351   0.0090  -0.0202  -0.0109   0.00    0.0
2021/10/11 02:56:12.000   28 35 34.11487  -17 55 01.60156    73.3877   6   8   0.0080   0.0200   0.0351   0.0090  -0.0202  -0.0108   0.00    0.0
2021/10/11 02:56:42.000   28 35 34.11487  -17 55 01.60156    73.3878   6   8   0.0080   0.0200   0.0351   0.0090  -0.0202  -0.0108   0.00    0.0
2021/10/11 02:57:12.000   28 35 34.11487  -17 55 01.60156    73.3875   6   8   0.0080   0.0200   0.0351   0.0090  -0.0202  -0.0108   0.00    0.0
2021/10/11 02:57:42.000   28 35 34.11487  -17 55 01.60155    73.3871   6   8   0.0080   0.0200   0.0351   0.0090  -0.0202  -0.0108   0.00    0.0
2021/10/11 02:58:12.000   28 35 34.11487  -17 55 01.60155    73.3866   6   8   0.0080   0.0200   0.0350   0.0090  -0.0202  -0.0108   0.00    0.0
2021/10/11 02:58:42.000   28 35 34.11488  -17 55 01.60154    73.3859   6   8   0.0080   0.0200   0.0350   0.0090  -0.0202  -0.0108   0.00    0.0
2021/10/11 02:59:12.000   28 35 34.11488  -17 55 01.60155    73.3847   6   8   0.0080   0.0200   0.0349   0.0090  -0.0202  -0.0108   0.00    0.0
2021/10/11 02:59:42.000   28 35 34.11493  -17 55 01.60155    73.3824   6   8   0.0079   0.0200   0.0347   0.0090  -0.0202  -0.0108   0.00    0.0
2021/10/11 03:00:12.000   28 35 34.11494  -17 55 01.60155    73.3812   6   8   0.0079   0.0200   0.0346   0.0090  -0.0202  -0.0108   0.00    0.0
2021/10/11 03:00:42.000   28 35 34.11494  -17 55 01.60155    73.3808   6   8   0.0079   0.0200   0.0346   0.0090  -0.0202  -0.0107   0.00    0.0
2021/10/11 03:01:12.000   28 35 34.11495  -17 55 01.60155    73.3808   6   8   0.0079   0.0199   0.0346   0.0090  -0.0202  -0.0107   0.00    0.0
2021/10/11 03:01:42.000   28 35 34.11495  -17 55 01.60155    73.3806   6   8   0.0079   0.0199   0.0345   0.0090  -0.0202  -0.0107   0.00    0.0
2021/10/11 03:02:12.000   28 35 34.11495  -17 55 01.60154    73.3805   6   8   0.0079   0.0199   0.0345   0.0090  -0.0202  -0.0107   0.00    0.0
2021/10/11 03:02:42.000   28 35 34.11494  -17 55 01.60154    73.3803   6   8   0.0079   0.0199   0.0345   0.0090  -0.0202  -0.0107   0.00    0.0
2021/10/11 03:03:12.000   28 35 34.11494  -17 55 01.60155    73.3800   6   8   0.0079   0.0199   0.0345   0.0090  -0.0202  -0.0107   0.00    0.0
2021/10/11 03:03:42.000   28 35 34.11494  -17 55 01.60155    73.3797   6   8   0.0079   0.0199   0.0345   0.0090  -0.0202  -0.0107   0.00    0.0
2021/10/11 03:04:12.000   28 35 34.11495  -17 55 01.60155    73.3796   6   8   0.0078   0.0199   0.0344   0.0090  -0.0202  -0.0107   0.00    0.0
2021/10/11 03:04:42.000   28 35 34.11497  -17 55 01.60154    73.3794   6   8   0.0078   0.0199   0.0342   0.0090  -0.0202  -0.0107   0.00    0.0
2021/10/11 03:05:12.000   28 35 34.11496  -17 55 01.60154    73.3790   6   8   0.0077   0.0199   0.0341   0.0090  -0.0202  -0.0106   0.00    0.0
2021/10/11 03:05:42.000   28 35 34.11496  -17 55 01.60154    73.3786   6   8   0.0077   0.0199   0.0341   0.0090  -0.0202  -0.0106   0.00    0.0
2021/10/11 03:06:12.000   28 35 34.11496  -17 55 01.60155    73.3784   6   8   0.0077   0.0199   0.0341   0.0090  -0.0202  -0.0106   0.00    0.0
2021/10/11 03:06:42.000   28 35 34.11496  -17 55 01.60154    73.3782   6   8   0.0077   0.0199   0.0341   0.0090  -0.0202  -0.0106   0.00    0.0
2021/10/11 03:07:12.000   28 35 34.11496  -17 55 01.60154    73.3778   6   8   0.0077   0.0199   0.0340   0.0090  -0.0202  -0.0106   0.00    0.0
2021/10/11 03:07:42.000   28 35 34.11496  -17 55 01.60154    73.3777   6   8   0.0077   0.0199   0.0340   0.0090  -0.0202  -0.0106   0.00    0.0
2021/10/11 03:08:12.000   28 35 34.11496  -17 55 01.60153    73.3775   6   8   0.0077   0.0199   0.0340   0.0090  -0.0202  -0.0106   0.00    0.0
2021/10/11 03:08:42.000   28 35 34.11497  -17 55 01.60153    73.3775   6   8   0.0077   0.0199   0.0340   0.0090  -0.0202  -0.0106   0.00    0.0
2021/10/11 03:09:12.000   28 35 34.11499  -17 55 01.60152    73.3747   6   8   0.0077   0.0199   0.0339   0.0090  -0.0202  -0.0106   0.00    0.0
2021/10/11 03:09:42.000   28 35 34.11500  -17 55 01.60151    73.3743   6   8   0.0076   0.0198   0.0337   0.0090  -0.0202  -0.0105   0.00    0.0
2021/10/11 03:10:12.000   28 35 34.11501  -17 55 01.60150    73.3740   6   8   0.0076   0.0198   0.0337   0.0090  -0.0202  -0.0105   0.00    0.0
2021/10/11 03:10:42.000   28 35 34.11501  -17 55 01.60150    73.3741   6   8   0.0076   0.0198   0.0336   0.0090  -0.0202  -0.0105   0.00    0.0
2021/10/11 03:11:12.000   28 35 34.11502  -17 55 01.60149    73.3737   6   8   0.0076   0.0198   0.0336   0.0090  -0.0202  -0.0105   0.00    0.0
2021/10/11 03:11:42.000   28 35 34.11502  -17 55 01.60149    73.3734   6   8   0.0076   0.0198   0.0336   0.0090  -0.0202  -0.0105   0.00    0.0
2021/10/11 03:12:12.000   28 35 34.11502  -17 55 01.60147    73.3729   6   8   0.0076   0.0198   0.0336   0.0090  -0.0202  -0.0105   0.00    0.0
2021/10/11 03:12:42.000   28 35 34.11502  -17 55 01.60147    73.3725   6   8   0.0076   0.0198   0.0336   0.0090  -0.0202  -0.0105   0.00    0.0
2021/10/11 03:13:12.000   28 35 34.11502  -17 55 01.60146    73.3723   6   8   0.0076   0.0198   0.0336   0.0090  -0.0202  -0.0105   0.00    0.0
2021/10/11 03:13:42.000   28 35 34.11503  -17 55 01.60146    73.3725   6   8   0.0076   0.0198   0.0336   0.0089  -0.0202  -0.0105   0.00    0.0
2021/10/11 03:14:12.000   28 35 34.11503  -17 55 01.60146    73.3719   6   8   0.0076   0.0198   0.0335   0.0089  -0.0202  -0.0105   0.00    0.0
2021/10/11 03:14:42.000   28 35 34.11504  -17 55 01.60147    73.3713   6   8   0.0075   0.0198   0.0333   0.0089  -0.0202  -0.0104   0.00    0.0
2021/10/11 03:15:12.000   28 35 34.11504  -17 55 01.60147    73.3711   6   8   0.0075   0.0198   0.0332   0.0089  -0.0202  -0.0104   0.00    0.0
2021/10/11 03:15:42.000   28 35 34.11504  -17 55 01.60147    73.3711   6   8   0.0075   0.0198   0.0332   0.0089  -0.0202  -0.0104   0.00    0.0
2021/10/11 03:16:12.000   28 35 34.11505  -17 55 01.60146    73.3710   6   8   0.0075   0.0198   0.0332   0.0089  -0.0202  -0.0104   0.00    0.0
2021/10/11 03:16:42.000   28 35 34.11505  -17 55 01.60146    73.3709   6   8   0.0075   0.0198   0.0332   0.0089  -0.0202  -0.0104   0.00    0.0
2021/10/11 03:17:12.000   28 35 34.11505  -17 55 01.60145    73.3707   6   8   0.0075   0.0197   0.0332   0.0089  -0.0202  -0.0104   0.00    0.0
2021/10/11 03:17:42.000   28 35 34.11505  -17 55 01.60145    73.3707   6   8   0.0075   0.0197   0.0332   0.0089  -0.0202  -0.0104   0.00    0.0
2021/10/11 03:18:12.000   28 35 34.11505  -17 55 01.60145    73.3706   6   8   0.0075   0.0197   0.0332   0.0089  -0.0202  -0.0103   0.00    0.0
2021/10/11 03:18:42.000   28 35 34.11505  -17 55 01.60145    73.3712   6   8   0.0075   0.0197   0.0331   0.0089  -0.0202  -0.0103   0.00    0.0
2021/10/11 03:19:12.000   28 35 34.11506  -17 55 01.60145    73.3716   6   8   0.0074   0.0197   0.0331   0.0089  -0.0202  -0.0103   0.00    0.0
2021/10/11 03:19:42.000   28 35 34.11508  -17 55 01.60145    73.3710   6   8   0.0074   0.0197   0.0329   0.0089  -0.0202  -0.0102   0.00    0.0
2021/10/11 03:20:12.000   28 35 34.11509  -17 55 01.60144    73.3697   6   9   0.0073   0.0197   0.0328   0.0088  -0.0201  -0.0102   0.00    0.0
2021/10/11 03:20:42.000   28 35 34.11509  -17 55 01.60144    73.3694   6   9   0.0073   0.0197   0.0328   0.0088  -0.0201  -0.0102   0.00    0.0
2021/10/11 03:21:12.000   28 35 34.11510  -17 55 01.60144    73.3693   6   9   0.0073   0.0197   0.0328   0.0088  -0.0201  -0.0102   0.00    0.0
2021/10/11 03:21:42.000   28 35 34.11510  -17 55 01.60144    73.3692   6   9   0.0073   0.0197   0.0328   0.0088  -0.0201  -0.0102   0.00    0.0
2021/10/11 03:22:12.000   28 35 34.11510  -17 55 01.60143    73.3688   6   9   0.0073   0.0196   0.0328   0.0088  -0.0201  -0.0102   0.00    0.0
2021/10/11 03:22:42.000   28 35 34.11510  -17 55 01.60142    73.3684   6   9   0.0073   0.0196   0.0328   0.0088  -0.0201  -0.0102   0.00    0.0
2021/10/11 03:23:12.000   28 35 34.11511  -17 55 01.60141    73.3675   6   9   0.0073   0.0196   0.0327   0.0088  -0.0201  -0.0102   0.00    0.0
