% program   : RTKLIB ver.2.4.2
% inp file  : C:\IPNA\data\OBS\CVBB2810.o
% inp file  : C:\IPNA\data\NAV\CVBB2810.n
% inp file  : C:\IPNA\data\SP3\CVBB2810.sp3
% inp file  : C:\IPNA\data\CLOCK\CVBB2810.clk
% obs start : 2021/10/07 23:59:42.0 UTC (week2178 432000.0s)
% obs end   : 2021/10/08 23:59:12.0 UTC (week2178 518370.0s)
% pos mode  : ppp-static
% solution  : forward
% elev mask : 15.0 deg
% dynamics  : off
% tidecorr  : on
% tropo opt : est ztd
% ephemeris : precise
% antenna1  :                       ( 0.0000  0.0000  0.0000)
%
% (lat/lon/height=WGS84/ellipsoidal,Q=1:fix,2:float,3:sbas,4:dgps,5:single,6:ppp,ns=# of satellites)
%  UTC                     latitude(d'")   longitude(d'")  height(m)   Q  ns   sdn(m)   sde(m)   sdu(m)  sdne(m)  sdeu(m)  sdue(m) age(s)  ratio
2021/10/07 23:59:42.000   28 35 34.04730  -17 55 01.59247    78.1932   6   6   1.5971   1.4404   4.7361  -0.5443   0.5902  -1.7345   0.00    0.0
2021/10/08 00:00:12.000   28 35 34.06205  -17 55 01.60422    77.3715   6   6   1.1095   1.0170   3.1489  -0.3728   0.3747  -1.1617   0.00    0.0
2021/10/08 00:00:42.000   28 35 34.07075  -17 55 01.61066    76.5841   6   6   0.8981   0.8298   2.4986  -0.2995   0.2931  -0.9258   0.00    0.0
2021/10/08 00:01:12.000   28 35 34.07685  -17 55 01.61505    76.0839   6   6   0.7737   0.7183   2.1294  -0.2566   0.2491  -0.7912   0.00    0.0
2021/10/08 00:01:42.000   28 35 34.08048  -17 55 01.61395    75.6622   6   6   0.6896   0.6424   1.8861  -0.2278   0.2214  -0.7020   0.00    0.0
2021/10/08 00:02:12.000   28 35 34.08587  -17 55 01.61274    75.1901   6   6   0.6280   0.5865   1.7114  -0.2067   0.2022  -0.6377   0.00    0.0
2021/10/08 00:02:42.000   28 35 34.08755  -17 55 01.61389    74.9328   6   6   0.5751   0.5425   1.5330  -0.1873   0.1749  -0.5726   0.00    0.0
2021/10/08 00:03:12.000   28 35 34.08905  -17 55 01.61833    74.6660   6   6   0.5245   0.5063   1.3317  -0.1668   0.1322  -0.4988   0.00    0.0
2021/10/08 00:03:42.000   28 35 34.08825  -17 55 01.61820    74.6227   6   6   0.4687   0.4750   1.0910  -0.1414   0.0343  -0.4076   0.00    0.0
2021/10/08 00:04:12.000   28 35 34.09217  -17 55 01.61743    74.2775   6   6   0.3954   0.4461   0.8129  -0.1046  -0.1313  -0.2900   0.00    0.0
2021/10/08 00:04:42.000   28 35 34.10021  -17 55 01.61928    73.8863   6   6   0.3146   0.4185   0.5950  -0.0626  -0.1743  -0.1735   0.00    0.0
2021/10/08 00:05:12.000   28 35 34.10155  -17 55 01.62056    73.8618   6   6   0.2966   0.3999   0.5652  -0.0567  -0.1697  -0.1582   0.00    0.0
2021/10/08 00:05:42.000   28 35 34.10223  -17 55 01.62016    73.8202   6   6   0.2868   0.3844   0.5529  -0.0556  -0.1634  -0.1526   0.00    0.0
2021/10/08 00:06:12.000   28 35 34.10223  -17 55 01.61985    73.8190   6   6   0.2794   0.3708   0.5451  -0.0554  -0.1573  -0.1494   0.00    0.0
2021/10/08 00:06:42.000   28 35 34.10287  -17 55 01.62010    73.8078   6   6   0.2732   0.3587   0.5390  -0.0554  -0.1516  -0.1471   0.00    0.0
2021/10/08 00:07:12.000   28 35 34.10259  -17 55 01.61961    73.8073   6   6   0.2676   0.3477   0.5340  -0.0554  -0.1462  -0.1454   0.00    0.0
2021/10/08 00:07:42.000   28 35 34.10222  -17 55 01.61909    73.7805   6   6   0.2613   0.3376   0.5266  -0.0546  -0.1418  -0.1422   0.00    0.0
2021/10/08 00:08:12.000   28 35 34.10233  -17 55 01.61910    73.7347   6   6   0.2534   0.3280   0.5145  -0.0525  -0.1389  -0.1358   0.00    0.0
2021/10/08 00:08:42.000   28 35 34.10358  -17 55 01.61791    73.6449   6   6   0.2414   0.3187   0.4932  -0.0486  -0.1400  -0.1205   0.00    0.0
2021/10/08 00:09:12.000   28 35 34.10676  -17 55 01.61737    73.4574   6   6   0.2183   0.3086   0.4471  -0.0402  -0.1474  -0.0803   0.00    0.0
2021/10/08 00:09:42.000   28 35 34.10777  -17 55 01.61530    73.3777   6   6   0.1813   0.2966   0.3780  -0.0319  -0.1580   0.0597   0.00    0.0
2021/10/08 00:10:12.000   28 35 34.10908  -17 55 01.61502    73.3619   6   6   0.1734   0.2890   0.3669  -0.0308  -0.1566   0.0670   0.00    0.0
2021/10/08 00:10:42.000   28 35 34.11032  -17 55 01.61446    73.2868   6   6   0.1699   0.2827   0.3628  -0.0306  -0.1540   0.0684   0.00    0.0
2021/10/08 00:11:12.000   28 35 34.11091  -17 55 01.61482    73.2737   6   6   0.1676   0.2770   0.3602  -0.0306  -0.1512   0.0685   0.00    0.0
2021/10/08 00:11:42.000   28 35 34.11129  -17 55 01.61503    73.2800   6   6   0.1657   0.2717   0.3583  -0.0306  -0.1485   0.0682   0.00    0.0
2021/10/08 00:12:12.000   28 35 34.11149  -17 55 01.61515    73.2878   6   6   0.1641   0.2668   0.3568  -0.0306  -0.1459   0.0676   0.00    0.0
2021/10/08 00:12:42.000   28 35 34.11172  -17 55 01.61624    73.2996   6   6   0.1622   0.2620   0.3547  -0.0305  -0.1435   0.0676   0.00    0.0
2021/10/08 00:13:12.000   28 35 34.11180  -17 55 01.61544    73.2887   6   6   0.1595   0.2574   0.3513  -0.0302  -0.1416   0.0688   0.00    0.0
2021/10/08 00:13:42.000   28 35 34.11207  -17 55 01.61480    73.2653   6   6   0.1550   0.2525   0.3451  -0.0297  -0.1404   0.0724   0.00    0.0
2021/10/08 00:14:12.000   28 35 34.11261  -17 55 01.61367    73.2399   6   6   0.1452   0.2468   0.3306  -0.0297  -0.1414   0.0821   0.00    0.0
2021/10/08 00:14:42.000   28 35 34.11279  -17 55 01.61212    73.2306   6   6   0.1264   0.2390   0.3034  -0.0341  -0.1457   0.0974   0.00    0.0
2021/10/08 00:15:12.000   28 35 34.11280  -17 55 01.61241    73.2240   6   6   0.1222   0.2344   0.2982  -0.0347  -0.1452   0.0987   0.00    0.0
2021/10/08 00:15:42.000   28 35 34.11281  -17 55 01.61381    73.2363   6   6   0.1205   0.2309   0.2961  -0.0346  -0.1437   0.0988   0.00    0.0
2021/10/08 00:16:12.000   28 35 34.11308  -17 55 01.61486    73.2424   6   6   0.1194   0.2277   0.2948  -0.0344  -0.1421   0.0985   0.00    0.0
2021/10/08 00:16:42.000   28 35 34.11321  -17 55 01.61535    73.2438   6   6   0.1186   0.2247   0.2938  -0.0342  -0.1405   0.0982   0.00    0.0
2021/10/08 00:17:12.000   28 35 34.11322  -17 55 01.61498    73.2385   6   6   0.1179   0.2218   0.2929  -0.0339  -0.1388   0.0978   0.00    0.0
2021/10/08 00:17:42.000   28 35 34.11306  -17 55 01.61500    73.2338   6   6   0.1171   0.2190   0.2918  -0.0337  -0.1374   0.0976   0.00    0.0
2021/10/08 00:18:12.000   28 35 34.11308  -17 55 01.61415    73.2109   6   6   0.1158   0.2162   0.2902  -0.0336  -0.1361   0.0975   0.00    0.0
2021/10/08 00:18:42.000   28 35 34.11301  -17 55 01.61398    73.2069   6   6   0.1137   0.2132   0.2876  -0.0339  -0.1354   0.0981   0.00    0.0
2021/10/08 00:19:12.000   28 35 34.11351  -17 55 01.61409    73.2006   6   6   0.1089   0.2093   0.2813  -0.0358  -0.1362   0.1004   0.00    0.0
2021/10/08 00:19:42.000   28 35 34.11349  -17 55 01.61388    73.2149   6   6   0.0983   0.2034   0.2679  -0.0414  -0.1396   0.1057   0.00    0.0
2021/10/08 00:20:12.000   28 35 34.11303  -17 55 01.61340    73.2179   6   6   0.0960   0.2004   0.2648  -0.0423  -0.1395   0.1058   0.00    0.0
2021/10/08 00:20:42.000   28 35 34.11302  -17 55 01.61280    73.2056   6   6   0.0951   0.1981   0.2634  -0.0423  -0.1386   0.1056   0.00    0.0
2021/10/08 00:21:12.000   28 35 34.11295  -17 55 01.61248    73.1942   6   6   0.0945   0.1960   0.2625  -0.0421  -0.1375   0.1053   0.00    0.0
2021/10/08 00:21:42.000   28 35 34.11287  -17 55 01.61215    73.1831   6   6   0.0940   0.1940   0.2616  -0.0418  -0.1363   0.1050   0.00    0.0
2021/10/08 00:22:12.000   28 35 34.11287  -17 55 01.61200    73.1816   6   6   0.0937   0.1922   0.2609  -0.0415  -0.1351   0.1047   0.00    0.0
2021/10/08 00:22:42.000   28 35 34.11280  -17 55 01.61232    73.1832   6   6   0.0932   0.1904   0.2601  -0.0412  -0.1340   0.1044   0.00    0.0
2021/10/08 00:23:12.000   28 35 34.11252  -17 55 01.61268    73.1825   6   6   0.0926   0.1885   0.2591  -0.0411  -0.1331   0.1042   0.00    0.0
2021/10/08 00:23:42.000   28 35 34.11218  -17 55 01.61251    73.1879   6   6   0.0915   0.1863   0.2574  -0.0414  -0.1326   0.1042   0.00    0.0
2021/10/08 00:24:12.000   28 35 34.11159  -17 55 01.61204    73.1995   6   6   0.0889   0.1835   0.2539  -0.0430  -0.1331   0.1048   0.00    0.0
2021/10/08 00:24:42.000   28 35 34.11140  -17 55 01.61138    73.1992   6   6   0.0829   0.1788   0.2464  -0.0475  -0.1356   0.1069   0.00    0.0
2021/10/08 00:25:12.000   28 35 34.11111  -17 55 01.61115    73.2053   6   6   0.0814   0.1765   0.2442  -0.0483  -0.1356   0.1067   0.00    0.0
2021/10/08 00:25:42.000   28 35 34.11110  -17 55 01.61076    73.1943   6   6   0.0809   0.1749   0.2431  -0.0482  -0.1349   0.1064   0.00    0.0
2021/10/08 00:26:12.000   28 35 34.11103  -17 55 01.61076    73.1953   6   6   0.0805   0.1734   0.2423  -0.0480  -0.1340   0.1061   0.00    0.0
2021/10/08 00:26:42.000   28 35 34.11092  -17 55 01.61092    73.1959   6   6   0.0802   0.1721   0.2415  -0.0477  -0.1330   0.1058   0.00    0.0
2021/10/08 00:27:12.000   28 35 34.11081  -17 55 01.61086    73.1924   6   6   0.0800   0.1708   0.2409  -0.0473  -0.1321   0.1056   0.00    0.0
2021/10/08 00:27:42.000   28 35 34.11069  -17 55 01.61093    73.1924   6   6   0.0797   0.1694   0.2402  -0.0470  -0.1312   0.1053   0.00    0.0
2021/10/08 00:28:12.000   28 35 34.11060  -17 55 01.61060    73.1913   6   6   0.0793   0.1680   0.2393  -0.0468  -0.1304   0.1050   0.00    0.0
2021/10/08 00:28:42.000   28 35 34.11049  -17 55 01.61047    73.2025   6   6   0.0786   0.1664   0.2381  -0.0469  -0.1298   0.1049   0.00    0.0
2021/10/08 00:29:12.000   28 35 34.11041  -17 55 01.60989    73.2035   6   6   0.0771   0.1641   0.2357  -0.0479  -0.1299   0.1049   0.00    0.0
2021/10/08 00:29:42.000   28 35 34.11049  -17 55 01.60896    73.2095   6   6   0.0734   0.1598   0.2306  -0.0509  -0.1310   0.1055   0.00    0.0
2021/10/08 00:30:12.000   28 35 34.11049  -17 55 01.60861    73.2061   6   6   0.0724   0.1579   0.2288  -0.0513  -0.1307   0.1052   0.00    0.0
2021/10/08 00:30:42.000   28 35 34.11046  -17 55 01.60843    73.2072   6   6   0.0720   0.1566   0.2278  -0.0511  -0.1301   0.1049   0.00    0.0
2021/10/08 00:31:12.000   28 35 34.11040  -17 55 01.60794    73.2000   6   6   0.0718   0.1555   0.2271  -0.0509  -0.1293   0.1046   0.00    0.0
2021/10/08 00:31:42.000   28 35 34.11037  -17 55 01.60779    73.1988   6   6   0.0716   0.1545   0.2264  -0.0506  -0.1285   0.1043   0.00    0.0
2021/10/08 00:32:12.000   28 35 34.11033  -17 55 01.60800    73.1985   6   6   0.0714   0.1536   0.2258  -0.0502  -0.1277   0.1041   0.00    0.0
2021/10/08 00:32:42.000   28 35 34.11030  -17 55 01.60799    73.1949   6   6   0.0712   0.1526   0.2251  -0.0499  -0.1269   0.1038   0.00    0.0
2021/10/08 00:33:12.000   28 35 34.11029  -17 55 01.60755    73.1816   6   6   0.0709   0.1515   0.2243  -0.0497  -0.1261   0.1035   0.00    0.0
2021/10/08 00:33:42.000   28 35 34.11044  -17 55 01.60739    73.1621   6   6   0.0704   0.1502   0.2231  -0.0496  -0.1254   0.1032   0.00    0.0
2021/10/08 00:34:12.000   28 35 34.11084  -17 55 01.60725    73.1513   6   6   0.0693   0.1480   0.2207  -0.0499  -0.1247   0.1027   0.00    0.0
2021/10/08 00:34:42.000   28 35 34.11089  -17 55 01.60661    73.1914   6   6   0.0665   0.1433   0.2157  -0.0510  -0.1237   0.1020   0.00    0.0
2021/10/08 00:35:12.000   28 35 34.11101  -17 55 01.60641    73.2062   6   6   0.0657   0.1415   0.2137  -0.0510  -0.1229   0.1014   0.00    0.0
2021/10/08 00:35:42.000   28 35 34.11111  -17 55 01.60640    73.2110   6   6   0.0654   0.1404   0.2126  -0.0507  -0.1221   0.1010   0.00    0.0
2021/10/08 00:36:12.000   28 35 34.11111  -17 55 01.60634    73.2104   6   6   0.0652   0.1396   0.2119  -0.0504  -0.1214   0.1007   0.00    0.0
2021/10/08 00:36:42.000   28 35 34.11108  -17 55 01.60602    73.2040   6   6   0.0650   0.1388   0.2112  -0.0501  -0.1207   0.1004   0.00    0.0
2021/10/08 00:37:12.000   28 35 34.11111  -17 55 01.60618    73.2074   6   6   0.0649   0.1381   0.2106  -0.0498  -0.1200   0.1002   0.00    0.0
2021/10/08 00:37:42.000   28 35 34.11114  -17 55 01.60629    73.2094   6   6   0.0647   0.1373   0.2100  -0.0495  -0.1193   0.0999   0.00    0.0
2021/10/08 00:38:12.000   28 35 34.11123  -17 55 01.60642    73.2169   6   6   0.0644   0.1364   0.2091  -0.0492  -0.1185   0.0995   0.00    0.0
2021/10/08 00:38:42.000   28 35 34.11135  -17 55 01.60659    73.2254   6   6   0.0640   0.1352   0.2077  -0.0488  -0.1175   0.0990   0.00    0.0
2021/10/08 00:39:12.000   28 35 34.11154  -17 55 01.60653    73.2335   6   6   0.0630   0.1328   0.2045  -0.0484  -0.1158   0.0979   0.00    0.0
2021/10/08 00:39:42.000   28 35 34.11189  -17 55 01.60630    73.2616   6   6   0.0601   0.1274   0.1974  -0.0474  -0.1119   0.0952   0.00    0.0
2021/10/08 00:40:12.000   28 35 34.11191  -17 55 01.60636    73.2669   6   6   0.0593   0.1256   0.1948  -0.0468  -0.1103   0.0942   0.00    0.0
2021/10/08 00:40:42.000   28 35 34.11190  -17 55 01.60629    73.2683   6   6   0.0590   0.1246   0.1935  -0.0465  -0.1094   0.0937   0.00    0.0
2021/10/08 00:41:12.000   28 35 34.11191  -17 55 01.60618    73.2685   6   6   0.0588   0.1239   0.1927  -0.0462  -0.1087   0.0933   0.00    0.0
2021/10/08 00:41:42.000   28 35 34.11187  -17 55 01.60623    73.2667   6   6   0.0587   0.1233   0.1921  -0.0459  -0.1081   0.0930   0.00    0.0
2021/10/08 00:42:12.000   28 35 34.11189  -17 55 01.60629    73.2695   6   6   0.0585   0.1227   0.1916  -0.0456  -0.1075   0.0928   0.00    0.0
2021/10/08 00:42:42.000   28 35 34.11190  -17 55 01.60634    73.2713   6   6   0.0584   0.1221   0.1909  -0.0453  -0.1068   0.0925   0.00    0.0
2021/10/08 00:43:12.000   28 35 34.11193  -17 55 01.60628    73.2746   6   6   0.0581   0.1213   0.1899  -0.0449  -0.1060   0.0921   0.00    0.0
2021/10/08 00:43:42.000   28 35 34.11204  -17 55 01.60629    73.2783   6   6   0.0577   0.1202   0.1882  -0.0444  -0.1048   0.0913   0.00    0.0
2021/10/08 00:44:12.000   28 35 34.11230  -17 55 01.60610    73.2799   6   6   0.0565   0.1177   0.1840  -0.0432  -0.1020   0.0895   0.00    0.0
2021/10/08 00:44:42.000   28 35 34.11261  -17 55 01.60555    73.2835   6   6   0.0532   0.1117   0.1742  -0.0404  -0.0956   0.0849   0.00    0.0
2021/10/08 00:45:12.000   28 35 34.11269  -17 55 01.60541    73.2881   6   6   0.0524   0.1100   0.1711  -0.0395  -0.0936   0.0835   0.00    0.0
2021/10/08 00:45:42.000   28 35 34.11272  -17 55 01.60521    73.2896   6   6   0.0520   0.1092   0.1698  -0.0391  -0.0927   0.0829   0.00    0.0
2021/10/08 00:46:12.000   28 35 34.11273  -17 55 01.60515    73.2914   6   7   0.0518   0.1086   0.1689  -0.0387  -0.0920   0.0825   0.00    0.0
2021/10/08 00:46:42.000   28 35 34.11273  -17 55 01.60517    73.2933   6   7   0.0517   0.1081   0.1683  -0.0384  -0.0914   0.0822   0.00    0.0
2021/10/08 00:47:12.000   28 35 34.11269  -17 55 01.60513    73.2897   6   7   0.0515   0.1076   0.1677  -0.0381  -0.0908   0.0819   0.00    0.0
2021/10/08 00:47:42.000   28 35 34.11268  -17 55 01.60508    73.2898   6   7   0.0514   0.1071   0.1670  -0.0378  -0.0902   0.0815   0.00    0.0
2021/10/08 00:48:12.000   28 35 34.11271  -17 55 01.60497    73.2897   6   7   0.0511   0.1064   0.1659  -0.0373  -0.0893   0.0810   0.00    0.0
2021/10/08 00:48:42.000   28 35 34.11289  -17 55 01.60507    73.2991   6   7   0.0506   0.1054   0.1639  -0.0366  -0.0880   0.0801   0.00    0.0
2021/10/08 00:49:12.000   28 35 34.11320  -17 55 01.60508    73.3086   6   7   0.0493   0.1032   0.1593  -0.0351  -0.0850   0.0778   0.00    0.0
2021/10/08 00:49:42.000   28 35 34.11355  -17 55 01.60482    73.3165   6   7   0.0459   0.0977   0.1490  -0.0319  -0.0784   0.0725   0.00    0.0
2021/10/08 00:50:12.000   28 35 34.11361  -17 55 01.60466    73.3018   6   7   0.0450   0.0961   0.1455  -0.0308  -0.0763   0.0709   0.00    0.0
2021/10/08 00:50:42.000   28 35 34.11363  -17 55 01.60457    73.2977   6   7   0.0446   0.0953   0.1441  -0.0303  -0.0753   0.0702   0.00    0.0
2021/10/08 00:51:12.000   28 35 34.11361  -17 55 01.60445    73.2933   6   7   0.0444   0.0949   0.1432  -0.0299  -0.0747   0.0698   0.00    0.0
2021/10/08 00:51:42.000   28 35 34.11358  -17 55 01.60431    73.2900   6   7   0.0443   0.0945   0.1426  -0.0297  -0.0741   0.0695   0.00    0.0
2021/10/08 00:52:12.000   28 35 34.11354  -17 55 01.60419    73.2864   6   7   0.0442   0.0941   0.1421  -0.0294  -0.0737   0.0692   0.00    0.0
2021/10/08 00:52:42.000   28 35 34.11350  -17 55 01.60420    73.2846   6   7   0.0440   0.0937   0.1414  -0.0291  -0.0731   0.0689   0.00    0.0
2021/10/08 00:53:12.000   28 35 34.11341  -17 55 01.60410    73.2778   6   7   0.0437   0.0932   0.1402  -0.0287  -0.0723   0.0683   0.00    0.0
2021/10/08 00:53:42.000   28 35 34.11337  -17 55 01.60414    73.2771   6   7   0.0432   0.0923   0.1378  -0.0279  -0.0709   0.0671   0.00    0.0
2021/10/08 00:54:12.000   28 35 34.11356  -17 55 01.60426    73.2957   6   7   0.0418   0.0903   0.1325  -0.0261  -0.0677   0.0644   0.00    0.0
2021/10/08 00:54:42.000   28 35 34.11393  -17 55 01.60384    73.3089   6   7   0.0385   0.0852   0.1222  -0.0227  -0.0612   0.0590   0.00    0.0
2021/10/08 00:55:12.000   28 35 34.11396  -17 55 01.60376    73.3097   6   7   0.0376   0.0838   0.1187  -0.0215  -0.0591   0.0572   0.00    0.0
2021/10/08 00:55:42.000   28 35 34.11390  -17 55 01.60373    73.3071   6   7   0.0373   0.0832   0.1173  -0.0210  -0.0582   0.0565   0.00    0.0
2021/10/08 00:56:12.000   28 35 34.11388  -17 55 01.60362    73.3039   6   7   0.0371   0.0828   0.1165  -0.0207  -0.0577   0.0562   0.00    0.0
2021/10/08 00:56:42.000   28 35 34.11385  -17 55 01.60354    73.3002   6   7   0.0370   0.0825   0.1160  -0.0205  -0.0573   0.0559   0.00    0.0
2021/10/08 00:57:12.000   28 35 34.11382  -17 55 01.60349    73.2969   6   7   0.0369   0.0823   0.1156  -0.0203  -0.0570   0.0557   0.00    0.0
2021/10/08 00:57:42.000   28 35 34.11380  -17 55 01.60340    73.2936   6   7   0.0368   0.0820   0.1149  -0.0201  -0.0565   0.0554   0.00    0.0
2021/10/08 00:58:12.000   28 35 34.11384  -17 55 01.60338    73.2943   6   7   0.0365   0.0815   0.1139  -0.0197  -0.0559   0.0548   0.00    0.0
2021/10/08 00:58:42.000   28 35 34.11388  -17 55 01.60332    73.2944   6   7   0.0360   0.0808   0.1117  -0.0189  -0.0547   0.0538   0.00    0.0
2021/10/08 00:59:12.000   28 35 34.11394  -17 55 01.60326    73.2977   6   7   0.0348   0.0791   0.1069  -0.0172  -0.0519   0.0513   0.00    0.0
2021/10/08 00:59:42.000   28 35 34.11422  -17 55 01.60317    73.3147   6   7   0.0321   0.0748   0.0985  -0.0143  -0.0466   0.0467   0.00    0.0
2021/10/08 01:00:12.000   28 35 34.11418  -17 55 01.60311    73.3086   6   7   0.0314   0.0736   0.0956  -0.0131  -0.0448   0.0453   0.00    0.0
2021/10/08 01:00:42.000   28 35 34.11417  -17 55 01.60305    73.3064   6   7   0.0311   0.0731   0.0945  -0.0127  -0.0441   0.0447   0.00    0.0
2021/10/08 01:01:12.000   28 35 34.11415  -17 55 01.60308    73.3047   6   7   0.0310   0.0728   0.0939  -0.0124  -0.0437   0.0444   0.00    0.0
2021/10/08 01:01:42.000   28 35 34.11412  -17 55 01.60310    73.3032   6   7   0.0309   0.0726   0.0935  -0.0122  -0.0435   0.0442   0.00    0.0
2021/10/08 01:02:12.000   28 35 34.11411  -17 55 01.60307    73.3028   6   7   0.0308   0.0724   0.0932  -0.0121  -0.0432   0.0441   0.00    0.0
2021/10/08 01:02:42.000   28 35 34.11410  -17 55 01.60299    73.3026   6   7   0.0307   0.0722   0.0927  -0.0119  -0.0429   0.0439   0.00    0.0
2021/10/08 01:03:12.000   28 35 34.11411  -17 55 01.60300    73.3056   6   8   0.0306   0.0719   0.0920  -0.0116  -0.0425   0.0435   0.00    0.0
2021/10/08 01:03:42.000   28 35 34.11408  -17 55 01.60295    73.3042   6   8   0.0302   0.0713   0.0905  -0.0109  -0.0416   0.0427   0.00    0.0
2021/10/08 01:04:12.000   28 35 34.11402  -17 55 01.60293    73.3023   6   8   0.0294   0.0699   0.0870  -0.0094  -0.0395   0.0410   0.00    0.0
2021/10/08 01:04:42.000   28 35 34.11427  -17 55 01.60272    73.3243   6   8   0.0272   0.0661   0.0806  -0.0063  -0.0353   0.0374   0.00    0.0
2021/10/08 01:05:12.000   28 35 34.11437  -17 55 01.60264    73.3325   6   8   0.0267   0.0651   0.0784  -0.0050  -0.0340   0.0363   0.00    0.0
2021/10/08 01:05:42.000   28 35 34.11439  -17 55 01.60258    73.3347   6   8   0.0265   0.0647   0.0775  -0.0044  -0.0335   0.0359   0.00    0.0
2021/10/08 01:06:12.000   28 35 34.11440  -17 55 01.60263    73.3363   6   8   0.0264   0.0645   0.0771  -0.0040  -0.0332   0.0356   0.00    0.0
2021/10/08 01:06:42.000   28 35 34.11440  -17 55 01.60259    73.3354   6   8   0.0263   0.0643   0.0768  -0.0037  -0.0330   0.0355   0.00    0.0
2021/10/08 01:07:12.000   28 35 34.11440  -17 55 01.60254    73.3348   6   8   0.0263   0.0642   0.0766  -0.0035  -0.0328   0.0354   0.00    0.0
2021/10/08 01:07:42.000   28 35 34.11440  -17 55 01.60248    73.3346   6   8   0.0262   0.0640   0.0763  -0.0032  -0.0326   0.0352   0.00    0.0
2021/10/08 01:08:12.000   28 35 34.11440  -17 55 01.60243    73.3365   6   8   0.0261   0.0637   0.0757  -0.0026  -0.0323   0.0350   0.00    0.0
2021/10/08 01:08:42.000   28 35 34.11442  -17 55 01.60241    73.3393   6   8   0.0258   0.0633   0.0747   0.0004  -0.0317   0.0344   0.00    0.0
2021/10/08 01:09:12.000   28 35 34.11448  -17 55 01.60229    73.3338   6   8   0.0252   0.0622   0.0722   0.0039  -0.0302   0.0332   0.00    0.0
2021/10/08 01:09:42.000   28 35 34.11479  -17 55 01.60207    73.3476   6   8   0.0236   0.0589   0.0675   0.0058  -0.0271   0.0305   0.00    0.0
2021/10/08 01:10:12.000   28 35 34.11485  -17 55 01.60211    73.3575   6   8   0.0231   0.0581   0.0659   0.0064  -0.0261   0.0296   0.00    0.0
2021/10/08 01:10:42.000   28 35 34.11484  -17 55 01.60210    73.3586   6   8   0.0230   0.0578   0.0652   0.0066  -0.0257   0.0293   0.00    0.0
2021/10/08 01:11:12.000   28 35 34.11485  -17 55 01.60210    73.3607   6   8   0.0229   0.0576   0.0649   0.0067  -0.0255   0.0292   0.00    0.0
2021/10/08 01:11:42.000   28 35 34.11486  -17 55 01.60206    73.3619   6   8   0.0229   0.0575   0.0647   0.0068  -0.0253   0.0291   0.00    0.0
2021/10/08 01:12:12.000   28 35 34.11485  -17 55 01.60200    73.3622   6   8   0.0228   0.0573   0.0645   0.0068  -0.0252   0.0290   0.00    0.0
2021/10/08 01:12:42.000   28 35 34.11485  -17 55 01.60198    73.3627   6   7   0.0228   0.0572   0.0643   0.0069  -0.0251   0.0289   0.00    0.0
2021/10/08 01:13:12.000   28 35 34.11485  -17 55 01.60198    73.3641   6   7   0.0227   0.0570   0.0639   0.0070  -0.0248   0.0287   0.00    0.0
2021/10/08 01:13:42.000   28 35 34.11484  -17 55 01.60196    73.3648   6   6   0.0225   0.0567   0.0635   0.0072  -0.0245   0.0285   0.00    0.0
2021/10/08 01:14:12.000   28 35 34.11484  -17 55 01.60192    73.3721   6   6   0.0221   0.0558   0.0626   0.0074  -0.0238   0.0278   0.00    0.0
2021/10/08 01:14:42.000   28 35 34.11492  -17 55 01.60210    73.3805   6   6   0.0209   0.0530   0.0604   0.0076  -0.0220   0.0261   0.00    0.0
2021/10/08 01:15:12.000   28 35 34.11490  -17 55 01.60208    73.3758   6   6   0.0206   0.0523   0.0597   0.0078  -0.0214   0.0257   0.00    0.0
2021/10/08 01:15:42.000   28 35 34.11492  -17 55 01.60205    73.3759   6   6   0.0205   0.0521   0.0595   0.0078  -0.0212   0.0255   0.00    0.0
2021/10/08 01:16:12.000   28 35 34.11496  -17 55 01.60201    73.3762   6   6   0.0204   0.0519   0.0594   0.0078  -0.0211   0.0255   0.00    0.0
2021/10/08 01:16:42.000   28 35 34.11497  -17 55 01.60198    73.3765   6   6   0.0204   0.0518   0.0593   0.0079  -0.0210   0.0254   0.00    0.0
2021/10/08 01:17:12.000   28 35 34.11498  -17 55 01.60193    73.3765   6   6   0.0204   0.0517   0.0592   0.0079  -0.0210   0.0254   0.00    0.0
2021/10/08 01:17:42.000   28 35 34.11498  -17 55 01.60190    73.3767   6   6   0.0203   0.0516   0.0592   0.0079  -0.0209   0.0253   0.00    0.0
2021/10/08 01:18:12.000   28 35 34.11499  -17 55 01.60181    73.3763   6   6   0.0203   0.0515   0.0590   0.0079  -0.0208   0.0252   0.00    0.0
2021/10/08 01:18:42.000   28 35 34.11501  -17 55 01.60173    73.3771   6   6   0.0202   0.0512   0.0588   0.0080  -0.0206   0.0251   0.00    0.0
2021/10/08 01:19:12.000   28 35 34.11508  -17 55 01.60164    73.3810   6   6   0.0198   0.0504   0.0580   0.0081  -0.0199   0.0245   0.00    0.0
2021/10/08 01:19:42.000   28 35 34.11512  -17 55 01.60184    73.3839   6   6   0.0188   0.0480   0.0561   0.0081  -0.0186   0.0230   0.00    0.0
2021/10/08 01:20:12.000   28 35 34.11500  -17 55 01.60195    73.3799   6   6   0.0185   0.0474   0.0556   0.0081  -0.0181   0.0226   0.00    0.0
2021/10/08 01:20:42.000   28 35 34.11496  -17 55 01.60197    73.3791   6   6   0.0184   0.0472   0.0554   0.0082  -0.0180   0.0225   0.00    0.0
2021/10/08 01:21:12.000   28 35 34.11494  -17 55 01.60197    73.3784   6   6   0.0184   0.0471   0.0553   0.0082  -0.0179   0.0224   0.00    0.0
2021/10/08 01:21:42.000   28 35 34.11492  -17 55 01.60195    73.3780   6   6   0.0183   0.0470   0.0553   0.0082  -0.0178   0.0224   0.00    0.0
2021/10/08 01:22:12.000   28 35 34.11492  -17 55 01.60194    73.3777   6   6   0.0183   0.0469   0.0552   0.0082  -0.0178   0.0223   0.00    0.0
2021/10/08 01:22:42.000   28 35 34.11492  -17 55 01.60192    73.3777   6   6   0.0183   0.0468   0.0552   0.0082  -0.0177   0.0223   0.00    0.0
2021/10/08 01:23:12.000   28 35 34.11492  -17 55 01.60192    73.3784   6   6   0.0183   0.0467   0.0551   0.0082  -0.0177   0.0222   0.00    0.0
2021/10/08 01:23:42.000   28 35 34.11493  -17 55 01.60190    73.3796   6   6   0.0182   0.0465   0.0548   0.0082  -0.0175   0.0220   0.00    0.0
2021/10/08 01:24:12.000   28 35 34.11493  -17 55 01.60194    73.3809   6   6   0.0179   0.0458   0.0543   0.0082  -0.0171   0.0216   0.00    0.0
2021/10/08 01:24:42.000   28 35 34.11498  -17 55 01.60196    73.3849   6   6   0.0170   0.0437   0.0527   0.0081  -0.0162   0.0202   0.00    0.0
2021/10/08 01:25:12.000   28 35 34.11503  -17 55 01.60189    73.3871   6   6   0.0167   0.0432   0.0523   0.0081  -0.0159   0.0198   0.00    0.0
2021/10/08 01:25:42.000   28 35 34.11505  -17 55 01.60182    73.3880   6   6   0.0167   0.0430   0.0521   0.0081  -0.0158   0.0197   0.00    0.0
2021/10/08 01:26:12.000   28 35 34.11506  -17 55 01.60180    73.3883   6   6   0.0166   0.0429   0.0520   0.0081  -0.0157   0.0197   0.00    0.0
2021/10/08 01:26:42.000   28 35 34.11506  -17 55 01.60179    73.3884   6   6   0.0166   0.0428   0.0520   0.0081  -0.0157   0.0196   0.00    0.0
2021/10/08 01:27:12.000   28 35 34.11506  -17 55 01.60178    73.3883   6   6   0.0166   0.0428   0.0520   0.0081  -0.0156   0.0196   0.00    0.0
2021/10/08 01:27:42.000   28 35 34.11506  -17 55 01.60177    73.3883   6   6   0.0166   0.0427   0.0519   0.0081  -0.0156   0.0196   0.00    0.0
2021/10/08 01:28:12.000   28 35 34.11505  -17 55 01.60178    73.3885   6   6   0.0165   0.0426   0.0518   0.0081  -0.0155   0.0195   0.00    0.0
2021/10/08 01:28:42.000   28 35 34.11508  -17 55 01.60177    73.3908   6   6   0.0164   0.0424   0.0516   0.0081  -0.0154   0.0194   0.00    0.0
2021/10/08 01:29:12.000   28 35 34.11514  -17 55 01.60173    73.3964   6   6   0.0162   0.0418   0.0512   0.0081  -0.0151   0.0189   0.00    0.0
2021/10/08 01:29:42.000   28 35 34.11521  -17 55 01.60167    73.4015   6   6   0.0154   0.0400   0.0498   0.0079  -0.0146   0.0177   0.00    0.0
2021/10/08 01:30:12.000   28 35 34.11520  -17 55 01.60166    73.4008   6   6   0.0153   0.0395   0.0495   0.0079  -0.0144   0.0174   0.00    0.0
2021/10/08 01:30:42.000   28 35 34.11519  -17 55 01.60166    73.4002   6   6   0.0152   0.0393   0.0493   0.0078  -0.0143   0.0172   0.00    0.0
2021/10/08 01:31:12.000   28 35 34.11519  -17 55 01.60163    73.4002   6   6   0.0152   0.0393   0.0493   0.0078  -0.0143   0.0172   0.00    0.0
2021/10/08 01:31:42.000   28 35 34.11519  -17 55 01.60159    73.3999   6   6   0.0152   0.0392   0.0492   0.0078  -0.0142   0.0172   0.00    0.0
2021/10/08 01:32:12.000   28 35 34.11519  -17 55 01.60157    73.4000   6   6   0.0151   0.0392   0.0492   0.0078  -0.0142   0.0171   0.00    0.0
2021/10/08 01:32:42.000   28 35 34.11519  -17 55 01.60156    73.4005   6   6   0.0151   0.0391   0.0492   0.0078  -0.0142   0.0171   0.00    0.0
2021/10/08 01:33:12.000   28 35 34.11519  -17 55 01.60153    73.4007   6   6   0.0151   0.0390   0.0491   0.0078  -0.0142   0.0170   0.00    0.0
2021/10/08 01:33:42.000   28 35 34.11519  -17 55 01.60149    73.4007   6   6   0.0150   0.0388   0.0489   0.0078  -0.0141   0.0169   0.00    0.0
2021/10/08 01:34:12.000   28 35 34.11518  -17 55 01.60146    73.4014   6   6   0.0148   0.0383   0.0485   0.0078  -0.0139   0.0165   0.00    0.0
2021/10/08 01:34:42.000   28 35 34.11515  -17 55 01.60157    73.4016   6   6   0.0142   0.0367   0.0474   0.0076  -0.0136   0.0154   0.00    0.0
2021/10/08 01:35:12.000   28 35 34.11518  -17 55 01.60150    73.4014   6   6   0.0140   0.0363   0.0471   0.0076  -0.0135   0.0151   0.00    0.0
2021/10/08 01:35:42.000   28 35 34.11519  -17 55 01.60146    73.4023   6   6   0.0140   0.0362   0.0470   0.0076  -0.0135   0.0150   0.00    0.0
2021/10/08 01:36:12.000   28 35 34.11520  -17 55 01.60143    73.4029   6   6   0.0140   0.0361   0.0469   0.0076  -0.0134   0.0149   0.00    0.0
2021/10/08 01:36:42.000   28 35 34.11520  -17 55 01.60141    73.4033   6   6   0.0139   0.0361   0.0469   0.0076  -0.0134   0.0149   0.00    0.0
2021/10/08 01:37:12.000   28 35 34.11520  -17 55 01.60139    73.4034   6   6   0.0139   0.0360   0.0468   0.0076  -0.0134   0.0149   0.00    0.0
2021/10/08 01:37:42.000   28 35 34.11519  -17 55 01.60134    73.4030   6   6   0.0139   0.0360   0.0468   0.0076  -0.0134   0.0148   0.00    0.0
2021/10/08 01:38:12.000   28 35 34.11518  -17 55 01.60132    73.4025   6   6   0.0139   0.0359   0.0467   0.0076  -0.0134   0.0148   0.00    0.0
2021/10/08 01:38:42.000   28 35 34.11517  -17 55 01.60132    73.4023   6   6   0.0138   0.0357   0.0466   0.0076  -0.0134   0.0146   0.00    0.0
2021/10/08 01:39:12.000   28 35 34.11515  -17 55 01.60134    73.4005   6   6   0.0137   0.0353   0.0462   0.0076  -0.0133   0.0143   0.00    0.0
2021/10/08 01:39:42.000   28 35 34.11518  -17 55 01.60146    73.4016   6   6   0.0131   0.0339   0.0452   0.0074  -0.0132   0.0132   0.00    0.0
2021/10/08 01:40:12.000   28 35 34.11515  -17 55 01.60150    73.4004   6   6   0.0130   0.0335   0.0449   0.0074  -0.0131   0.0129   0.00    0.0
2021/10/08 01:40:42.000   28 35 34.11514  -17 55 01.60151    73.3991   6   6   0.0130   0.0334   0.0448   0.0074  -0.0131   0.0128   0.00    0.0
2021/10/08 01:41:12.000   28 35 34.11512  -17 55 01.60150    73.3978   6   6   0.0129   0.0333   0.0448   0.0074  -0.0131   0.0128   0.00    0.0
2021/10/08 01:41:42.000   28 35 34.11512  -17 55 01.60149    73.3976   6   6   0.0129   0.0333   0.0447   0.0074  -0.0131   0.0127   0.00    0.0
2021/10/08 01:42:12.000   28 35 34.11512  -17 55 01.60145    73.3976   6   6   0.0129   0.0333   0.0447   0.0074  -0.0131   0.0127   0.00    0.0
2021/10/08 01:42:42.000   28 35 34.11513  -17 55 01.60141    73.3980   6   6   0.0129   0.0332   0.0447   0.0074  -0.0131   0.0127   0.00    0.0
2021/10/08 01:43:12.000   28 35 34.11512  -17 55 01.60138    73.3973   6   6   0.0129   0.0331   0.0446   0.0074  -0.0131   0.0126   0.00    0.0
2021/10/08 01:43:42.000   28 35 34.11512  -17 55 01.60136    73.3951   6   6   0.0128   0.0330   0.0445   0.0074  -0.0130   0.0125   0.00    0.0
2021/10/08 01:44:12.000   28 35 34.11509  -17 55 01.60130    73.3896   6   6   0.0127   0.0326   0.0441   0.0073  -0.0130   0.0122   0.00    0.0
2021/10/08 01:44:42.000   28 35 34.11511  -17 55 01.60132    73.3920   6   6   0.0122   0.0314   0.0432   0.0072  -0.0130   0.0112   0.00    0.0
2021/10/08 01:45:12.000   28 35 34.11510  -17 55 01.60133    73.3933   6   6   0.0121   0.0311   0.0429   0.0072  -0.0130   0.0109   0.00    0.0
2021/10/08 01:45:42.000   28 35 34.11509  -17 55 01.60133    73.3931   6   6   0.0121   0.0310   0.0428   0.0072  -0.0130   0.0108   0.00    0.0
2021/10/08 01:46:12.000   28 35 34.11509  -17 55 01.60131    73.3923   6   6   0.0121   0.0309   0.0428   0.0072  -0.0130   0.0107   0.00    0.0
2021/10/08 01:46:42.000   28 35 34.11508  -17 55 01.60130    73.3923   6   6   0.0121   0.0309   0.0427   0.0072  -0.0130   0.0107   0.00    0.0
2021/10/08 01:47:12.000   28 35 34.11508  -17 55 01.60129    73.3925   6   6   0.0121   0.0309   0.0427   0.0072  -0.0130   0.0107   0.00    0.0
2021/10/08 01:47:42.000   28 35 34.11509  -17 55 01.60127    73.3932   6   6   0.0121   0.0308   0.0427   0.0072  -0.0130   0.0107   0.00    0.0
2021/10/08 01:48:12.000   28 35 34.11509  -17 55 01.60124    73.3941   6   6   0.0120   0.0308   0.0426   0.0072  -0.0130   0.0106   0.00    0.0
2021/10/08 01:48:42.000   28 35 34.11510  -17 55 01.60120    73.3950   6   6   0.0120   0.0307   0.0425   0.0072  -0.0130   0.0105   0.00    0.0
2021/10/08 01:49:12.000   28 35 34.11510  -17 55 01.60118    73.3927   6   6   0.0119   0.0303   0.0421   0.0072  -0.0130   0.0102   0.00    0.0
2021/10/08 01:49:42.000   28 35 34.11510  -17 55 01.60115    73.3935   6   6   0.0115   0.0292   0.0412   0.0071  -0.0130   0.0092   0.00    0.0
2021/10/08 01:50:12.000   28 35 34.11507  -17 55 01.60118    73.3906   6   6   0.0114   0.0290   0.0409   0.0071  -0.0130   0.0089   0.00    0.0
2021/10/08 01:50:42.000   28 35 34.11505  -17 55 01.60120    73.3913   6   6   0.0114   0.0289   0.0408   0.0071  -0.0130   0.0088   0.00    0.0
2021/10/08 01:51:12.000   28 35 34.11504  -17 55 01.60118    73.3914   6   6   0.0114   0.0288   0.0408   0.0071  -0.0130   0.0088   0.00    0.0
2021/10/08 01:51:42.000   28 35 34.11504  -17 55 01.60115    73.3915   6   6   0.0114   0.0288   0.0407   0.0071  -0.0130   0.0087   0.00    0.0
2021/10/08 01:52:12.000   28 35 34.11504  -17 55 01.60113    73.3916   6   5   0.0114   0.0288   0.0407   0.0071  -0.0130   0.0087   0.00    0.0
2021/10/08 01:52:42.000   28 35 34.11503  -17 55 01.60113    73.3916   6   5   0.0113   0.0288   0.0407   0.0071  -0.0130   0.0087   0.00    0.0
2021/10/08 01:53:12.000   28 35 34.11503  -17 55 01.60113    73.3918   6   5   0.0113   0.0287   0.0407   0.0071  -0.0130   0.0087   0.00    0.0
2021/10/08 01:53:42.000   28 35 34.11503  -17 55 01.60111    73.3915   6   5   0.0113   0.0286   0.0407   0.0071  -0.0130   0.0086   0.00    0.0
2021/10/08 01:54:12.000   28 35 34.11503  -17 55 01.60109    73.3903   6   5   0.0112   0.0283   0.0405   0.0071  -0.0130   0.0084   0.00    0.0
2021/10/08 01:54:42.000   28 35 34.11503  -17 55 01.60106    73.3903   6   5   0.0109   0.0274   0.0401   0.0071  -0.0131   0.0076   0.00    0.0
2021/10/08 01:55:12.000   28 35 34.11505  -17 55 01.60108    73.3915   6   5   0.0108   0.0271   0.0400   0.0070  -0.0131   0.0074   0.00    0.0
2021/10/08 01:55:42.000   28 35 34.11504  -17 55 01.60110    73.3919   6   5   0.0108   0.0271   0.0400   0.0070  -0.0131   0.0073   0.00    0.0
2021/10/08 01:56:12.000   28 35 34.11505  -17 55 01.60109    73.3923   6   5   0.0108   0.0270   0.0399   0.0070  -0.0131   0.0073   0.00    0.0
2021/10/08 01:56:42.000   28 35 34.11505  -17 55 01.60109    73.3925   6   5   0.0108   0.0270   0.0399   0.0070  -0.0131   0.0073   0.00    0.0
2021/10/08 01:57:12.000   28 35 34.11505  -17 55 01.60107    73.3926   6   5   0.0108   0.0270   0.0399   0.0070  -0.0131   0.0073   0.00    0.0
2021/10/08 01:57:42.000   28 35 34.11505  -17 55 01.60106    73.3926   6   5   0.0108   0.0270   0.0399   0.0070  -0.0131   0.0073   0.00    0.0
2021/10/08 01:58:12.000   28 35 34.11504  -17 55 01.60105    73.3924   6   5   0.0108   0.0269   0.0399   0.0070  -0.0131   0.0072   0.00    0.0
2021/10/08 01:58:42.000   28 35 34.11504  -17 55 01.60105    73.3919   6   5   0.0107   0.0268   0.0399   0.0070  -0.0131   0.0072   0.00    0.0
2021/10/08 01:59:12.000   28 35 34.11501  -17 55 01.60108    73.3904   6   5   0.0107   0.0266   0.0397   0.0070  -0.0132   0.0069   0.00    0.0
2021/10/08 01:59:42.000   28 35 34.11502  -17 55 01.60111    73.3912   6   5   0.0104   0.0257   0.0394   0.0070  -0.0134   0.0061   0.00    0.0
2021/10/08 02:00:12.000   28 35 34.11503  -17 55 01.60107    73.3910   6   5   0.0103   0.0255   0.0393   0.0070  -0.0134   0.0059   0.00    0.0
2021/10/08 02:00:42.000   28 35 34.11504  -17 55 01.60106    73.3910   6   5   0.0103   0.0255   0.0393   0.0070  -0.0134   0.0058   0.00    0.0
2021/10/08 02:01:12.000   28 35 34.11504  -17 55 01.60107    73.3909   6   5   0.0103   0.0254   0.0392   0.0070  -0.0134   0.0058   0.00    0.0
2021/10/08 02:01:42.000   28 35 34.11504  -17 55 01.60106    73.3910   6   5   0.0103   0.0254   0.0392   0.0070  -0.0134   0.0058   0.00    0.0
2021/10/08 02:02:12.000   28 35 34.11503  -17 55 01.60106    73.3909   6   5   0.0103   0.0254   0.0392   0.0070  -0.0134   0.0057   0.00    0.0
2021/10/08 02:02:42.000   28 35 34.11503  -17 55 01.60106    73.3909   6   5   0.0103   0.0254   0.0392   0.0070  -0.0134   0.0057   0.00    0.0
2021/10/08 02:03:12.000   28 35 34.11503  -17 55 01.60106    73.3908   6   5   0.0103   0.0253   0.0392   0.0070  -0.0134   0.0057   0.00    0.0
2021/10/08 02:03:42.000   28 35 34.11503  -17 55 01.60107    73.3909   6   5   0.0102   0.0253   0.0392   0.0070  -0.0134   0.0056   0.00    0.0
2021/10/08 02:04:12.000   28 35 34.11503  -17 55 01.60110    73.3913   6   5   0.0102   0.0251   0.0391   0.0070  -0.0135   0.0054   0.00    0.0
2021/10/08 02:04:42.000   28 35 34.11502  -17 55 01.60106    73.3912   6   5   0.0099   0.0244   0.0387   0.0069  -0.0137   0.0044   0.00    0.0
2021/10/08 02:05:12.000   28 35 34.11503  -17 55 01.60105    73.3918   6   5   0.0099   0.0242   0.0387   0.0069  -0.0137   0.0041   0.00    0.0
2021/10/08 02:05:42.000   28 35 34.11503  -17 55 01.60105    73.3921   6   5   0.0099   0.0241   0.0386   0.0069  -0.0137   0.0040   0.00    0.0
2021/10/08 02:06:12.000   28 35 34.11503  -17 55 01.60106    73.3918   6   5   0.0099   0.0241   0.0386   0.0069  -0.0137   0.0040   0.00    0.0
2021/10/08 02:06:42.000   28 35 34.11502  -17 55 01.60105    73.3918   6   5   0.0098   0.0241   0.0386   0.0069  -0.0138   0.0040   0.00    0.0
2021/10/08 02:07:12.000   28 35 34.11503  -17 55 01.60104    73.3918   6   5   0.0098   0.0241   0.0386   0.0069  -0.0138   0.0040   0.00    0.0
2021/10/08 02:07:42.000   28 35 34.11503  -17 55 01.60104    73.3918   6   5   0.0098   0.0240   0.0386   0.0069  -0.0138   0.0039   0.00    0.0
2021/10/08 02:08:12.000   28 35 34.11502  -17 55 01.60103    73.3916   6   5   0.0098   0.0240   0.0386   0.0069  -0.0138   0.0039   0.00    0.0
2021/10/08 02:08:42.000   28 35 34.11502  -17 55 01.60103    73.3912   6   5   0.0098   0.0240   0.0386   0.0069  -0.0138   0.0038   0.00    0.0
2021/10/08 02:09:12.000   28 35 34.11503  -17 55 01.60102    73.3918   6   5   0.0097   0.0238   0.0385   0.0069  -0.0138   0.0034   0.00    0.0
2021/10/08 02:09:42.000   28 35 34.11503  -17 55 01.60110    73.3920   6   5   0.0095   0.0232   0.0382   0.0069  -0.0141   0.0019   0.00    0.0
2021/10/08 02:10:12.000   28 35 34.11503  -17 55 01.60107    73.3913   6   5   0.0095   0.0230   0.0381   0.0069  -0.0141   0.0013   0.00    0.0
2021/10/08 02:10:42.000   28 35 34.11503  -17 55 01.60106    73.3908   6   5   0.0095   0.0230   0.0381   0.0069  -0.0142   0.0010   0.00    0.0
2021/10/08 02:11:12.000   28 35 34.11503  -17 55 01.60105    73.3907   6   5   0.0095   0.0229   0.0381   0.0069  -0.0142   0.0008   0.00    0.0
2021/10/08 02:11:42.000   28 35 34.11503  -17 55 01.60105    73.3907   6   5   0.0095   0.0229   0.0381   0.0069  -0.0142   0.0007   0.00    0.0
2021/10/08 02:12:12.000   28 35 34.11503  -17 55 01.60105    73.3907   6   5   0.0095   0.0229   0.0381   0.0069  -0.0142   0.0006   0.00    0.0
2021/10/08 02:12:42.000   28 35 34.11503  -17 55 01.60104    73.3906   6   5   0.0094   0.0229   0.0380   0.0069  -0.0142   0.0005   0.00    0.0
2021/10/08 02:13:12.000   28 35 34.11503  -17 55 01.60103    73.3906   6   5   0.0094   0.0229   0.0380   0.0069  -0.0142  -0.0003   0.00    0.0
2021/10/08 02:13:42.000   28 35 34.11503  -17 55 01.60103    73.3905   6   5   0.0094   0.0228   0.0380   0.0069  -0.0142  -0.0009   0.00    0.0
2021/10/08 02:14:12.000   28 35 34.11501  -17 55 01.60104    73.3881   6   5   0.0094   0.0227   0.0379   0.0069  -0.0143  -0.0017   0.00    0.0
2021/10/08 02:14:42.000   28 35 34.11502  -17 55 01.60114    73.3883   6   5   0.0092   0.0222   0.0376   0.0069  -0.0145  -0.0032   0.00    0.0
2021/10/08 02:15:12.000   28 35 34.11503  -17 55 01.60116    73.3892   6   5   0.0091   0.0220   0.0376   0.0069  -0.0146  -0.0034   0.00    0.0
2021/10/08 02:15:42.000   28 35 34.11503  -17 55 01.60115    73.3899   6   5   0.0091   0.0220   0.0375   0.0069  -0.0146  -0.0035   0.00    0.0
2021/10/08 02:16:12.000   28 35 34.11503  -17 55 01.60114    73.3902   6   5   0.0091   0.0220   0.0375   0.0069  -0.0146  -0.0035   0.00    0.0
2021/10/08 02:16:42.000   28 35 34.11504  -17 55 01.60113    73.3903   6   5   0.0091   0.0220   0.0375   0.0069  -0.0146  -0.0036   0.00    0.0
2021/10/08 02:17:12.000   28 35 34.11504  -17 55 01.60112    73.3903   6   5   0.0091   0.0220   0.0375   0.0069  -0.0146  -0.0036   0.00    0.0
2021/10/08 02:17:42.000   28 35 34.11504  -17 55 01.60112    73.3903   6   5   0.0091   0.0219   0.0375   0.0069  -0.0146  -0.0036   0.00    0.0
2021/10/08 02:18:12.000   28 35 34.11504  -17 55 01.60112    73.3902   6   5   0.0091   0.0219   0.0375   0.0069  -0.0146  -0.0036   0.00    0.0
2021/10/08 02:18:42.000   28 35 34.11503  -17 55 01.60111    73.3897   6   5   0.0091   0.0219   0.0375   0.0069  -0.0146  -0.0037   0.00    0.0
2021/10/08 02:19:12.000   28 35 34.11501  -17 55 01.60111    73.3880   6   5   0.0090   0.0217   0.0374   0.0069  -0.0147  -0.0040   0.00    0.0
2021/10/08 02:19:42.000   28 35 34.11498  -17 55 01.60111    73.3867   6   5   0.0089   0.0213   0.0371   0.0069  -0.0149  -0.0047   0.00    0.0
2021/10/08 02:20:12.000   28 35 34.11497  -17 55 01.60112    73.3863   6   5   0.0088   0.0212   0.0370   0.0069  -0.0150  -0.0049   0.00    0.0
2021/10/08 02:20:42.000   28 35 34.11498  -17 55 01.60111    73.3864   6   5   0.0088   0.0212   0.0370   0.0070  -0.0150  -0.0049   0.00    0.0
2021/10/08 02:21:12.000   28 35 34.11498  -17 55 01.60110    73.3864   6   5   0.0088   0.0212   0.0370   0.0070  -0.0150  -0.0049   0.00    0.0
2021/10/08 02:21:42.000   28 35 34.11498  -17 55 01.60109    73.3862   6   5   0.0088   0.0211   0.0370   0.0069  -0.0150  -0.0049   0.00    0.0
2021/10/08 02:22:12.000   28 35 34.11498  -17 55 01.60108    73.3859   6   5   0.0088   0.0211   0.0370   0.0069  -0.0150  -0.0050   0.00    0.0
2021/10/08 02:22:42.000   28 35 34.11498  -17 55 01.60107    73.3858   6   5   0.0088   0.0211   0.0370   0.0069  -0.0150  -0.0050   0.00    0.0
2021/10/08 02:23:12.000   28 35 34.11498  -17 55 01.60107    73.3857   6   5   0.0088   0.0211   0.0370   0.0069  -0.0150  -0.0050   0.00    0.0
2021/10/08 02:23:42.000   28 35 34.11497  -17 55 01.60109    73.3852   6   5   0.0088   0.0211   0.0369   0.0070  -0.0151  -0.0051   0.00    0.0
2021/10/08 02:24:12.000   28 35 34.11496  -17 55 01.60115    73.3836   6   5   0.0087   0.0210   0.0368   0.0070  -0.0151  -0.0052   0.00    0.0
2021/10/08 02:24:42.000   28 35 34.11495  -17 55 01.60121    73.3815   6   5   0.0086   0.0206   0.0366   0.0070  -0.0154  -0.0057   0.00    0.0
2021/10/08 02:25:12.000   28 35 34.11495  -17 55 01.60120    73.3814   6   5   0.0086   0.0205   0.0365   0.0070  -0.0154  -0.0058   0.00    0.0
2021/10/08 02:25:42.000   28 35 34.11494  -17 55 01.60120    73.3811   6   5   0.0086   0.0205   0.0365   0.0070  -0.0154  -0.0058   0.00    0.0
2021/10/08 02:26:12.000   28 35 34.11494  -17 55 01.60120    73.3806   6   5   0.0086   0.0205   0.0364   0.0070  -0.0154  -0.0059   0.00    0.0
2021/10/08 02:26:42.000   28 35 34.11494  -17 55 01.60120    73.3801   6   5   0.0086   0.0205   0.0364   0.0070  -0.0154  -0.0059   0.00    0.0
2021/10/08 02:27:12.000   28 35 34.11493  -17 55 01.60120    73.3798   6   5   0.0086   0.0205   0.0364   0.0070  -0.0154  -0.0059   0.00    0.0
2021/10/08 02:27:42.000   28 35 34.11493  -17 55 01.60120    73.3797   6   5   0.0086   0.0204   0.0364   0.0070  -0.0154  -0.0059   0.00    0.0
2021/10/08 02:28:12.000   28 35 34.11493  -17 55 01.60120    73.3795   6   5   0.0085   0.0204   0.0364   0.0070  -0.0155  -0.0059   0.00    0.0
2021/10/08 02:28:42.000   28 35 34.11493  -17 55 01.60119    73.3793   6   5   0.0085   0.0204   0.0364   0.0070  -0.0155  -0.0059   0.00    0.0
2021/10/08 02:29:12.000   28 35 34.11490  -17 55 01.60119    73.3776   6   5   0.0085   0.0203   0.0363   0.0070  -0.0155  -0.0061   0.00    0.0
2021/10/08 02:29:42.000   28 35 34.11488  -17 55 01.60116    73.3771   6   5   0.0084   0.0200   0.0360   0.0071  -0.0158  -0.0064   0.00    0.0
2021/10/08 02:30:12.000   28 35 34.11487  -17 55 01.60117    73.3755   6   5   0.0083   0.0200   0.0359   0.0071  -0.0158  -0.0065   0.00    0.0
2021/10/08 02:30:42.000   28 35 34.11486  -17 55 01.60117    73.3749   6   5   0.0083   0.0199   0.0359   0.0071  -0.0158  -0.0065   0.00    0.0
2021/10/08 02:31:12.000   28 35 34.11486  -17 55 01.60117    73.3747   6   6   0.0083   0.0199   0.0359   0.0071  -0.0158  -0.0065   0.00    0.0
2021/10/08 02:31:42.000   28 35 34.11486  -17 55 01.60116    73.3747   6   6   0.0083   0.0199   0.0359   0.0071  -0.0158  -0.0066   0.00    0.0
2021/10/08 02:32:12.000   28 35 34.11486  -17 55 01.60115    73.3745   6   6   0.0083   0.0199   0.0359   0.0071  -0.0158  -0.0066   0.00    0.0
2021/10/08 02:32:42.000   28 35 34.11486  -17 55 01.60115    73.3745   6   6   0.0083   0.0199   0.0359   0.0071  -0.0158  -0.0066   0.00    0.0
2021/10/08 02:33:12.000   28 35 34.11487  -17 55 01.60114    73.3749   6   6   0.0083   0.0199   0.0359   0.0071  -0.0158  -0.0066   0.00    0.0
2021/10/08 02:33:42.000   28 35 34.11486  -17 55 01.60114    73.3740   6   6   0.0083   0.0199   0.0358   0.0071  -0.0159  -0.0066   0.00    0.0
2021/10/08 02:34:12.000   28 35 34.11483  -17 55 01.60114    73.3723   6   6   0.0083   0.0198   0.0358   0.0071  -0.0159  -0.0067   0.00    0.0
2021/10/08 02:34:42.000   28 35 34.11483  -17 55 01.60116    73.3721   6   6   0.0082   0.0196   0.0355   0.0071  -0.0161  -0.0070   0.00    0.0
2021/10/08 02:35:12.000   28 35 34.11484  -17 55 01.60115    73.3743   6   6   0.0081   0.0195   0.0354   0.0071  -0.0161  -0.0070   0.00    0.0
2021/10/08 02:35:42.000   28 35 34.11485  -17 55 01.60114    73.3751   6   6   0.0081   0.0195   0.0354   0.0071  -0.0162  -0.0071   0.00    0.0
2021/10/08 02:36:12.000   28 35 34.11485  -17 55 01.60113    73.3753   6   6   0.0081   0.0195   0.0354   0.0071  -0.0162  -0.0071   0.00    0.0
2021/10/08 02:36:42.000   28 35 34.11485  -17 55 01.60111    73.3756   6   6   0.0081   0.0195   0.0354   0.0071  -0.0162  -0.0071   0.00    0.0
2021/10/08 02:37:12.000   28 35 34.11485  -17 55 01.60110    73.3756   6   6   0.0081   0.0195   0.0354   0.0071  -0.0162  -0.0071   0.00    0.0
2021/10/08 02:37:42.000   28 35 34.11486  -17 55 01.60108    73.3756   6   6   0.0081   0.0195   0.0353   0.0071  -0.0162  -0.0071   0.00    0.0
2021/10/08 02:38:12.000   28 35 34.11486  -17 55 01.60107    73.3759   6   6   0.0081   0.0194   0.0353   0.0071  -0.0162  -0.0071   0.00    0.0
2021/10/08 02:38:42.000   28 35 34.11487  -17 55 01.60105    73.3764   6   6   0.0081   0.0194   0.0353   0.0072  -0.0162  -0.0071   0.00    0.0
2021/10/08 02:39:12.000   28 35 34.11488  -17 55 01.60106    73.3759   6   6   0.0081   0.0194   0.0352   0.0072  -0.0162  -0.0072   0.00    0.0
2021/10/08 02:39:42.000   28 35 34.11489  -17 55 01.60112    73.3749   6   6   0.0080   0.0192   0.0349   0.0072  -0.0164  -0.0074   0.00    0.0
2021/10/08 02:40:12.000   28 35 34.11491  -17 55 01.60112    73.3754   6   6   0.0080   0.0191   0.0348   0.0072  -0.0165  -0.0074   0.00    0.0
2021/10/08 02:40:42.000   28 35 34.11491  -17 55 01.60113    73.3753   6   7   0.0080   0.0191   0.0348   0.0072  -0.0165  -0.0075   0.00    0.0
2021/10/08 02:41:12.000   28 35 34.11491  -17 55 01.60112    73.3752   6   7   0.0080   0.0191   0.0348   0.0072  -0.0165  -0.0075   0.00    0.0
2021/10/08 02:41:42.000   28 35 34.11492  -17 55 01.60112    73.3757   6   7   0.0079   0.0191   0.0348   0.0072  -0.0165  -0.0075   0.00    0.0
2021/10/08 02:42:12.000   28 35 34.11492  -17 55 01.60111    73.3758   6   7   0.0079   0.0191   0.0348   0.0072  -0.0165  -0.0075   0.00    0.0
2021/10/08 02:42:42.000   28 35 34.11492  -17 55 01.60110    73.3761   6   7   0.0079   0.0191   0.0348   0.0072  -0.0165  -0.0075   0.00    0.0
2021/10/08 02:43:12.000   28 35 34.11492  -17 55 01.60108    73.3767   6   7   0.0079   0.0191   0.0347   0.0072  -0.0165  -0.0075   0.00    0.0
2021/10/08 02:43:42.000   28 35 34.11492  -17 55 01.60106    73.3775   6   7   0.0079   0.0191   0.0347   0.0072  -0.0165  -0.0075   0.00    0.0
2021/10/08 02:44:12.000   28 35 34.11495  -17 55 01.60102    73.3817   6   7   0.0079   0.0190   0.0346   0.0072  -0.0165  -0.0076   0.00    0.0
2021/10/08 02:44:42.000   28 35 34.11495  -17 55 01.60106    73.3792   6   7   0.0078   0.0189   0.0343   0.0073  -0.0167  -0.0077   0.00    0.0
2021/10/08 02:45:12.000   28 35 34.11494  -17 55 01.60106    73.3782   6   7   0.0078   0.0189   0.0342   0.0073  -0.0167  -0.0077   0.00    0.0
2021/10/08 02:45:42.000   28 35 34.11493  -17 55 01.60106    73.3776   6   7   0.0078   0.0188   0.0342   0.0073  -0.0167  -0.0078   0.00    0.0
2021/10/08 02:46:12.000   28 35 34.11493  -17 55 01.60105    73.3771   6   7   0.0078   0.0188   0.0342   0.0073  -0.0167  -0.0078   0.00    0.0
2021/10/08 02:46:42.000   28 35 34.11493  -17 55 01.60105    73.3769   6   7   0.0078   0.0188   0.0342   0.0073  -0.0167  -0.0078   0.00    0.0
2021/10/08 02:47:12.000   28 35 34.11493  -17 55 01.60105    73.3767   6   7   0.0078   0.0188   0.0342   0.0073  -0.0167  -0.0078   0.00    0.0
2021/10/08 02:47:42.000   28 35 34.11493  -17 55 01.60105    73.3766   6   7   0.0078   0.0188   0.0342   0.0073  -0.0167  -0.0078   0.00    0.0
2021/10/08 02:48:12.000   28 35 34.11493  -17 55 01.60105    73.3765   6   7   0.0078   0.0188   0.0341   0.0073  -0.0167  -0.0078   0.00    0.0
2021/10/08 02:48:42.000   28 35 34.11492  -17 55 01.60106    73.3757   6   7   0.0078   0.0188   0.0341   0.0073  -0.0167  -0.0078   0.00    0.0
2021/10/08 02:49:12.000   28 35 34.11491  -17 55 01.60107    73.3732   6   7   0.0077   0.0188   0.0340   0.0073  -0.0168  -0.0078   0.00    0.0
2021/10/08 02:49:42.000   28 35 34.11491  -17 55 01.60110    73.3726   6   7   0.0077   0.0187   0.0337   0.0074  -0.0169  -0.0079   0.00    0.0
2021/10/08 02:50:12.000   28 35 34.11491  -17 55 01.60111    73.3724   6   7   0.0076   0.0186   0.0336   0.0074  -0.0169  -0.0080   0.00    0.0
2021/10/08 02:50:42.000   28 35 34.11491  -17 55 01.60112    73.3717   6   7   0.0076   0.0186   0.0336   0.0074  -0.0169  -0.0080   0.00    0.0
2021/10/08 02:51:12.000   28 35 34.11491  -17 55 01.60112    73.3714   6   7   0.0076   0.0186   0.0336   0.0074  -0.0169  -0.0080   0.00    0.0
2021/10/08 02:51:42.000   28 35 34.11491  -17 55 01.60111    73.3711   6   7   0.0076   0.0186   0.0336   0.0074  -0.0169  -0.0080   0.00    0.0
2021/10/08 02:52:12.000   28 35 34.11491  -17 55 01.60110    73.3711   6   7   0.0076   0.0186   0.0335   0.0074  -0.0169  -0.0080   0.00    0.0
2021/10/08 02:52:42.000   28 35 34.11490  -17 55 01.60110    73.3711   6   7   0.0076   0.0186   0.0335   0.0074  -0.0169  -0.0080   0.00    0.0
2021/10/08 02:53:12.000   28 35 34.11490  -17 55 01.60111    73.3709   6   7   0.0076   0.0186   0.0335   0.0074  -0.0169  -0.0080   0.00    0.0
2021/10/08 02:53:42.000   28 35 34.11490  -17 55 01.60111    73.3697   6   7   0.0076   0.0186   0.0335   0.0074  -0.0169  -0.0080   0.00    0.0
2021/10/08 02:54:12.000   28 35 34.11489  -17 55 01.60113    73.3671   6   7   0.0076   0.0186   0.0334   0.0074  -0.0170  -0.0080   0.00    0.0
2021/10/08 02:54:42.000   28 35 34.11489  -17 55 01.60113    73.3658   6   7   0.0075   0.0185   0.0331   0.0074  -0.0171  -0.0081   0.00    0.0
2021/10/08 02:55:12.000   28 35 34.11488  -17 55 01.60109    73.3689   6   7   0.0075   0.0185   0.0330   0.0074  -0.0171  -0.0081   0.00    0.0
2021/10/08 02:55:42.000   28 35 34.11488  -17 55 01.60109    73.3692   6   8   0.0075   0.0185   0.0330   0.0074  -0.0171  -0.0081   0.00    0.0
2021/10/08 02:56:12.000   28 35 34.11487  -17 55 01.60109    73.3686   6   8   0.0075   0.0185   0.0330   0.0074  -0.0171  -0.0081   0.00    0.0
2021/10/08 02:56:42.000   28 35 34.11487  -17 55 01.60108    73.3682   6   8   0.0075   0.0185   0.0329   0.0074  -0.0171  -0.0081   0.00    0.0
2021/10/08 02:57:12.000   28 35 34.11487  -17 55 01.60108    73.3682   6   8   0.0075   0.0185   0.0329   0.0074  -0.0171  -0.0081   0.00    0.0
2021/10/08 02:57:42.000   28 35 34.11487  -17 55 01.60108    73.3680   6   8   0.0075   0.0184   0.0329   0.0074  -0.0171  -0.0081   0.00    0.0
2021/10/08 02:58:12.000   28 35 34.11487  -17 55 01.60108    73.3680   6   8   0.0075   0.0184   0.0329   0.0074  -0.0171  -0.0081   0.00    0.0
2021/10/08 02:58:42.000   28 35 34.11487  -17 55 01.60109    73.3673   6   8   0.0075   0.0184   0.0329   0.0074  -0.0171  -0.0081   0.00    0.0
2021/10/08 02:59:12.000   28 35 34.11486  -17 55 01.60111    73.3652   6   8   0.0075   0.0184   0.0328   0.0074  -0.0171  -0.0081   0.00    0.0
2021/10/08 02:59:42.000   28 35 34.11487  -17 55 01.60111    73.3657   6   8   0.0074   0.0184   0.0325   0.0075  -0.0172  -0.0082   0.00    0.0
2021/10/08 03:00:12.000   28 35 34.11486  -17 55 01.60112    73.3641   6   8   0.0074   0.0183   0.0324   0.0075  -0.0172  -0.0082   0.00    0.0
2021/10/08 03:00:42.000   28 35 34.11486  -17 55 01.60112    73.3633   6   8   0.0074   0.0183   0.0324   0.0075  -0.0172  -0.0082   0.00    0.0
2021/10/08 03:01:12.000   28 35 34.11486  -17 55 01.60111    73.3629   6   8   0.0074   0.0183   0.0324   0.0075  -0.0172  -0.0082   0.00    0.0
2021/10/08 03:01:42.000   28 35 34.11486  -17 55 01.60111    73.3625   6   8   0.0074   0.0183   0.0324   0.0075  -0.0172  -0.0082   0.00    0.0
2021/10/08 03:02:12.000   28 35 34.11486  -17 55 01.60111    73.3623   6   8   0.0074   0.0183   0.0324   0.0075  -0.0172  -0.0082   0.00    0.0
2021/10/08 03:02:42.000   28 35 34.11486  -17 55 01.60111    73.3618   6   8   0.0074   0.0183   0.0324   0.0075  -0.0172  -0.0082   0.00    0.0
2021/10/08 03:03:12.000   28 35 34.11487  -17 55 01.60110    73.3608   6   8   0.0074   0.0183   0.0323   0.0075  -0.0172  -0.0082   0.00    0.0
2021/10/08 03:03:42.000   28 35 34.11487  -17 55 01.60109    73.3594   6   8   0.0074   0.0183   0.0323   0.0075  -0.0172  -0.0082   0.00    0.0
2021/10/08 03:04:12.000   28 35 34.11487  -17 55 01.60108    73.3593   6   8   0.0073   0.0183   0.0322   0.0075  -0.0173  -0.0082   0.00    0.0
2021/10/08 03:04:42.000   28 35 34.11490  -17 55 01.60110    73.3577   6   8   0.0073   0.0183   0.0320   0.0075  -0.0173  -0.0082   0.00    0.0
2021/10/08 03:05:12.000   28 35 34.11490  -17 55 01.60109    73.3573   6   8   0.0073   0.0183   0.0319   0.0075  -0.0173  -0.0082   0.00    0.0
2021/10/08 03:05:42.000   28 35 34.11490  -17 55 01.60109    73.3568   6   8   0.0073   0.0183   0.0319   0.0075  -0.0173  -0.0082   0.00    0.0
2021/10/08 03:06:12.000   28 35 34.11490  -17 55 01.60109    73.3563   6   8   0.0072   0.0182   0.0318   0.0075  -0.0173  -0.0082   0.00    0.0
2021/10/08 03:06:42.000   28 35 34.11490  -17 55 01.60108    73.3560   6   8   0.0072   0.0182   0.0318   0.0075  -0.0173  -0.0082   0.00    0.0
2021/10/08 03:07:12.000   28 35 34.11490  -17 55 01.60108    73.3560   6   8   0.0072   0.0182   0.0318   0.0075  -0.0173  -0.0082   0.00    0.0
2021/10/08 03:07:42.000   28 35 34.11491  -17 55 01.60108    73.3560   6   8   0.0072   0.0182   0.0318   0.0075  -0.0173  -0.0082   0.00    0.0
2021/10/08 03:08:12.000   28 35 34.11490  -17 55 01.60108    73.3561   6   8   0.0072   0.0182   0.0318   0.0075  -0.0173  -0.0082   0.00    0.0
2021/10/08 03:08:42.000   28 35 34.11490  -17 55 01.60108    73.3556   6   8   0.0072   0.0182   0.0318   0.0075  -0.0173  -0.0082   0.00    0.0
2021/10/08 03:09:12.000   28 35 34.11491  -17 55 01.60108    73.3542   6   8   0.0072   0.0182   0.0317   0.0075  -0.0173  -0.0082   0.00    0.0
2021/10/08 03:09:42.000   28 35 34.11493  -17 55 01.60109    73.3505   6   8   0.0072   0.0182   0.0314   0.0076  -0.0174  -0.0082   0.00    0.0
2021/10/08 03:10:12.000   28 35 34.11494  -17 55 01.60108    73.3505   6   8   0.0071   0.0182   0.0314   0.0076  -0.0174  -0.0082   0.00    0.0
2021/10/08 03:10:42.000   28 35 34.11494  -17 55 01.60107    73.3504   6   8   0.0071   0.0182   0.0313   0.0076  -0.0174  -0.0082   0.00    0.0
2021/10/08 03:11:12.000   28 35 34.11494  -17 55 01.60106    73.3503   6   8   0.0071   0.0182   0.0313   0.0076  -0.0174  -0.0082   0.00    0.0
2021/10/08 03:11:42.000   28 35 34.11494  -17 55 01.60106    73.3502   6   8   0.0071   0.0182   0.0313   0.0076  -0.0174  -0.0082   0.00    0.0
2021/10/08 03:12:12.000   28 35 34.11494  -17 55 01.60106    73.3503   6   8   0.0071   0.0182   0.0313   0.0076  -0.0174  -0.0082   0.00    0.0
2021/10/08 03:12:42.000   28 35 34.11494  -17 55 01.60106    73.3503   6   8   0.0071   0.0182   0.0313   0.0076  -0.0174  -0.0082   0.00    0.0
2021/10/08 03:13:12.000   28 35 34.11494  -17 55 01.60107    73.3498   6   8   0.0071   0.0182   0.0313   0.0076  -0.0174  -0.0082   0.00    0.0
2021/10/08 03:13:42.000   28 35 34.11494  -17 55 01.60107    73.3483   6   8   0.0071   0.0182   0.0313   0.0076  -0.0174  -0.0082   0.00    0.0
2021/10/08 03:14:12.000   28 35 34.11497  -17 55 01.60109    73.3448   6   8   0.0071   0.0182   0.0312   0.0076  -0.0174  -0.0082   0.00    0.0
2021/10/08 03:14:42.000   28 35 34.11500  -17 55 01.60110    73.3445   6   8   0.0070   0.0181   0.0310   0.0076  -0.0174  -0.0082   0.00    0.0
2021/10/08 03:15:12.000   28 35 34.11500  -17 55 01.60111    73.3440   6   8   0.0070   0.0181   0.0309   0.0076  -0.0175  -0.0082   0.00    0.0
2021/10/08 03:15:42.000   28 35 34.11500  -17 55 01.60111    73.3438   6   8   0.0070   0.0181   0.0309   0.0076  -0.0175  -0.0082   0.00    0.0
2021/10/08 03:16:12.000   28 35 34.11500  -17 55 01.60111    73.3435   6   8   0.0070   0.0181   0.0309   0.0076  -0.0175  -0.0082   0.00    0.0
2021/10/08 03:16:42.000   28 35 34.11500  -17 55 01.60111    73.3433   6   8   0.0070   0.0181   0.0309   0.0076  -0.0175  -0.0082   0.00    0.0
2021/10/08 03:17:12.000   28 35 34.11500  -17 55 01.60110    73.3431   6   8   0.0070   0.0181   0.0309   0.0076  -0.0175  -0.0082   0.00    0.0
2021/10/08 03:17:42.000   28 35 34.11500  -17 55 01.60110    73.3426   6   8   0.0070   0.0181   0.0308   0.0076  -0.0175  -0.0082   0.00    0.0
2021/10/08 03:18:12.000   28 35 34.11501  -17 55 01.60110    73.3421   6   8   0.0070   0.0181   0.0308   0.0076  -0.0175  -0.0082   0.00    0.0
2021/10/08 03:18:42.000   28 35 34.11501  -17 55 01.60110    73.3417   6   8   0.0070   0.0181   0.0308   0.0076  -0.0175  -0.0082   0.00    0.0
2021/10/08 03:19:12.000   28 35 34.11503  -17 55 01.60111    73.3404   6   8   0.0070   0.0181   0.0307   0.0076  -0.0175  -0.0082   0.00    0.0
2021/10/08 03:19:42.000   28 35 34.11505  -17 55 01.60112    73.3395   6   8   0.0069   0.0181   0.0305   0.0076  -0.0175  -0.0082   0.00    0.0
2021/10/08 03:20:12.000   28 35 34.11506  -17 55 01.60112    73.3403   6   8   0.0069   0.0181   0.0305   0.0076  -0.0175  -0.0082   0.00    0.0
2021/10/08 03:20:42.000   28 35 34.11506  -17 55 01.60112    73.3400   6   8   0.0069   0.0181   0.0305   0.0076  -0.0175  -0.0081   0.00    0.0
2021/10/08 03:21:12.000   28 35 34.11506  -17 55 01.60111    73.3396   6   8   0.0069   0.0181   0.0305   0.0076  -0.0175  -0.0081   0.00    0.0
2021/10/08 03:21:42.000   28 35 34.11506  -17 55 01.60111    73.3394   6   8   0.0069   0.0181   0.0305   0.0076  -0.0175  -0.0081   0.00    0.0
2021/10/08 03:22:12.000   28 35 34.11507  -17 55 01.60110    73.3392   6   8   0.0069   0.0181   0.0304   0.0076  -0.0175  -0.0081   0.00    0.0
2021/10/08 03:22:42.000   28 35 34.11507  -17 55 01.60109    73.3391   6   8   0.0069   0.0181   0.0304   0.0076  -0.0175  -0.0081   0.00    0.0
2021/10/08 03:23:12.000   28 35 34.11507  -17 55 01.60109    73.3389   6   8   0.0069   0.0180   0.0304   0.0076  -0.0175  -0.0081   0.00    0.0
