% program   : RTKLIB ver.2.4.2
% inp file  : C:\IPNA\data\OBS\CVBB2910.o
% inp file  : C:\IPNA\data\NAV\CVBB2910.n
% inp file  : C:\IPNA\data\SP3\CVBB2910.sp3
% inp file  : C:\IPNA\data\CLOCK\CVBB2910.clk
% obs start : 2021/10/17 23:59:42.0 UTC (week2180  86400.0s)
% obs end   : 2021/10/18 23:59:12.0 UTC (week2180 172770.0s)
% pos mode  : ppp-static
% solution  : forward
% elev mask : 15.0 deg
% dynamics  : off
% tidecorr  : on
% tropo opt : est ztd
% ephemeris : precise
% antenna1  :                       ( 0.0000  0.0000  0.0000)
%
% (lat/lon/height=WGS84/ellipsoidal,Q=1:fix,2:float,3:sbas,4:dgps,5:single,6:ppp,ns=# of satellites)
%  UTC                     latitude(d'")   longitude(d'")  height(m)   Q  ns   sdn(m)   sde(m)   sdu(m)  sdne(m)  sdeu(m)  sdue(m) age(s)  ratio
2021/10/17 23:59:42.000   28 35 34.08382  -17 55 01.59472    75.0842   6   6   1.5723   1.5759   4.3319  -0.2600   1.4004  -1.5920   0.00    0.0
2021/10/18 00:00:12.000   28 35 34.09543  -17 55 01.59536    74.3657   6   6   1.0938   1.1087   2.8951  -0.1356   0.9289  -1.0622   0.00    0.0
2021/10/18 00:00:42.000   28 35 34.09303  -17 55 01.60652    73.8915   6   6   0.8861   0.9036   2.2983  -0.0838   0.7342  -0.8413   0.00    0.0
2021/10/18 00:01:12.000   28 35 34.09472  -17 55 01.61749    73.6880   6   6   0.7637   0.7822   1.9569  -0.0509   0.6231  -0.7138   0.00    0.0
2021/10/18 00:01:42.000   28 35 34.09467  -17 55 01.61181    73.9413   6   6   0.6809   0.6997   1.7306  -0.0198   0.5497  -0.6284   0.00    0.0
2021/10/18 00:02:12.000   28 35 34.09437  -17 55 01.60888    74.0142   6   6   0.6203   0.6392   1.5674   0.0293   0.4968  -0.5663   0.00    0.0
2021/10/18 00:02:42.000   28 35 34.09374  -17 55 01.60634    73.9738   6   6   0.5688   0.5906   1.4083   0.0527   0.4432  -0.5069   0.00    0.0
2021/10/18 00:03:12.000   28 35 34.09704  -17 55 01.60640    73.9885   6   6   0.5206   0.5493   1.2362   0.0727   0.3824  -0.4435   0.00    0.0
2021/10/18 00:03:42.000   28 35 34.10158  -17 55 01.60472    73.7792   6   6   0.4678   0.5121   1.0346   0.0903   0.3071  -0.3669   0.00    0.0
2021/10/18 00:04:12.000   28 35 34.10322  -17 55 01.60263    73.5952   6   6   0.3969   0.4757   0.8006   0.1008   0.2123  -0.2630   0.00    0.0
2021/10/18 00:04:42.000   28 35 34.10707  -17 55 01.60115    73.4742   6   6   0.3165   0.4397   0.6218   0.0920   0.1291  -0.1508   0.00    0.0
2021/10/18 00:05:12.000   28 35 34.10734  -17 55 01.60113    73.4915   6   6   0.2985   0.4201   0.5912   0.0895   0.1203  -0.1348   0.00    0.0
2021/10/18 00:05:42.000   28 35 34.10658  -17 55 01.60079    73.5006   6   6   0.2889   0.4044   0.5782   0.0874   0.1194  -0.1287   0.00    0.0
2021/10/18 00:06:12.000   28 35 34.10658  -17 55 01.60298    73.5118   6   6   0.2816   0.3909   0.5695   0.0856   0.1201  -0.1249   0.00    0.0
2021/10/18 00:06:42.000   28 35 34.10695  -17 55 01.60397    73.5057   6   6   0.2755   0.3789   0.5627   0.0839   0.1210  -0.1220   0.00    0.0
2021/10/18 00:07:12.000   28 35 34.10721  -17 55 01.60245    73.5280   6   7   0.2701   0.3659   0.5567   0.0836   0.1190  -0.1191   0.00    0.0
2021/10/18 00:07:42.000   28 35 34.10678  -17 55 01.60272    73.5099   6   7   0.2639   0.3540   0.5487   0.0831   0.1163  -0.1149   0.00    0.0
2021/10/18 00:08:12.000   28 35 34.10757  -17 55 01.60261    73.4512   6   7   0.2561   0.3426   0.5368   0.0826   0.1123  -0.1076   0.00    0.0
2021/10/18 00:08:42.000   28 35 34.10908  -17 55 01.60256    73.3618   6   7   0.2442   0.3311   0.5164   0.0817   0.1054  -0.0925   0.00    0.0
2021/10/18 00:09:12.000   28 35 34.11122  -17 55 01.60389    73.2171   6   7   0.2209   0.3169   0.4765   0.0791   0.0920  -0.0482   0.00    0.0
2021/10/18 00:09:42.000   28 35 34.11069  -17 55 01.60360    73.3059   6   7   0.1811   0.2958   0.4198   0.0672   0.0694   0.0732   0.00    0.0
2021/10/18 00:10:12.000   28 35 34.11027  -17 55 01.60287    73.3159   6   7   0.1732   0.2866   0.4062   0.0666   0.0683   0.0785   0.00    0.0
2021/10/18 00:10:42.000   28 35 34.10987  -17 55 01.60243    73.2993   6   7   0.1698   0.2799   0.4006   0.0664   0.0689   0.0796   0.00    0.0
2021/10/18 00:11:12.000   28 35 34.10928  -17 55 01.60160    73.3010   6   7   0.1676   0.2742   0.3971   0.0661   0.0697   0.0798   0.00    0.0
2021/10/18 00:11:42.000   28 35 34.10890  -17 55 01.60114    73.3132   6   7   0.1659   0.2690   0.3944   0.0658   0.0704   0.0798   0.00    0.0
2021/10/18 00:12:12.000   28 35 34.10867  -17 55 01.60090    73.3227   6   7   0.1644   0.2642   0.3922   0.0656   0.0711   0.0796   0.00    0.0
2021/10/18 00:12:42.000   28 35 34.10830  -17 55 01.60123    73.3262   6   7   0.1626   0.2594   0.3889   0.0653   0.0714   0.0796   0.00    0.0
2021/10/18 00:13:12.000   28 35 34.10784  -17 55 01.60069    73.3369   6   7   0.1599   0.2545   0.3832   0.0649   0.0710   0.0799   0.00    0.0
2021/10/18 00:13:42.000   28 35 34.10788  -17 55 01.59999    73.3262   6   7   0.1552   0.2488   0.3722   0.0641   0.0693   0.0806   0.00    0.0
2021/10/18 00:14:12.000   28 35 34.10872  -17 55 01.60059    73.2753   6   7   0.1443   0.2401   0.3476   0.0617   0.0637   0.0817   0.00    0.0
2021/10/18 00:14:42.000   28 35 34.10906  -17 55 01.60103    73.3670   6   7   0.1215   0.2235   0.3060   0.0512   0.0470   0.0798   0.00    0.0
2021/10/18 00:15:12.000   28 35 34.10880  -17 55 01.60104    73.4445   6   7   0.1168   0.2176   0.2936   0.0504   0.0454   0.0783   0.00    0.0
2021/10/18 00:15:42.000   28 35 34.10888  -17 55 01.60066    73.4764   6   7   0.1151   0.2141   0.2888   0.0501   0.0454   0.0774   0.00    0.0
2021/10/18 00:16:12.000   28 35 34.10897  -17 55 01.60031    73.4991   6   7   0.1140   0.2112   0.2860   0.0500   0.0457   0.0769   0.00    0.0
2021/10/18 00:16:42.000   28 35 34.10892  -17 55 01.60056    73.5256   6   7   0.1133   0.2087   0.2841   0.0498   0.0461   0.0765   0.00    0.0
2021/10/18 00:17:12.000   28 35 34.10882  -17 55 01.60050    73.5411   6   7   0.1127   0.2063   0.2827   0.0497   0.0465   0.0761   0.00    0.0
2021/10/18 00:17:42.000   28 35 34.10896  -17 55 01.60039    73.5466   6   7   0.1118   0.2039   0.2804   0.0496   0.0466   0.0756   0.00    0.0
2021/10/18 00:18:12.000   28 35 34.10905  -17 55 01.60005    73.5558   6   7   0.1105   0.2011   0.2765   0.0493   0.0465   0.0748   0.00    0.0
2021/10/18 00:18:42.000   28 35 34.10937  -17 55 01.60018    73.5539   6   7   0.1081   0.1976   0.2689   0.0488   0.0454   0.0731   0.00    0.0
2021/10/18 00:19:12.000   28 35 34.10947  -17 55 01.60034    73.5346   6   7   0.1019   0.1913   0.2519   0.0471   0.0419   0.0693   0.00    0.0
2021/10/18 00:19:42.000   28 35 34.11024  -17 55 01.60100    73.5430   6   7   0.0874   0.1771   0.2221   0.0388   0.0269   0.0613   0.00    0.0
2021/10/18 00:20:12.000   28 35 34.10988  -17 55 01.60136    73.5748   6   7   0.0845   0.1729   0.2134   0.0383   0.0264   0.0592   0.00    0.0
2021/10/18 00:20:42.000   28 35 34.10975  -17 55 01.60133    73.5810   6   7   0.0834   0.1707   0.2101   0.0381   0.0267   0.0584   0.00    0.0
2021/10/18 00:21:12.000   28 35 34.10964  -17 55 01.60123    73.5823   6   7   0.0828   0.1690   0.2083   0.0380   0.0270   0.0579   0.00    0.0
2021/10/18 00:21:42.000   28 35 34.10960  -17 55 01.60118    73.5765   6   8   0.0824   0.1674   0.2071   0.0379   0.0272   0.0576   0.00    0.0
2021/10/18 00:22:12.000   28 35 34.10952  -17 55 01.60105    73.5749   6   8   0.0821   0.1660   0.2063   0.0377   0.0274   0.0574   0.00    0.0
2021/10/18 00:22:42.000   28 35 34.10942  -17 55 01.60131    73.5755   6   8   0.0816   0.1644   0.2049   0.0375   0.0275   0.0570   0.00    0.0
2021/10/18 00:23:12.000   28 35 34.10940  -17 55 01.60142    73.5656   6   8   0.0809   0.1626   0.2026   0.0373   0.0275   0.0563   0.00    0.0
2021/10/18 00:23:42.000   28 35 34.10937  -17 55 01.60135    73.5509   6   8   0.0794   0.1601   0.1980   0.0368   0.0270   0.0550   0.00    0.0
2021/10/18 00:24:12.000   28 35 34.10919  -17 55 01.60196    73.5344   6   8   0.0757   0.1551   0.1875   0.0356   0.0250   0.0519   0.00    0.0
2021/10/18 00:24:42.000   28 35 34.11034  -17 55 01.60181    73.5573   6   8   0.0662   0.1432   0.1683   0.0295   0.0105   0.0446   0.00    0.0
2021/10/18 00:25:12.000   28 35 34.11062  -17 55 01.60169    73.5692   6   8   0.0642   0.1399   0.1623   0.0291   0.0109   0.0430   0.00    0.0
2021/10/18 00:25:42.000   28 35 34.11048  -17 55 01.60179    73.5673   6   8   0.0635   0.1383   0.1601   0.0290   0.0114   0.0424   0.00    0.0
2021/10/18 00:26:12.000   28 35 34.11046  -17 55 01.60179    73.5716   6   8   0.0631   0.1371   0.1589   0.0288   0.0117   0.0421   0.00    0.0
2021/10/18 00:26:42.000   28 35 34.11044  -17 55 01.60173    73.5747   6   8   0.0629   0.1362   0.1582   0.0287   0.0119   0.0419   0.00    0.0
2021/10/18 00:27:12.000   28 35 34.11039  -17 55 01.60160    73.5801   6   8   0.0627   0.1353   0.1576   0.0286   0.0121   0.0417   0.00    0.0
2021/10/18 00:27:42.000   28 35 34.11035  -17 55 01.60149    73.5816   6   8   0.0624   0.1344   0.1567   0.0285   0.0121   0.0414   0.00    0.0
2021/10/18 00:28:12.000   28 35 34.11025  -17 55 01.60173    73.5875   6   8   0.0619   0.1332   0.1552   0.0283   0.0120   0.0410   0.00    0.0
2021/10/18 00:28:42.000   28 35 34.11011  -17 55 01.60198    73.5831   6   8   0.0610   0.1313   0.1523   0.0280   0.0114   0.0399   0.00    0.0
2021/10/18 00:29:12.000   28 35 34.11064  -17 55 01.60199    73.5779   6   8   0.0585   0.1274   0.1455   0.0273   0.0106   0.0375   0.00    0.0
2021/10/18 00:29:42.000   28 35 34.11145  -17 55 01.60200    73.5764   6   8   0.0520   0.1177   0.1329   0.0229  -0.0115   0.0318   0.00    0.0
2021/10/18 00:30:12.000   28 35 34.11160  -17 55 01.60183    73.5865   6   8   0.0506   0.1150   0.1286   0.0227  -0.0103   0.0304   0.00    0.0
2021/10/18 00:30:42.000   28 35 34.11175  -17 55 01.60168    73.5820   6   8   0.0501   0.1139   0.1271   0.0226  -0.0097   0.0300   0.00    0.0
2021/10/18 00:31:12.000   28 35 34.11185  -17 55 01.60166    73.5764   6   8   0.0498   0.1131   0.1262   0.0225  -0.0094   0.0297   0.00    0.0
2021/10/18 00:31:42.000   28 35 34.11189  -17 55 01.60168    73.5750   6   8   0.0496   0.1125   0.1257   0.0225  -0.0092   0.0296   0.00    0.0
2021/10/18 00:32:12.000   28 35 34.11191  -17 55 01.60153    73.5751   6   7   0.0495   0.1120   0.1254   0.0224  -0.0088   0.0295   0.00    0.0
2021/10/18 00:32:42.000   28 35 34.11197  -17 55 01.60136    73.5725   6   7   0.0494   0.1113   0.1250   0.0224  -0.0082   0.0295   0.00    0.0
2021/10/18 00:33:12.000   28 35 34.11209  -17 55 01.60118    73.5657   6   7   0.0491   0.1105   0.1242   0.0224  -0.0072   0.0293   0.00    0.0
2021/10/18 00:33:42.000   28 35 34.11228  -17 55 01.60087    73.5583   6   7   0.0485   0.1092   0.1226   0.0223  -0.0049   0.0290   0.00    0.0
2021/10/18 00:34:12.000   28 35 34.11249  -17 55 01.60066    73.5483   6   6   0.0469   0.1062   0.1193   0.0222  -0.0035   0.0275   0.00    0.0
2021/10/18 00:34:42.000   28 35 34.11295  -17 55 01.60072    73.5472   6   6   0.0424   0.0983   0.1120   0.0199  -0.0117   0.0232   0.00    0.0
2021/10/18 00:35:12.000   28 35 34.11314  -17 55 01.60066    73.5426   6   6   0.0414   0.0963   0.1098   0.0199  -0.0110   0.0224   0.00    0.0
2021/10/18 00:35:42.000   28 35 34.11325  -17 55 01.60054    73.5417   6   6   0.0411   0.0955   0.1091   0.0199  -0.0106   0.0221   0.00    0.0
2021/10/18 00:36:12.000   28 35 34.11329  -17 55 01.60054    73.5396   6   6   0.0409   0.0950   0.1087   0.0199  -0.0104   0.0219   0.00    0.0
2021/10/18 00:36:42.000   28 35 34.11332  -17 55 01.60049    73.5368   6   6   0.0408   0.0946   0.1085   0.0198  -0.0103   0.0219   0.00    0.0
2021/10/18 00:37:12.000   28 35 34.11335  -17 55 01.60042    73.5340   6   6   0.0407   0.0943   0.1083   0.0198  -0.0103   0.0218   0.00    0.0
2021/10/18 00:37:42.000   28 35 34.11340  -17 55 01.60032    73.5301   6   6   0.0406   0.0939   0.1080   0.0198  -0.0102   0.0217   0.00    0.0
2021/10/18 00:38:12.000   28 35 34.11350  -17 55 01.60009    73.5238   6   6   0.0404   0.0933   0.1076   0.0198  -0.0100   0.0215   0.00    0.0
2021/10/18 00:38:42.000   28 35 34.11364  -17 55 01.59993    73.5171   6   6   0.0400   0.0924   0.1068   0.0198  -0.0097   0.0211   0.00    0.0
2021/10/18 00:39:12.000   28 35 34.11386  -17 55 01.59983    73.5073   6   6   0.0389   0.0900   0.1045   0.0196  -0.0096   0.0199   0.00    0.0
2021/10/18 00:39:42.000   28 35 34.11396  -17 55 01.60012    73.5035   6   6   0.0356   0.0835   0.0996   0.0178  -0.0144   0.0160   0.00    0.0
2021/10/18 00:40:12.000   28 35 34.11395  -17 55 01.60012    73.5066   6   6   0.0349   0.0819   0.0981   0.0177  -0.0140   0.0151   0.00    0.0
2021/10/18 00:40:42.000   28 35 34.11396  -17 55 01.60007    73.5085   6   6   0.0346   0.0812   0.0976   0.0177  -0.0139   0.0149   0.00    0.0
2021/10/18 00:41:12.000   28 35 34.11395  -17 55 01.60000    73.5096   6   6   0.0345   0.0809   0.0973   0.0176  -0.0138   0.0148   0.00    0.0
2021/10/18 00:41:42.000   28 35 34.11394  -17 55 01.59994    73.5102   6   6   0.0344   0.0806   0.0971   0.0176  -0.0137   0.0147   0.00    0.0
2021/10/18 00:42:12.000   28 35 34.11392  -17 55 01.59994    73.5096   6   6   0.0344   0.0804   0.0970   0.0176  -0.0137   0.0146   0.00    0.0
2021/10/18 00:42:42.000   28 35 34.11392  -17 55 01.59995    73.5077   6   6   0.0343   0.0801   0.0969   0.0176  -0.0137   0.0146   0.00    0.0
2021/10/18 00:43:12.000   28 35 34.11391  -17 55 01.59998    73.5036   6   6   0.0341   0.0796   0.0966   0.0175  -0.0137   0.0144   0.00    0.0
2021/10/18 00:43:42.000   28 35 34.11394  -17 55 01.59993    73.5004   6   6   0.0339   0.0789   0.0960   0.0175  -0.0137   0.0140   0.00    0.0
2021/10/18 00:44:12.000   28 35 34.11405  -17 55 01.59987    73.4993   6   6   0.0330   0.0770   0.0946   0.0173  -0.0141   0.0128   0.00    0.0
2021/10/18 00:44:42.000   28 35 34.11412  -17 55 01.60017    73.4978   6   6   0.0306   0.0717   0.0913   0.0159  -0.0174   0.0081   0.00    0.0
2021/10/18 00:45:12.000   28 35 34.11419  -17 55 01.60019    73.5012   6   6   0.0300   0.0704   0.0902   0.0159  -0.0173   0.0070   0.00    0.0
2021/10/18 00:45:42.000   28 35 34.11422  -17 55 01.60014    73.5022   6   6   0.0299   0.0699   0.0899   0.0158  -0.0172   0.0066   0.00    0.0
2021/10/18 00:46:12.000   28 35 34.11424  -17 55 01.60012    73.5037   6   6   0.0298   0.0696   0.0897   0.0158  -0.0172   0.0064   0.00    0.0
2021/10/18 00:46:42.000   28 35 34.11425  -17 55 01.60010    73.5057   6   6   0.0297   0.0694   0.0896   0.0158  -0.0172   0.0063   0.00    0.0
2021/10/18 00:47:12.000   28 35 34.11425  -17 55 01.60007    73.5076   6   6   0.0297   0.0692   0.0895   0.0158  -0.0172   0.0062   0.00    0.0
2021/10/18 00:47:42.000   28 35 34.11428  -17 55 01.60001    73.5099   6   6   0.0296   0.0690   0.0894   0.0157  -0.0172   0.0060   0.00    0.0
2021/10/18 00:48:12.000   28 35 34.11432  -17 55 01.59994    73.5119   6   6   0.0295   0.0687   0.0892   0.0157  -0.0172   0.0058   0.00    0.0
2021/10/18 00:48:42.000   28 35 34.11438  -17 55 01.59990    73.5143   6   6   0.0293   0.0681   0.0889   0.0157  -0.0172   0.0050   0.00    0.0
2021/10/18 00:49:12.000   28 35 34.11450  -17 55 01.59994    73.5167   6   6   0.0286   0.0666   0.0879   0.0156  -0.0174   0.0005   0.00    0.0
2021/10/18 00:49:42.000   28 35 34.11452  -17 55 01.60025    73.5115   6   6   0.0268   0.0622   0.0855   0.0149  -0.0196  -0.0087   0.00    0.0
2021/10/18 00:50:12.000   28 35 34.11443  -17 55 01.60036    73.5114   6   6   0.0263   0.0611   0.0849   0.0148  -0.0196  -0.0095   0.00    0.0
2021/10/18 00:50:42.000   28 35 34.11443  -17 55 01.60034    73.5135   6   6   0.0262   0.0607   0.0846   0.0148  -0.0196  -0.0097   0.00    0.0
2021/10/18 00:51:12.000   28 35 34.11444  -17 55 01.60027    73.5140   6   6   0.0261   0.0605   0.0845   0.0148  -0.0196  -0.0098   0.00    0.0
2021/10/18 00:51:42.000   28 35 34.11444  -17 55 01.60020    73.5158   6   6   0.0261   0.0603   0.0844   0.0148  -0.0196  -0.0099   0.00    0.0
2021/10/18 00:52:12.000   28 35 34.11443  -17 55 01.60015    73.5165   6   6   0.0260   0.0602   0.0844   0.0147  -0.0196  -0.0099   0.00    0.0
2021/10/18 00:52:42.000   28 35 34.11442  -17 55 01.60016    73.5169   6   6   0.0260   0.0600   0.0843   0.0147  -0.0197  -0.0100   0.00    0.0
2021/10/18 00:53:12.000   28 35 34.11440  -17 55 01.60018    73.5177   6   6   0.0259   0.0598   0.0842   0.0147  -0.0197  -0.0101   0.00    0.0
2021/10/18 00:53:42.000   28 35 34.11436  -17 55 01.60023    73.5185   6   6   0.0257   0.0593   0.0840   0.0147  -0.0198  -0.0104   0.00    0.0
2021/10/18 00:54:12.000   28 35 34.11426  -17 55 01.60035    73.5194   6   6   0.0252   0.0581   0.0834   0.0146  -0.0202  -0.0113   0.00    0.0
2021/10/18 00:54:42.000   28 35 34.11429  -17 55 01.60059    73.5155   6   6   0.0238   0.0545   0.0818   0.0141  -0.0220  -0.0137   0.00    0.0
2021/10/18 00:55:12.000   28 35 34.11433  -17 55 01.60057    73.5149   6   6   0.0235   0.0537   0.0813   0.0140  -0.0222  -0.0141   0.00    0.0
2021/10/18 00:55:42.000   28 35 34.11431  -17 55 01.60058    73.5155   6   6   0.0234   0.0534   0.0812   0.0140  -0.0222  -0.0143   0.00    0.0
2021/10/18 00:56:12.000   28 35 34.11430  -17 55 01.60059    73.5159   6   6   0.0233   0.0532   0.0811   0.0140  -0.0223  -0.0143   0.00    0.0
2021/10/18 00:56:42.000   28 35 34.11430  -17 55 01.60060    73.5162   6   6   0.0233   0.0531   0.0811   0.0140  -0.0223  -0.0143   0.00    0.0
2021/10/18 00:57:12.000   28 35 34.11430  -17 55 01.60058    73.5167   6   6   0.0233   0.0530   0.0810   0.0140  -0.0223  -0.0144   0.00    0.0
2021/10/18 00:57:42.000   28 35 34.11431  -17 55 01.60050    73.5173   6   6   0.0232   0.0529   0.0810   0.0139  -0.0223  -0.0144   0.00    0.0
2021/10/18 00:58:12.000   28 35 34.11432  -17 55 01.60043    73.5180   6   6   0.0232   0.0527   0.0809   0.0139  -0.0223  -0.0145   0.00    0.0
2021/10/18 00:58:42.000   28 35 34.11435  -17 55 01.60043    73.5197   6   6   0.0230   0.0523   0.0808   0.0139  -0.0224  -0.0147   0.00    0.0
2021/10/18 00:59:12.000   28 35 34.11438  -17 55 01.60054    73.5217   6   6   0.0227   0.0513   0.0804   0.0139  -0.0228  -0.0152   0.00    0.0
2021/10/18 00:59:42.000   28 35 34.11434  -17 55 01.60088    73.5223   6   6   0.0216   0.0485   0.0792   0.0136  -0.0243  -0.0167   0.00    0.0
2021/10/18 01:00:12.000   28 35 34.11436  -17 55 01.60092    73.5218   6   6   0.0213   0.0478   0.0789   0.0136  -0.0245  -0.0170   0.00    0.0
2021/10/18 01:00:42.000   28 35 34.11436  -17 55 01.60092    73.5217   6   6   0.0212   0.0476   0.0788   0.0136  -0.0246  -0.0171   0.00    0.0
2021/10/18 01:01:12.000   28 35 34.11435  -17 55 01.60088    73.5221   6   6   0.0212   0.0474   0.0788   0.0136  -0.0246  -0.0172   0.00    0.0
2021/10/18 01:01:42.000   28 35 34.11434  -17 55 01.60084    73.5227   6   6   0.0212   0.0473   0.0787   0.0136  -0.0246  -0.0172   0.00    0.0
2021/10/18 01:02:12.000   28 35 34.11434  -17 55 01.60079    73.5234   6   6   0.0212   0.0473   0.0787   0.0136  -0.0246  -0.0172   0.00    0.0
2021/10/18 01:02:42.000   28 35 34.11434  -17 55 01.60071    73.5245   6   6   0.0211   0.0472   0.0787   0.0136  -0.0247  -0.0173   0.00    0.0
2021/10/18 01:03:12.000   28 35 34.11434  -17 55 01.60069    73.5251   6   6   0.0211   0.0470   0.0786   0.0136  -0.0247  -0.0173   0.00    0.0
2021/10/18 01:03:42.000   28 35 34.11433  -17 55 01.60071    73.5259   6   6   0.0210   0.0467   0.0785   0.0136  -0.0248  -0.0175   0.00    0.0
2021/10/18 01:04:12.000   28 35 34.11431  -17 55 01.60081    73.5264   6   6   0.0207   0.0459   0.0782   0.0136  -0.0252  -0.0178   0.00    0.0
2021/10/18 01:04:42.000   28 35 34.11427  -17 55 01.60114    73.5246   6   6   0.0198   0.0436   0.0772   0.0135  -0.0264  -0.0190   0.00    0.0
2021/10/18 01:05:12.000   28 35 34.11425  -17 55 01.60118    73.5229   6   6   0.0196   0.0431   0.0769   0.0135  -0.0266  -0.0192   0.00    0.0
2021/10/18 01:05:42.000   28 35 34.11423  -17 55 01.60121    73.5221   6   6   0.0196   0.0429   0.0768   0.0135  -0.0267  -0.0193   0.00    0.0
2021/10/18 01:06:12.000   28 35 34.11421  -17 55 01.60121    73.5218   6   6   0.0195   0.0428   0.0768   0.0135  -0.0267  -0.0193   0.00    0.0
2021/10/18 01:06:42.000   28 35 34.11419  -17 55 01.60118    73.5216   6   6   0.0195   0.0427   0.0767   0.0135  -0.0267  -0.0193   0.00    0.0
2021/10/18 01:07:12.000   28 35 34.11418  -17 55 01.60118    73.5218   6   6   0.0195   0.0427   0.0767   0.0135  -0.0267  -0.0194   0.00    0.0
2021/10/18 01:07:42.000   28 35 34.11417  -17 55 01.60118    73.5219   6   6   0.0195   0.0426   0.0767   0.0135  -0.0267  -0.0194   0.00    0.0
2021/10/18 01:08:12.000   28 35 34.11416  -17 55 01.60116    73.5213   6   6   0.0194   0.0425   0.0766   0.0135  -0.0268  -0.0194   0.00    0.0
2021/10/18 01:08:42.000   28 35 34.11416  -17 55 01.60113    73.5201   6   6   0.0194   0.0423   0.0765   0.0135  -0.0269  -0.0195   0.00    0.0
2021/10/18 01:09:12.000   28 35 34.11417  -17 55 01.60110    73.5130   6   6   0.0191   0.0417   0.0761   0.0136  -0.0271  -0.0198   0.00    0.0
2021/10/18 01:09:42.000   28 35 34.11418  -17 55 01.60129    73.5100   6   6   0.0185   0.0399   0.0750   0.0136  -0.0281  -0.0205   0.00    0.0
2021/10/18 01:10:12.000   28 35 34.11423  -17 55 01.60125    73.5111   6   5   0.0183   0.0394   0.0749   0.0136  -0.0283  -0.0207   0.00    0.0
2021/10/18 01:10:42.000   28 35 34.11423  -17 55 01.60124    73.5108   6   5   0.0183   0.0393   0.0748   0.0136  -0.0283  -0.0207   0.00    0.0
2021/10/18 01:11:12.000   28 35 34.11422  -17 55 01.60123    73.5108   6   5   0.0183   0.0392   0.0748   0.0136  -0.0283  -0.0208   0.00    0.0
2021/10/18 01:11:42.000   28 35 34.11422  -17 55 01.60122    73.5108   6   5   0.0182   0.0392   0.0747   0.0136  -0.0283  -0.0208   0.00    0.0
2021/10/18 01:12:12.000   28 35 34.11423  -17 55 01.60120    73.5109   6   5   0.0182   0.0391   0.0747   0.0136  -0.0283  -0.0208   0.00    0.0
2021/10/18 01:12:42.000   28 35 34.11423  -17 55 01.60119    73.5113   6   5   0.0182   0.0391   0.0747   0.0136  -0.0283  -0.0208   0.00    0.0
2021/10/18 01:13:12.000   28 35 34.11422  -17 55 01.60118    73.5104   6   5   0.0182   0.0390   0.0747   0.0136  -0.0284  -0.0208   0.00    0.0
2021/10/18 01:13:42.000   28 35 34.11420  -17 55 01.60123    73.5090   6   5   0.0181   0.0388   0.0746   0.0136  -0.0284  -0.0209   0.00    0.0
2021/10/18 01:14:12.000   28 35 34.11415  -17 55 01.60136    73.5045   6   5   0.0179   0.0383   0.0744   0.0137  -0.0287  -0.0211   0.00    0.0
2021/10/18 01:14:42.000   28 35 34.11419  -17 55 01.60158    73.5042   6   5   0.0174   0.0369   0.0736   0.0138  -0.0295  -0.0216   0.00    0.0
2021/10/18 01:15:12.000   28 35 34.11419  -17 55 01.60163    73.5047   6   5   0.0173   0.0366   0.0735   0.0138  -0.0297  -0.0217   0.00    0.0
2021/10/18 01:15:42.000   28 35 34.11419  -17 55 01.60165    73.5055   6   5   0.0173   0.0364   0.0734   0.0138  -0.0297  -0.0217   0.00    0.0
2021/10/18 01:16:12.000   28 35 34.11419  -17 55 01.60165    73.5054   6   5   0.0172   0.0364   0.0734   0.0138  -0.0297  -0.0218   0.00    0.0
2021/10/18 01:16:42.000   28 35 34.11419  -17 55 01.60163    73.5052   6   5   0.0172   0.0363   0.0734   0.0138  -0.0297  -0.0218   0.00    0.0
2021/10/18 01:17:12.000   28 35 34.11419  -17 55 01.60162    73.5051   6   5   0.0172   0.0363   0.0734   0.0138  -0.0297  -0.0218   0.00    0.0
2021/10/18 01:17:42.000   28 35 34.11418  -17 55 01.60160    73.5051   6   5   0.0172   0.0363   0.0733   0.0138  -0.0297  -0.0218   0.00    0.0
2021/10/18 01:18:12.000   28 35 34.11418  -17 55 01.60159    73.5051   6   5   0.0172   0.0362   0.0733   0.0138  -0.0298  -0.0218   0.00    0.0
2021/10/18 01:18:42.000   28 35 34.11417  -17 55 01.60160    73.5042   6   5   0.0171   0.0361   0.0732   0.0138  -0.0298  -0.0218   0.00    0.0
2021/10/18 01:19:12.000   28 35 34.11415  -17 55 01.60166    73.5022   6   5   0.0170   0.0357   0.0730   0.0139  -0.0300  -0.0220   0.00    0.0
2021/10/18 01:19:42.000   28 35 34.11417  -17 55 01.60176    73.4993   6   5   0.0166   0.0346   0.0722   0.0140  -0.0307  -0.0224   0.00    0.0
2021/10/18 01:20:12.000   28 35 34.11416  -17 55 01.60179    73.4985   6   5   0.0165   0.0343   0.0721   0.0140  -0.0308  -0.0224   0.00    0.0
2021/10/18 01:20:42.000   28 35 34.11416  -17 55 01.60179    73.4980   6   5   0.0164   0.0342   0.0720   0.0140  -0.0309  -0.0225   0.00    0.0
2021/10/18 01:21:12.000   28 35 34.11415  -17 55 01.60178    73.4975   6   5   0.0164   0.0342   0.0720   0.0140  -0.0309  -0.0225   0.00    0.0
2021/10/18 01:21:42.000   28 35 34.11415  -17 55 01.60178    73.4971   6   5   0.0164   0.0342   0.0719   0.0140  -0.0309  -0.0225   0.00    0.0
2021/10/18 01:22:12.000   28 35 34.11415  -17 55 01.60177    73.4971   6   5   0.0164   0.0341   0.0719   0.0140  -0.0309  -0.0225   0.00    0.0
2021/10/18 01:22:42.000   28 35 34.11415  -17 55 01.60177    73.4971   6   5   0.0164   0.0341   0.0719   0.0140  -0.0309  -0.0225   0.00    0.0
2021/10/18 01:23:12.000   28 35 34.11415  -17 55 01.60177    73.4970   6   5   0.0164   0.0341   0.0719   0.0140  -0.0309  -0.0225   0.00    0.0
2021/10/18 01:23:42.000   28 35 34.11414  -17 55 01.60178    73.4959   6   5   0.0163   0.0340   0.0718   0.0140  -0.0310  -0.0225   0.00    0.0
2021/10/18 01:24:12.000   28 35 34.11413  -17 55 01.60186    73.4925   6   5   0.0162   0.0337   0.0715   0.0141  -0.0311  -0.0226   0.00    0.0
2021/10/18 01:24:42.000   28 35 34.11415  -17 55 01.60196    73.4888   6   5   0.0159   0.0328   0.0707   0.0142  -0.0317  -0.0228   0.00    0.0
2021/10/18 01:25:12.000   28 35 34.11416  -17 55 01.60193    73.4882   6   5   0.0158   0.0326   0.0705   0.0143  -0.0318  -0.0229   0.00    0.0
2021/10/18 01:25:42.000   28 35 34.11416  -17 55 01.60191    73.4868   6   5   0.0158   0.0326   0.0705   0.0143  -0.0318  -0.0229   0.00    0.0
2021/10/18 01:26:12.000   28 35 34.11416  -17 55 01.60189    73.4859   6   5   0.0157   0.0325   0.0704   0.0143  -0.0319  -0.0229   0.00    0.0
2021/10/18 01:26:42.000   28 35 34.11416  -17 55 01.60187    73.4855   6   5   0.0157   0.0325   0.0704   0.0143  -0.0319  -0.0229   0.00    0.0
2021/10/18 01:27:12.000   28 35 34.11416  -17 55 01.60184    73.4852   6   5   0.0157   0.0325   0.0704   0.0143  -0.0319  -0.0229   0.00    0.0
2021/10/18 01:27:42.000   28 35 34.11416  -17 55 01.60183    73.4853   6   5   0.0157   0.0325   0.0704   0.0143  -0.0319  -0.0229   0.00    0.0
2021/10/18 01:28:12.000   28 35 34.11417  -17 55 01.60183    73.4855   6   5   0.0157   0.0324   0.0703   0.0143  -0.0319  -0.0229   0.00    0.0
2021/10/18 01:28:42.000   28 35 34.11416  -17 55 01.60186    73.4852   6   5   0.0157   0.0324   0.0702   0.0143  -0.0319  -0.0229   0.00    0.0
2021/10/18 01:29:12.000   28 35 34.11416  -17 55 01.60191    73.4828   6   5   0.0156   0.0321   0.0699   0.0143  -0.0320  -0.0230   0.00    0.0
2021/10/18 01:29:42.000   28 35 34.11417  -17 55 01.60201    73.4780   6   5   0.0153   0.0315   0.0690   0.0145  -0.0325  -0.0231   0.00    0.0
2021/10/18 01:30:12.000   28 35 34.11415  -17 55 01.60206    73.4737   6   5   0.0152   0.0314   0.0688   0.0145  -0.0326  -0.0231   0.00    0.0
2021/10/18 01:30:42.000   28 35 34.11413  -17 55 01.60209    73.4710   6   5   0.0152   0.0313   0.0687   0.0145  -0.0326  -0.0231   0.00    0.0
2021/10/18 01:31:12.000   28 35 34.11413  -17 55 01.60209    73.4704   6   5   0.0152   0.0313   0.0687   0.0145  -0.0326  -0.0231   0.00    0.0
2021/10/18 01:31:42.000   28 35 34.11413  -17 55 01.60209    73.4704   6   5   0.0152   0.0313   0.0686   0.0145  -0.0326  -0.0231   0.00    0.0
2021/10/18 01:32:12.000   28 35 34.11412  -17 55 01.60209    73.4705   6   5   0.0152   0.0312   0.0686   0.0145  -0.0326  -0.0231   0.00    0.0
2021/10/18 01:32:42.000   28 35 34.11412  -17 55 01.60209    73.4702   6   5   0.0152   0.0312   0.0686   0.0145  -0.0326  -0.0231   0.00    0.0
2021/10/18 01:33:12.000   28 35 34.11413  -17 55 01.60209    73.4699   6   5   0.0151   0.0312   0.0685   0.0145  -0.0326  -0.0231   0.00    0.0
2021/10/18 01:33:42.000   28 35 34.11414  -17 55 01.60209    73.4711   6   5   0.0151   0.0311   0.0684   0.0145  -0.0326  -0.0231   0.00    0.0
2021/10/18 01:34:12.000   28 35 34.11417  -17 55 01.60212    73.4728   6   5   0.0150   0.0310   0.0681   0.0145  -0.0327  -0.0231   0.00    0.0
2021/10/18 01:34:42.000   28 35 34.11420  -17 55 01.60222    73.4673   6   5   0.0148   0.0305   0.0671   0.0147  -0.0330  -0.0231   0.00    0.0
2021/10/18 01:35:12.000   28 35 34.11422  -17 55 01.60220    73.4681   6   5   0.0147   0.0304   0.0669   0.0147  -0.0331  -0.0231   0.00    0.0
2021/10/18 01:35:42.000   28 35 34.11422  -17 55 01.60219    73.4678   6   5   0.0147   0.0304   0.0668   0.0147  -0.0331  -0.0231   0.00    0.0
2021/10/18 01:36:12.000   28 35 34.11422  -17 55 01.60219    73.4681   6   5   0.0147   0.0303   0.0667   0.0147  -0.0331  -0.0231   0.00    0.0
2021/10/18 01:36:42.000   28 35 34.11423  -17 55 01.60219    73.4683   6   5   0.0147   0.0303   0.0667   0.0147  -0.0331  -0.0231   0.00    0.0
2021/10/18 01:37:12.000   28 35 34.11423  -17 55 01.60218    73.4684   6   5   0.0147   0.0303   0.0667   0.0147  -0.0331  -0.0231   0.00    0.0
2021/10/18 01:37:42.000   28 35 34.11423  -17 55 01.60218    73.4683   6   5   0.0147   0.0303   0.0666   0.0147  -0.0331  -0.0231   0.00    0.0
2021/10/18 01:38:12.000   28 35 34.11422  -17 55 01.60219    73.4679   6   5   0.0147   0.0303   0.0666   0.0147  -0.0331  -0.0231   0.00    0.0
2021/10/18 01:38:42.000   28 35 34.11422  -17 55 01.60220    73.4673   6   5   0.0146   0.0302   0.0665   0.0147  -0.0331  -0.0231   0.00    0.0
2021/10/18 01:39:12.000   28 35 34.11422  -17 55 01.60224    73.4647   6   5   0.0146   0.0301   0.0661   0.0147  -0.0332  -0.0231   0.00    0.0
2021/10/18 01:39:42.000   28 35 34.11424  -17 55 01.60228    73.4592   6   5   0.0143   0.0298   0.0650   0.0148  -0.0334  -0.0230   0.00    0.0
2021/10/18 01:40:12.000   28 35 34.11425  -17 55 01.60224    73.4598   6   5   0.0143   0.0297   0.0648   0.0148  -0.0334  -0.0230   0.00    0.0
2021/10/18 01:40:42.000   28 35 34.11426  -17 55 01.60221    73.4602   6   5   0.0143   0.0296   0.0647   0.0148  -0.0334  -0.0230   0.00    0.0
2021/10/18 01:41:12.000   28 35 34.11427  -17 55 01.60219    73.4598   6   5   0.0142   0.0296   0.0646   0.0148  -0.0334  -0.0230   0.00    0.0
2021/10/18 01:41:42.000   28 35 34.11427  -17 55 01.60217    73.4592   6   5   0.0142   0.0296   0.0646   0.0148  -0.0334  -0.0230   0.00    0.0
2021/10/18 01:42:12.000   28 35 34.11427  -17 55 01.60216    73.4587   6   5   0.0142   0.0296   0.0646   0.0148  -0.0334  -0.0229   0.00    0.0
2021/10/18 01:42:42.000   28 35 34.11427  -17 55 01.60215    73.4580   6   5   0.0142   0.0296   0.0645   0.0148  -0.0334  -0.0229   0.00    0.0
2021/10/18 01:43:12.000   28 35 34.11427  -17 55 01.60214    73.4565   6   5   0.0142   0.0296   0.0645   0.0148  -0.0334  -0.0229   0.00    0.0
2021/10/18 01:43:42.000   28 35 34.11428  -17 55 01.60214    73.4561   6   5   0.0142   0.0295   0.0643   0.0148  -0.0334  -0.0229   0.00    0.0
2021/10/18 01:44:12.000   28 35 34.11430  -17 55 01.60213    73.4580   6   5   0.0141   0.0295   0.0640   0.0149  -0.0334  -0.0229   0.00    0.0
2021/10/18 01:44:42.000   28 35 34.11431  -17 55 01.60217    73.4533   6   5   0.0139   0.0292   0.0628   0.0149  -0.0335  -0.0227   0.00    0.0
2021/10/18 01:45:12.000   28 35 34.11429  -17 55 01.60220    73.4471   6   5   0.0139   0.0291   0.0625   0.0149  -0.0335  -0.0227   0.00    0.0
2021/10/18 01:45:42.000   28 35 34.11429  -17 55 01.60220    73.4438   6   5   0.0138   0.0291   0.0624   0.0149  -0.0335  -0.0227   0.00    0.0
2021/10/18 01:46:12.000   28 35 34.11428  -17 55 01.60219    73.4427   6   5   0.0138   0.0291   0.0623   0.0149  -0.0335  -0.0226   0.00    0.0
2021/10/18 01:46:42.000   28 35 34.11428  -17 55 01.60218    73.4418   6   5   0.0138   0.0291   0.0623   0.0149  -0.0335  -0.0226   0.00    0.0
2021/10/18 01:47:12.000   28 35 34.11428  -17 55 01.60217    73.4412   6   5   0.0138   0.0291   0.0623   0.0149  -0.0334  -0.0226   0.00    0.0
2021/10/18 01:47:42.000   28 35 34.11428  -17 55 01.60216    73.4408   6   5   0.0138   0.0290   0.0622   0.0149  -0.0334  -0.0226   0.00    0.0
2021/10/18 01:48:12.000   28 35 34.11429  -17 55 01.60215    73.4405   6   5   0.0138   0.0290   0.0622   0.0149  -0.0334  -0.0226   0.00    0.0
2021/10/18 01:48:42.000   28 35 34.11429  -17 55 01.60213    73.4398   6   5   0.0138   0.0290   0.0621   0.0149  -0.0334  -0.0226   0.00    0.0
2021/10/18 01:49:12.000   28 35 34.11430  -17 55 01.60211    73.4389   6   5   0.0137   0.0289   0.0617   0.0149  -0.0334  -0.0225   0.00    0.0
2021/10/18 01:49:42.000   28 35 34.11434  -17 55 01.60213    73.4352   6   5   0.0135   0.0287   0.0605   0.0150  -0.0334  -0.0223   0.00    0.0
2021/10/18 01:50:12.000   28 35 34.11436  -17 55 01.60212    73.4374   6   6   0.0135   0.0287   0.0602   0.0150  -0.0334  -0.0223   0.00    0.0
2021/10/18 01:50:42.000   28 35 34.11437  -17 55 01.60210    73.4375   6   6   0.0134   0.0287   0.0601   0.0150  -0.0334  -0.0222   0.00    0.0
2021/10/18 01:51:12.000   28 35 34.11438  -17 55 01.60209    73.4367   6   6   0.0134   0.0286   0.0600   0.0150  -0.0334  -0.0222   0.00    0.0
2021/10/18 01:51:42.000   28 35 34.11438  -17 55 01.60207    73.4365   6   6   0.0134   0.0286   0.0600   0.0150  -0.0334  -0.0222   0.00    0.0
2021/10/18 01:52:12.000   28 35 34.11438  -17 55 01.60207    73.4366   6   6   0.0134   0.0286   0.0599   0.0150  -0.0333  -0.0222   0.00    0.0
2021/10/18 01:52:42.000   28 35 34.11438  -17 55 01.60206    73.4367   6   6   0.0134   0.0286   0.0599   0.0150  -0.0333  -0.0222   0.00    0.0
2021/10/18 01:53:12.000   28 35 34.11438  -17 55 01.60205    73.4365   6   6   0.0134   0.0286   0.0598   0.0150  -0.0333  -0.0222   0.00    0.0
2021/10/18 01:53:42.000   28 35 34.11438  -17 55 01.60205    73.4361   6   6   0.0134   0.0286   0.0597   0.0150  -0.0333  -0.0221   0.00    0.0
2021/10/18 01:54:12.000   28 35 34.11437  -17 55 01.60204    73.4348   6   6   0.0133   0.0285   0.0593   0.0150  -0.0333  -0.0221   0.00    0.0
2021/10/18 01:54:42.000   28 35 34.11441  -17 55 01.60204    73.4306   6   6   0.0131   0.0284   0.0581   0.0150  -0.0332  -0.0218   0.00    0.0
2021/10/18 01:55:12.000   28 35 34.11442  -17 55 01.60201    73.4309   6   6   0.0131   0.0283   0.0578   0.0150  -0.0331  -0.0217   0.00    0.0
2021/10/18 01:55:42.000   28 35 34.11443  -17 55 01.60199    73.4314   6   6   0.0130   0.0283   0.0577   0.0150  -0.0331  -0.0217   0.00    0.0
2021/10/18 01:56:12.000   28 35 34.11443  -17 55 01.60198    73.4312   6   6   0.0130   0.0283   0.0577   0.0150  -0.0331  -0.0217   0.00    0.0
2021/10/18 01:56:42.000   28 35 34.11443  -17 55 01.60196    73.4305   6   6   0.0130   0.0283   0.0577   0.0150  -0.0331  -0.0217   0.00    0.0
2021/10/18 01:57:12.000   28 35 34.11443  -17 55 01.60194    73.4302   6   6   0.0130   0.0283   0.0576   0.0150  -0.0331  -0.0217   0.00    0.0
2021/10/18 01:57:42.000   28 35 34.11444  -17 55 01.60193    73.4298   6   6   0.0130   0.0283   0.0576   0.0150  -0.0331  -0.0217   0.00    0.0
2021/10/18 01:58:12.000   28 35 34.11444  -17 55 01.60192    73.4290   6   6   0.0130   0.0282   0.0575   0.0150  -0.0331  -0.0216   0.00    0.0
2021/10/18 01:58:42.000   28 35 34.11444  -17 55 01.60192    73.4272   6   6   0.0130   0.0282   0.0574   0.0149  -0.0331  -0.0216   0.00    0.0
2021/10/18 01:59:12.000   28 35 34.11444  -17 55 01.60191    73.4232   6   6   0.0129   0.0282   0.0570   0.0149  -0.0330  -0.0215   0.00    0.0
2021/10/18 01:59:42.000   28 35 34.11444  -17 55 01.60192    73.4213   6   7   0.0127   0.0281   0.0559   0.0149  -0.0329  -0.0212   0.00    0.0
2021/10/18 02:00:12.000   28 35 34.11443  -17 55 01.60193    73.4200   6   7   0.0127   0.0280   0.0556   0.0149  -0.0328  -0.0212   0.00    0.0
2021/10/18 02:00:42.000   28 35 34.11443  -17 55 01.60191    73.4185   6   7   0.0127   0.0280   0.0555   0.0149  -0.0328  -0.0211   0.00    0.0
2021/10/18 02:01:12.000   28 35 34.11442  -17 55 01.60190    73.4178   6   7   0.0127   0.0280   0.0554   0.0149  -0.0328  -0.0211   0.00    0.0
2021/10/18 02:01:42.000   28 35 34.11443  -17 55 01.60189    73.4172   6   7   0.0127   0.0280   0.0554   0.0149  -0.0328  -0.0211   0.00    0.0
2021/10/18 02:02:12.000   28 35 34.11443  -17 55 01.60187    73.4166   6   7   0.0127   0.0280   0.0554   0.0149  -0.0328  -0.0211   0.00    0.0
2021/10/18 02:02:42.000   28 35 34.11443  -17 55 01.60186    73.4166   6   7   0.0126   0.0280   0.0553   0.0149  -0.0327  -0.0211   0.00    0.0
2021/10/18 02:03:12.000   28 35 34.11443  -17 55 01.60185    73.4164   6   7   0.0126   0.0279   0.0553   0.0149  -0.0327  -0.0211   0.00    0.0
2021/10/18 02:03:42.000   28 35 34.11444  -17 55 01.60183    73.4143   6   7   0.0126   0.0279   0.0552   0.0149  -0.0327  -0.0210   0.00    0.0
2021/10/18 02:04:12.000   28 35 34.11443  -17 55 01.60181    73.4123   6   7   0.0126   0.0279   0.0548   0.0149  -0.0326  -0.0209   0.00    0.0
2021/10/18 02:04:42.000   28 35 34.11441  -17 55 01.60184    73.4110   6   7   0.0124   0.0278   0.0537   0.0148  -0.0325  -0.0206   0.00    0.0
2021/10/18 02:05:12.000   28 35 34.11443  -17 55 01.60182    73.4097   6   7   0.0123   0.0278   0.0534   0.0148  -0.0324  -0.0206   0.00    0.0
2021/10/18 02:05:42.000   28 35 34.11444  -17 55 01.60181    73.4090   6   7   0.0123   0.0277   0.0533   0.0148  -0.0324  -0.0205   0.00    0.0
2021/10/18 02:06:12.000   28 35 34.11445  -17 55 01.60180    73.4086   6   7   0.0123   0.0277   0.0533   0.0148  -0.0324  -0.0205   0.00    0.0
2021/10/18 02:06:42.000   28 35 34.11445  -17 55 01.60179    73.4083   6   7   0.0123   0.0277   0.0533   0.0148  -0.0323  -0.0205   0.00    0.0
2021/10/18 02:07:12.000   28 35 34.11445  -17 55 01.60179    73.4085   6   7   0.0123   0.0277   0.0532   0.0148  -0.0323  -0.0205   0.00    0.0
2021/10/18 02:07:42.000   28 35 34.11445  -17 55 01.60179    73.4086   6   7   0.0123   0.0277   0.0532   0.0148  -0.0323  -0.0205   0.00    0.0
2021/10/18 02:08:12.000   28 35 34.11446  -17 55 01.60179    73.4085   6   7   0.0123   0.0277   0.0531   0.0148  -0.0323  -0.0205   0.00    0.0
2021/10/18 02:08:42.000   28 35 34.11446  -17 55 01.60178    73.4073   6   7   0.0123   0.0277   0.0530   0.0148  -0.0323  -0.0204   0.00    0.0
2021/10/18 02:09:12.000   28 35 34.11447  -17 55 01.60178    73.4053   6   7   0.0122   0.0276   0.0527   0.0148  -0.0322  -0.0203   0.00    0.0
2021/10/18 02:09:42.000   28 35 34.11448  -17 55 01.60178    73.4019   6   7   0.0120   0.0276   0.0517   0.0147  -0.0320  -0.0200   0.00    0.0
2021/10/18 02:10:12.000   28 35 34.11449  -17 55 01.60176    73.3994   6   7   0.0120   0.0275   0.0514   0.0147  -0.0320  -0.0199   0.00    0.0
2021/10/18 02:10:42.000   28 35 34.11450  -17 55 01.60175    73.3979   6   7   0.0120   0.0275   0.0513   0.0147  -0.0319  -0.0199   0.00    0.0
2021/10/18 02:11:12.000   28 35 34.11450  -17 55 01.60173    73.3969   6   7   0.0120   0.0275   0.0513   0.0147  -0.0319  -0.0199   0.00    0.0
2021/10/18 02:11:42.000   28 35 34.11450  -17 55 01.60172    73.3965   6   7   0.0119   0.0275   0.0513   0.0147  -0.0319  -0.0199   0.00    0.0
2021/10/18 02:12:12.000   28 35 34.11450  -17 55 01.60172    73.3960   6   7   0.0119   0.0275   0.0512   0.0147  -0.0319  -0.0199   0.00    0.0
2021/10/18 02:12:42.000   28 35 34.11451  -17 55 01.60171    73.3955   6   7   0.0119   0.0275   0.0512   0.0147  -0.0319  -0.0199   0.00    0.0
2021/10/18 02:13:12.000   28 35 34.11451  -17 55 01.60171    73.3961   6   7   0.0119   0.0275   0.0511   0.0147  -0.0319  -0.0198   0.00    0.0
2021/10/18 02:13:42.000   28 35 34.11452  -17 55 01.60171    73.3956   6   7   0.0119   0.0275   0.0510   0.0147  -0.0318  -0.0198   0.00    0.0
2021/10/18 02:14:12.000   28 35 34.11452  -17 55 01.60170    73.3960   6   7   0.0119   0.0274   0.0507   0.0146  -0.0318  -0.0197   0.00    0.0
2021/10/18 02:14:42.000   28 35 34.11454  -17 55 01.60169    73.3910   6   8   0.0117   0.0274   0.0499   0.0146  -0.0316  -0.0194   0.00    0.0
2021/10/18 02:15:12.000   28 35 34.11457  -17 55 01.60166    73.3835   6   8   0.0116   0.0273   0.0496   0.0146  -0.0315  -0.0194   0.00    0.0
2021/10/18 02:15:42.000   28 35 34.11457  -17 55 01.60165    73.3801   6   8   0.0116   0.0273   0.0495   0.0146  -0.0315  -0.0193   0.00    0.0
2021/10/18 02:16:12.000   28 35 34.11458  -17 55 01.60163    73.3781   6   8   0.0116   0.0273   0.0495   0.0146  -0.0315  -0.0193   0.00    0.0
2021/10/18 02:16:42.000   28 35 34.11458  -17 55 01.60163    73.3772   6   8   0.0116   0.0273   0.0495   0.0146  -0.0315  -0.0193   0.00    0.0
2021/10/18 02:17:12.000   28 35 34.11458  -17 55 01.60164    73.3771   6   8   0.0116   0.0273   0.0494   0.0146  -0.0315  -0.0193   0.00    0.0
2021/10/18 02:17:42.000   28 35 34.11458  -17 55 01.60164    73.3768   6   8   0.0116   0.0273   0.0494   0.0145  -0.0314  -0.0193   0.00    0.0
2021/10/18 02:18:12.000   28 35 34.11458  -17 55 01.60163    73.3767   6   8   0.0116   0.0273   0.0494   0.0145  -0.0314  -0.0193   0.00    0.0
2021/10/18 02:18:42.000   28 35 34.11459  -17 55 01.60162    73.3769   6   8   0.0116   0.0273   0.0493   0.0145  -0.0314  -0.0192   0.00    0.0
2021/10/18 02:19:12.000   28 35 34.11460  -17 55 01.60162    73.3790   6   8   0.0115   0.0272   0.0490   0.0145  -0.0313  -0.0191   0.00    0.0
2021/10/18 02:19:42.000   28 35 34.11462  -17 55 01.60160    73.3775   6   8   0.0114   0.0272   0.0482   0.0144  -0.0312  -0.0189   0.00    0.0
2021/10/18 02:20:12.000   28 35 34.11461  -17 55 01.60159    73.3783   6   8   0.0113   0.0272   0.0480   0.0144  -0.0311  -0.0188   0.00    0.0
2021/10/18 02:20:42.000   28 35 34.11462  -17 55 01.60158    73.3786   6   8   0.0113   0.0271   0.0479   0.0144  -0.0311  -0.0188   0.00    0.0
2021/10/18 02:21:12.000   28 35 34.11462  -17 55 01.60156    73.3781   6   8   0.0113   0.0271   0.0479   0.0144  -0.0311  -0.0187   0.00    0.0
2021/10/18 02:21:42.000   28 35 34.11463  -17 55 01.60155    73.3777   6   8   0.0113   0.0271   0.0479   0.0144  -0.0310  -0.0187   0.00    0.0
2021/10/18 02:22:12.000   28 35 34.11463  -17 55 01.60153    73.3770   6   8   0.0113   0.0271   0.0478   0.0144  -0.0310  -0.0187   0.00    0.0
2021/10/18 02:22:42.000   28 35 34.11464  -17 55 01.60151    73.3759   6   8   0.0113   0.0271   0.0478   0.0144  -0.0310  -0.0187   0.00    0.0
2021/10/18 02:23:12.000   28 35 34.11464  -17 55 01.60150    73.3763   6   8   0.0113   0.0271   0.0478   0.0144  -0.0310  -0.0187   0.00    0.0
2021/10/18 02:23:42.000   28 35 34.11464  -17 55 01.60149    73.3762   6   8   0.0113   0.0271   0.0477   0.0144  -0.0310  -0.0187   0.00    0.0
2021/10/18 02:24:12.000   28 35 34.11465  -17 55 01.60147    73.3755   6   8   0.0112   0.0271   0.0474   0.0143  -0.0309  -0.0186   0.00    0.0
2021/10/18 02:24:42.000   28 35 34.11469  -17 55 01.60143    73.3694   6   8   0.0111   0.0270   0.0467   0.0143  -0.0307  -0.0183   0.00    0.0
2021/10/18 02:25:12.000   28 35 34.11470  -17 55 01.60140    73.3665   6   8   0.0110   0.0270   0.0466   0.0143  -0.0307  -0.0182   0.00    0.0
2021/10/18 02:25:42.000   28 35 34.11471  -17 55 01.60139    73.3662   6   8   0.0110   0.0270   0.0465   0.0143  -0.0307  -0.0182   0.00    0.0
2021/10/18 02:26:12.000   28 35 34.11472  -17 55 01.60138    73.3658   6   8   0.0110   0.0270   0.0464   0.0142  -0.0307  -0.0182   0.00    0.0
2021/10/18 02:26:42.000   28 35 34.11473  -17 55 01.60137    73.3652   6   8   0.0110   0.0270   0.0464   0.0142  -0.0306  -0.0182   0.00    0.0
2021/10/18 02:27:12.000   28 35 34.11473  -17 55 01.60135    73.3647   6   8   0.0110   0.0269   0.0464   0.0142  -0.0306  -0.0182   0.00    0.0
2021/10/18 02:27:42.000   28 35 34.11473  -17 55 01.60134    73.3650   6   8   0.0110   0.0269   0.0464   0.0142  -0.0306  -0.0182   0.00    0.0
2021/10/18 02:28:12.000   28 35 34.11472  -17 55 01.60134    73.3657   6   8   0.0110   0.0269   0.0463   0.0142  -0.0306  -0.0182   0.00    0.0
2021/10/18 02:28:42.000   28 35 34.11471  -17 55 01.60135    73.3657   6   8   0.0110   0.0269   0.0463   0.0142  -0.0306  -0.0181   0.00    0.0
2021/10/18 02:29:12.000   28 35 34.11471  -17 55 01.60134    73.3642   6   8   0.0109   0.0269   0.0460   0.0142  -0.0305  -0.0180   0.00    0.0
2021/10/18 02:29:42.000   28 35 34.11474  -17 55 01.60128    73.3593   6   8   0.0108   0.0268   0.0455   0.0141  -0.0304  -0.0178   0.00    0.0
2021/10/18 02:30:12.000   28 35 34.11476  -17 55 01.60125    73.3558   6   8   0.0107   0.0268   0.0453   0.0141  -0.0303  -0.0177   0.00    0.0
2021/10/18 02:30:42.000   28 35 34.11475  -17 55 01.60125    73.3568   6   8   0.0107   0.0268   0.0452   0.0141  -0.0303  -0.0177   0.00    0.0
2021/10/18 02:31:12.000   28 35 34.11475  -17 55 01.60124    73.3569   6   8   0.0107   0.0268   0.0452   0.0141  -0.0303  -0.0177   0.00    0.0
2021/10/18 02:31:42.000   28 35 34.11475  -17 55 01.60124    73.3570   6   8   0.0107   0.0268   0.0452   0.0141  -0.0303  -0.0177   0.00    0.0
2021/10/18 02:32:12.000   28 35 34.11475  -17 55 01.60124    73.3566   6   8   0.0107   0.0268   0.0452   0.0141  -0.0303  -0.0177   0.00    0.0
2021/10/18 02:32:42.000   28 35 34.11476  -17 55 01.60123    73.3561   6   8   0.0107   0.0268   0.0451   0.0141  -0.0302  -0.0177   0.00    0.0
2021/10/18 02:33:12.000   28 35 34.11476  -17 55 01.60122    73.3555   6   8   0.0107   0.0268   0.0451   0.0140  -0.0302  -0.0177   0.00    0.0
2021/10/18 02:33:42.000   28 35 34.11477  -17 55 01.60121    73.3542   6   8   0.0107   0.0268   0.0450   0.0140  -0.0302  -0.0176   0.00    0.0
2021/10/18 02:34:12.000   28 35 34.11476  -17 55 01.60122    73.3559   6   8   0.0106   0.0267   0.0449   0.0140  -0.0301  -0.0176   0.00    0.0
2021/10/18 02:34:42.000   28 35 34.11478  -17 55 01.60119    73.3541   6   8   0.0105   0.0267   0.0444   0.0139  -0.0300  -0.0173   0.00    0.0
2021/10/18 02:35:12.000   28 35 34.11478  -17 55 01.60118    73.3532   6   8   0.0104   0.0267   0.0442   0.0139  -0.0300  -0.0173   0.00    0.0
2021/10/18 02:35:42.000   28 35 34.11478  -17 55 01.60118    73.3536   6   8   0.0104   0.0266   0.0442   0.0139  -0.0300  -0.0173   0.00    0.0
2021/10/18 02:36:12.000   28 35 34.11477  -17 55 01.60117    73.3536   6   8   0.0104   0.0266   0.0442   0.0139  -0.0299  -0.0172   0.00    0.0
2021/10/18 02:36:42.000   28 35 34.11478  -17 55 01.60115    73.3532   6   8   0.0104   0.0266   0.0441   0.0139  -0.0299  -0.0172   0.00    0.0
2021/10/18 02:37:12.000   28 35 34.11478  -17 55 01.60115    73.3533   6   8   0.0104   0.0266   0.0441   0.0139  -0.0299  -0.0172   0.00    0.0
2021/10/18 02:37:42.000   28 35 34.11477  -17 55 01.60116    73.3537   6   8   0.0104   0.0266   0.0441   0.0139  -0.0299  -0.0172   0.00    0.0
2021/10/18 02:38:12.000   28 35 34.11478  -17 55 01.60115    73.3535   6   8   0.0104   0.0266   0.0441   0.0139  -0.0299  -0.0172   0.00    0.0
2021/10/18 02:38:42.000   28 35 34.11478  -17 55 01.60115    73.3533   6   8   0.0104   0.0266   0.0440   0.0138  -0.0299  -0.0172   0.00    0.0
2021/10/18 02:39:12.000   28 35 34.11480  -17 55 01.60114    73.3514   6   8   0.0103   0.0266   0.0438   0.0138  -0.0298  -0.0171   0.00    0.0
2021/10/18 02:39:42.000   28 35 34.11481  -17 55 01.60111    73.3487   6   8   0.0102   0.0265   0.0434   0.0137  -0.0297  -0.0169   0.00    0.0
2021/10/18 02:40:12.000   28 35 34.11481  -17 55 01.60112    73.3498   6   8   0.0102   0.0265   0.0433   0.0137  -0.0296  -0.0169   0.00    0.0
2021/10/18 02:40:42.000   28 35 34.11483  -17 55 01.60111    73.3488   6   8   0.0102   0.0265   0.0433   0.0137  -0.0296  -0.0168   0.00    0.0
2021/10/18 02:41:12.000   28 35 34.11484  -17 55 01.60108    73.3477   6   8   0.0102   0.0264   0.0432   0.0137  -0.0296  -0.0168   0.00    0.0
2021/10/18 02:41:42.000   28 35 34.11484  -17 55 01.60107    73.3472   6   8   0.0101   0.0264   0.0432   0.0137  -0.0296  -0.0168   0.00    0.0
2021/10/18 02:42:12.000   28 35 34.11485  -17 55 01.60105    73.3465   6   8   0.0101   0.0264   0.0432   0.0137  -0.0296  -0.0168   0.00    0.0
2021/10/18 02:42:42.000   28 35 34.11485  -17 55 01.60104    73.3462   6   8   0.0101   0.0264   0.0432   0.0137  -0.0296  -0.0168   0.00    0.0
2021/10/18 02:43:12.000   28 35 34.11486  -17 55 01.60103    73.3452   6   8   0.0101   0.0264   0.0432   0.0137  -0.0296  -0.0168   0.00    0.0
2021/10/18 02:43:42.000   28 35 34.11487  -17 55 01.60100    73.3433   6   8   0.0101   0.0264   0.0431   0.0136  -0.0295  -0.0168   0.00    0.0
2021/10/18 02:44:12.000   28 35 34.11488  -17 55 01.60098    73.3424   6   8   0.0101   0.0264   0.0430   0.0136  -0.0295  -0.0167   0.00    0.0
2021/10/18 02:44:42.000   28 35 34.11491  -17 55 01.60095    73.3394   6   8   0.0100   0.0263   0.0426   0.0135  -0.0294  -0.0165   0.00    0.0
2021/10/18 02:45:12.000   28 35 34.11493  -17 55 01.60093    73.3370   6   8   0.0099   0.0263   0.0425   0.0135  -0.0293  -0.0165   0.00    0.0
2021/10/18 02:45:42.000   28 35 34.11494  -17 55 01.60090    73.3351   6   8   0.0099   0.0263   0.0425   0.0135  -0.0293  -0.0165   0.00    0.0
2021/10/18 02:46:12.000   28 35 34.11495  -17 55 01.60089    73.3343   6   8   0.0099   0.0263   0.0425   0.0135  -0.0293  -0.0164   0.00    0.0
2021/10/18 02:46:42.000   28 35 34.11495  -17 55 01.60088    73.3336   6   8   0.0099   0.0262   0.0425   0.0135  -0.0293  -0.0164   0.00    0.0
2021/10/18 02:47:12.000   28 35 34.11495  -17 55 01.60086    73.3330   6   8   0.0099   0.0262   0.0424   0.0135  -0.0293  -0.0164   0.00    0.0
2021/10/18 02:47:42.000   28 35 34.11496  -17 55 01.60086    73.3326   6   8   0.0099   0.0262   0.0424   0.0135  -0.0293  -0.0164   0.00    0.0
2021/10/18 02:48:12.000   28 35 34.11496  -17 55 01.60085    73.3321   6   8   0.0099   0.0262   0.0424   0.0135  -0.0293  -0.0164   0.00    0.0
2021/10/18 02:48:42.000   28 35 34.11497  -17 55 01.60084    73.3313   6   8   0.0099   0.0262   0.0424   0.0135  -0.0292  -0.0164   0.00    0.0
2021/10/18 02:49:12.000   28 35 34.11498  -17 55 01.60083    73.3301   6   8   0.0099   0.0262   0.0422   0.0134  -0.0292  -0.0163   0.00    0.0
2021/10/18 02:49:42.000   28 35 34.11499  -17 55 01.60081    73.3307   6   8   0.0097   0.0261   0.0419   0.0133  -0.0291  -0.0162   0.00    0.0
2021/10/18 02:50:12.000   28 35 34.11497  -17 55 01.60086    73.3345   6   8   0.0097   0.0260   0.0418   0.0133  -0.0290  -0.0161   0.00    0.0
2021/10/18 02:50:42.000   28 35 34.11496  -17 55 01.60086    73.3352   6   8   0.0097   0.0260   0.0418   0.0133  -0.0290  -0.0161   0.00    0.0
2021/10/18 02:51:12.000   28 35 34.11496  -17 55 01.60087    73.3354   6   8   0.0097   0.0260   0.0417   0.0133  -0.0290  -0.0161   0.00    0.0
2021/10/18 02:51:42.000   28 35 34.11497  -17 55 01.60085    73.3350   6   9   0.0097   0.0260   0.0417   0.0133  -0.0290  -0.0161   0.00    0.0
2021/10/18 02:52:12.000   28 35 34.11497  -17 55 01.60085    73.3346   6   9   0.0097   0.0260   0.0417   0.0133  -0.0290  -0.0161   0.00    0.0
2021/10/18 02:52:42.000   28 35 34.11497  -17 55 01.60084    73.3342   6   9   0.0097   0.0260   0.0417   0.0133  -0.0290  -0.0161   0.00    0.0
2021/10/18 02:53:12.000   28 35 34.11497  -17 55 01.60083    73.3339   6   9   0.0097   0.0260   0.0417   0.0133  -0.0289  -0.0161   0.00    0.0
2021/10/18 02:53:42.000   28 35 34.11497  -17 55 01.60083    73.3341   6   9   0.0097   0.0260   0.0416   0.0132  -0.0289  -0.0160   0.00    0.0
2021/10/18 02:54:12.000   28 35 34.11497  -17 55 01.60084    73.3352   6   9   0.0096   0.0259   0.0415   0.0132  -0.0289  -0.0160   0.00    0.0
2021/10/18 02:54:42.000   28 35 34.11499  -17 55 01.60080    73.3352   6   9   0.0095   0.0258   0.0411   0.0131  -0.0287  -0.0158   0.00    0.0
2021/10/18 02:55:12.000   28 35 34.11497  -17 55 01.60084    73.3389   6   9   0.0095   0.0257   0.0410   0.0131  -0.0286  -0.0157   0.00    0.0
2021/10/18 02:55:42.000   28 35 34.11497  -17 55 01.60084    73.3399   6   9   0.0095   0.0257   0.0410   0.0130  -0.0286  -0.0157   0.00    0.0
2021/10/18 02:56:12.000   28 35 34.11497  -17 55 01.60083    73.3400   6   9   0.0095   0.0257   0.0410   0.0130  -0.0286  -0.0157   0.00    0.0
2021/10/18 02:56:42.000   28 35 34.11497  -17 55 01.60082    73.3399   6   9   0.0095   0.0257   0.0409   0.0130  -0.0286  -0.0157   0.00    0.0
2021/10/18 02:57:12.000   28 35 34.11497  -17 55 01.60080    73.3391   6   9   0.0095   0.0257   0.0409   0.0130  -0.0286  -0.0157   0.00    0.0
2021/10/18 02:57:42.000   28 35 34.11498  -17 55 01.60076    73.3379   6   9   0.0095   0.0257   0.0409   0.0130  -0.0286  -0.0157   0.00    0.0
2021/10/18 02:58:12.000   28 35 34.11499  -17 55 01.60074    73.3373   6   9   0.0095   0.0257   0.0409   0.0130  -0.0285  -0.0157   0.00    0.0
2021/10/18 02:58:42.000   28 35 34.11499  -17 55 01.60074    73.3377   6   9   0.0094   0.0256   0.0408   0.0130  -0.0285  -0.0156   0.00    0.0
2021/10/18 02:59:12.000   28 35 34.11498  -17 55 01.60075    73.3397   6   9   0.0094   0.0256   0.0406   0.0130  -0.0284  -0.0156   0.00    0.0
2021/10/18 02:59:42.000   28 35 34.11499  -17 55 01.60071    73.3388   6   9   0.0093   0.0254   0.0402   0.0128  -0.0282  -0.0154   0.00    0.0
2021/10/18 03:00:12.000   28 35 34.11499  -17 55 01.60070    73.3402   6   9   0.0093   0.0253   0.0401   0.0128  -0.0281  -0.0153   0.00    0.0
2021/10/18 03:00:42.000   28 35 34.11499  -17 55 01.60069    73.3402   6   9   0.0092   0.0253   0.0400   0.0128  -0.0281  -0.0153   0.00    0.0
2021/10/18 03:01:12.000   28 35 34.11499  -17 55 01.60069    73.3399   6   9   0.0092   0.0253   0.0400   0.0127  -0.0281  -0.0153   0.00    0.0
2021/10/18 03:01:42.000   28 35 34.11499  -17 55 01.60069    73.3399   6   9   0.0092   0.0253   0.0400   0.0127  -0.0281  -0.0153   0.00    0.0
2021/10/18 03:02:12.000   28 35 34.11499  -17 55 01.60068    73.3398   6   9   0.0092   0.0253   0.0400   0.0127  -0.0281  -0.0152   0.00    0.0
2021/10/18 03:02:42.000   28 35 34.11499  -17 55 01.60067    73.3395   6   9   0.0092   0.0253   0.0399   0.0127  -0.0280  -0.0152   0.00    0.0
2021/10/18 03:03:12.000   28 35 34.11499  -17 55 01.60066    73.3397   6   9   0.0092   0.0253   0.0399   0.0127  -0.0280  -0.0152   0.00    0.0
2021/10/18 03:03:42.000   28 35 34.11499  -17 55 01.60066    73.3406   6   9   0.0092   0.0252   0.0399   0.0127  -0.0280  -0.0152   0.00    0.0
2021/10/18 03:04:12.000   28 35 34.11499  -17 55 01.60066    73.3411   6   9   0.0092   0.0252   0.0397   0.0127  -0.0279  -0.0151   0.00    0.0
2021/10/18 03:04:42.000   28 35 34.11501  -17 55 01.60060    73.3366   6   9   0.0091   0.0250   0.0393   0.0125  -0.0277  -0.0149   0.00    0.0
2021/10/18 03:05:12.000   28 35 34.11501  -17 55 01.60059    73.3353   6   9   0.0090   0.0249   0.0392   0.0125  -0.0276  -0.0149   0.00    0.0
2021/10/18 03:05:42.000   28 35 34.11502  -17 55 01.60057    73.3338   6   9   0.0090   0.0249   0.0391   0.0124  -0.0276  -0.0148   0.00    0.0
2021/10/18 03:06:12.000   28 35 34.11502  -17 55 01.60055    73.3329   6   9   0.0090   0.0249   0.0391   0.0124  -0.0275  -0.0148   0.00    0.0
2021/10/18 03:06:42.000   28 35 34.11503  -17 55 01.60053    73.3324   6   9   0.0090   0.0248   0.0391   0.0124  -0.0275  -0.0148   0.00    0.0
2021/10/18 03:07:12.000   28 35 34.11503  -17 55 01.60052    73.3320   6   9   0.0090   0.0248   0.0390   0.0124  -0.0275  -0.0148   0.00    0.0
2021/10/18 03:07:42.000   28 35 34.11503  -17 55 01.60051    73.3317   6   9   0.0090   0.0248   0.0390   0.0124  -0.0275  -0.0148   0.00    0.0
2021/10/18 03:08:12.000   28 35 34.11503  -17 55 01.60050    73.3315   6   9   0.0090   0.0248   0.0390   0.0124  -0.0275  -0.0148   0.00    0.0
2021/10/18 03:08:42.000   28 35 34.11504  -17 55 01.60048    73.3313   6   9   0.0090   0.0248   0.0389   0.0124  -0.0274  -0.0148   0.00    0.0
2021/10/18 03:09:12.000   28 35 34.11505  -17 55 01.60044    73.3292   6   8   0.0089   0.0247   0.0387   0.0123  -0.0273  -0.0147   0.00    0.0
2021/10/18 03:09:42.000   28 35 34.11507  -17 55 01.60039    73.3260   6   8   0.0088   0.0244   0.0382   0.0121  -0.0270  -0.0144   0.00    0.0
2021/10/18 03:10:12.000   28 35 34.11507  -17 55 01.60038    73.3253   6   8   0.0088   0.0244   0.0381   0.0121  -0.0269  -0.0144   0.00    0.0
2021/10/18 03:10:42.000   28 35 34.11507  -17 55 01.60037    73.3247   6   8   0.0088   0.0243   0.0380   0.0121  -0.0269  -0.0143   0.00    0.0
2021/10/18 03:11:12.000   28 35 34.11508  -17 55 01.60036    73.3241   6   8   0.0088   0.0243   0.0380   0.0121  -0.0268  -0.0143   0.00    0.0
2021/10/18 03:11:42.000   28 35 34.11508  -17 55 01.60034    73.3236   6   8   0.0088   0.0243   0.0380   0.0121  -0.0268  -0.0143   0.00    0.0
2021/10/18 03:12:12.000   28 35 34.11508  -17 55 01.60033    73.3229   6   8   0.0088   0.0243   0.0379   0.0120  -0.0268  -0.0143   0.00    0.0
2021/10/18 03:12:42.000   28 35 34.11509  -17 55 01.60032    73.3225   6   8   0.0087   0.0243   0.0379   0.0120  -0.0268  -0.0143   0.00    0.0
2021/10/18 03:13:12.000   28 35 34.11509  -17 55 01.60031    73.3216   6   8   0.0087   0.0242   0.0379   0.0120  -0.0268  -0.0143   0.00    0.0
2021/10/18 03:13:42.000   28 35 34.11510  -17 55 01.60029    73.3203   6   7   0.0087   0.0242   0.0378   0.0120  -0.0267  -0.0143   0.00    0.0
2021/10/18 03:14:12.000   28 35 34.11509  -17 55 01.60030    73.3210   6   7   0.0087   0.0241   0.0377   0.0120  -0.0266  -0.0142   0.00    0.0
2021/10/18 03:14:42.000   28 35 34.11511  -17 55 01.60030    73.3197   6   7   0.0086   0.0238   0.0374   0.0118  -0.0263  -0.0140   0.00    0.0
2021/10/18 03:15:12.000   28 35 34.11512  -17 55 01.60028    73.3173   6   7   0.0085   0.0238   0.0373   0.0117  -0.0263  -0.0139   0.00    0.0
2021/10/18 03:15:42.000   28 35 34.11513  -17 55 01.60026    73.3157   6   7   0.0085   0.0237   0.0372   0.0117  -0.0262  -0.0139   0.00    0.0
2021/10/18 03:16:12.000   28 35 34.11514  -17 55 01.60024    73.3147   6   7   0.0085   0.0237   0.0372   0.0117  -0.0262  -0.0139   0.00    0.0
2021/10/18 03:16:42.000   28 35 34.11514  -17 55 01.60024    73.3142   6   7   0.0085   0.0237   0.0372   0.0117  -0.0262  -0.0139   0.00    0.0
2021/10/18 03:17:12.000   28 35 34.11515  -17 55 01.60022    73.3138   6   7   0.0085   0.0237   0.0372   0.0117  -0.0262  -0.0139   0.00    0.0
2021/10/18 03:17:42.000   28 35 34.11515  -17 55 01.60022    73.3135   6   7   0.0085   0.0237   0.0372   0.0117  -0.0262  -0.0139   0.00    0.0
2021/10/18 03:18:12.000   28 35 34.11515  -17 55 01.60021    73.3128   6   7   0.0085   0.0236   0.0372   0.0116  -0.0262  -0.0138   0.00    0.0
2021/10/18 03:18:42.000   28 35 34.11516  -17 55 01.60020    73.3120   6   7   0.0085   0.0236   0.0371   0.0116  -0.0261  -0.0138   0.00    0.0
2021/10/18 03:19:12.000   28 35 34.11515  -17 55 01.60023    73.3134   6   7   0.0084   0.0235   0.0370   0.0116  -0.0260  -0.0138   0.00    0.0
2021/10/18 03:19:42.000   28 35 34.11515  -17 55 01.60026    73.3145   6   7   0.0083   0.0232   0.0366   0.0113  -0.0257  -0.0135   0.00    0.0
2021/10/18 03:20:12.000   28 35 34.11514  -17 55 01.60028    73.3161   6   7   0.0083   0.0231   0.0365   0.0113  -0.0256  -0.0135   0.00    0.0
2021/10/18 03:20:42.000   28 35 34.11514  -17 55 01.60028    73.3166   6   7   0.0083   0.0230   0.0365   0.0113  -0.0255  -0.0134   0.00    0.0
2021/10/18 03:21:12.000   28 35 34.11513  -17 55 01.60027    73.3169   6   7   0.0083   0.0230   0.0365   0.0113  -0.0255  -0.0134   0.00    0.0
2021/10/18 03:21:42.000   28 35 34.11513  -17 55 01.60027    73.3167   6   7   0.0083   0.0230   0.0365   0.0113  -0.0255  -0.0134   0.00    0.0
2021/10/18 03:22:12.000   28 35 34.11514  -17 55 01.60025    73.3162   6   7   0.0083   0.0230   0.0365   0.0112  -0.0255  -0.0134   0.00    0.0
2021/10/18 03:22:42.000   28 35 34.11514  -17 55 01.60023    73.3159   6   7   0.0083   0.0230   0.0364   0.0112  -0.0255  -0.0134   0.00    0.0
2021/10/18 03:23:12.000   28 35 34.11514  -17 55 01.60022    73.3158   6   7   0.0082   0.0230   0.0364   0.0112  -0.0255  -0.0134   0.00    0.0
