% program   : RTKLIB ver.2.4.2
% inp file  : C:\IPNA\data\OBS\CVBB2830.o
% inp file  : C:\IPNA\data\NAV\CVBB2830.n
% inp file  : C:\IPNA\data\SP3\CVBB2830.sp3
% inp file  : C:\IPNA\data\CLOCK\CVBB2830.clk
% obs start : 2021/10/09 23:59:42.0 UTC (week2179      0.0s)
% obs end   : 2021/10/10 23:59:12.0 UTC (week2179  86370.0s)
% pos mode  : ppp-static
% solution  : forward
% elev mask : 15.0 deg
% dynamics  : off
% tidecorr  : on
% tropo opt : est ztd
% ephemeris : precise
% antenna1  :                       ( 0.0000  0.0000  0.0000)
%
% (lat/lon/height=WGS84/ellipsoidal,Q=1:fix,2:float,3:sbas,4:dgps,5:single,6:ppp,ns=# of satellites)
%  UTC                     latitude(d'")   longitude(d'")  height(m)   Q  ns   sdn(m)   sde(m)   sdu(m)  sdne(m)  sdeu(m)  sdue(m) age(s)  ratio
2021/10/09 23:59:42.000   28 35 34.06384  -17 55 01.61686    78.5046   6   6   1.6397   1.4435   5.1383  -0.5759   1.0287  -2.0446   0.00    0.0
2021/10/10 00:00:12.000   28 35 34.08541  -17 55 01.61753    76.5041   6   6   1.1298   1.0178   3.3641  -0.3840   0.6585  -1.3407   0.00    0.0
2021/10/10 00:00:42.000   28 35 34.08765  -17 55 01.61400    75.8444   6   6   0.9116   0.8302   2.6500  -0.3049   0.5139  -1.0577   0.00    0.0
2021/10/10 00:01:12.000   28 35 34.08782  -17 55 01.60747    75.5548   6   6   0.7841   0.7187   2.2479  -0.2595   0.4340  -0.8979   0.00    0.0
2021/10/10 00:01:42.000   28 35 34.09201  -17 55 01.60823    75.1933   6   6   0.6981   0.6428   1.9841  -0.2294   0.3822  -0.7927   0.00    0.0
2021/10/10 00:02:12.000   28 35 34.09684  -17 55 01.60692    74.5471   6   6   0.6353   0.5869   1.7952  -0.2075   0.3455  -0.7171   0.00    0.0
2021/10/10 00:02:42.000   28 35 34.09911  -17 55 01.60749    74.1749   6   6   0.5801   0.5427   1.5973  -0.1857   0.3024  -0.6381   0.00    0.0
2021/10/10 00:03:12.000   28 35 34.10184  -17 55 01.60936    73.9189   6   6   0.5266   0.5061   1.3716  -0.1612   0.2466  -0.5473   0.00    0.0
2021/10/10 00:03:42.000   28 35 34.10526  -17 55 01.61146    73.6900   6   6   0.4676   0.4744   1.1053  -0.1304   0.1676  -0.4365   0.00    0.0
2021/10/10 00:04:12.000   28 35 34.10748  -17 55 01.61024    73.4404   6   6   0.3919   0.4453   0.8077  -0.0872  -0.0545  -0.2990   0.00    0.0
2021/10/10 00:04:42.000   28 35 34.10729  -17 55 01.61079    73.3210   6   6   0.3094   0.4182   0.5838  -0.0359  -0.1485  -0.1664   0.00    0.0
2021/10/10 00:05:12.000   28 35 34.10626  -17 55 01.60697    73.3349   6   6   0.2922   0.3997   0.5544  -0.0297  -0.1456  -0.1514   0.00    0.0
2021/10/10 00:05:42.000   28 35 34.10574  -17 55 01.60560    73.3261   6   6   0.2827   0.3843   0.5424  -0.0301  -0.1396  -0.1464   0.00    0.0
2021/10/10 00:06:12.000   28 35 34.10456  -17 55 01.60613    73.3378   6   6   0.2755   0.3707   0.5348  -0.0315  -0.1336  -0.1439   0.00    0.0
2021/10/10 00:06:42.000   28 35 34.10415  -17 55 01.60488    73.3646   6   6   0.2694   0.3586   0.5290  -0.0328  -0.1278  -0.1422   0.00    0.0
2021/10/10 00:07:12.000   28 35 34.10459  -17 55 01.60735    73.3934   6   6   0.2640   0.3477   0.5242  -0.0339  -0.1224  -0.1411   0.00    0.0
2021/10/10 00:07:42.000   28 35 34.10510  -17 55 01.61012    73.4053   6   6   0.2579   0.3375   0.5170  -0.0340  -0.1182  -0.1382   0.00    0.0
2021/10/10 00:08:12.000   28 35 34.10570  -17 55 01.61267    73.4150   6   6   0.2503   0.3280   0.5053  -0.0323  -0.1158  -0.1320   0.00    0.0
2021/10/10 00:08:42.000   28 35 34.10585  -17 55 01.61271    73.4272   6   6   0.2387   0.3186   0.4834  -0.0272  -0.1171  -0.1173   0.00    0.0
2021/10/10 00:09:12.000   28 35 34.10626  -17 55 01.61247    73.4197   6   6   0.2164   0.3083   0.4393  -0.0111  -0.1263  -0.0744   0.00    0.0
2021/10/10 00:09:42.000   28 35 34.10682  -17 55 01.61178    73.3994   6   6   0.1800   0.2957   0.3777   0.0144  -0.1429   0.0772   0.00    0.0
2021/10/10 00:10:12.000   28 35 34.10612  -17 55 01.61224    73.4316   6   6   0.1727   0.2880   0.3679   0.0126  -0.1425   0.0838   0.00    0.0
2021/10/10 00:10:42.000   28 35 34.10569  -17 55 01.61219    73.4496   6   6   0.1694   0.2818   0.3641   0.0106  -0.1403   0.0849   0.00    0.0
2021/10/10 00:11:12.000   28 35 34.10532  -17 55 01.61196    73.4533   6   6   0.1672   0.2762   0.3618   0.0086  -0.1379   0.0849   0.00    0.0
2021/10/10 00:11:42.000   28 35 34.10488  -17 55 01.61172    73.4528   6   6   0.1654   0.2710   0.3600   0.0065  -0.1354   0.0845   0.00    0.0
2021/10/10 00:12:12.000   28 35 34.10479  -17 55 01.61094    73.4481   6   6   0.1638   0.2661   0.3586   0.0040  -0.1329   0.0839   0.00    0.0
2021/10/10 00:12:42.000   28 35 34.10423  -17 55 01.60959    73.4302   6   6   0.1619   0.2614   0.3566  -0.0027  -0.1308   0.0838   0.00    0.0
2021/10/10 00:13:12.000   28 35 34.10430  -17 55 01.60894    73.4029   6   6   0.1594   0.2568   0.3536  -0.0055  -0.1292   0.0848   0.00    0.0
2021/10/10 00:13:42.000   28 35 34.10482  -17 55 01.60917    73.3766   6   6   0.1552   0.2519   0.3479  -0.0082  -0.1286   0.0882   0.00    0.0
2021/10/10 00:14:12.000   28 35 34.10576  -17 55 01.60963    73.3353   6   6   0.1461   0.2459   0.3352  -0.0143  -0.1310   0.0978   0.00    0.0
2021/10/10 00:14:42.000   28 35 34.10662  -17 55 01.60955    73.2910   6   6   0.1285   0.2373   0.3120  -0.0280  -0.1388   0.1133   0.00    0.0
2021/10/10 00:15:12.000   28 35 34.10734  -17 55 01.61002    73.2371   6   6   0.1248   0.2327   0.3073  -0.0301  -0.1388   0.1146   0.00    0.0
2021/10/10 00:15:42.000   28 35 34.10743  -17 55 01.61000    73.2172   6   6   0.1232   0.2292   0.3053  -0.0305  -0.1376   0.1146   0.00    0.0
2021/10/10 00:16:12.000   28 35 34.10746  -17 55 01.61015    73.2125   6   6   0.1222   0.2260   0.3039  -0.0304  -0.1361   0.1143   0.00    0.0
2021/10/10 00:16:42.000   28 35 34.10748  -17 55 01.60998    73.2092   6   6   0.1214   0.2231   0.3028  -0.0301  -0.1345   0.1138   0.00    0.0
2021/10/10 00:17:12.000   28 35 34.10740  -17 55 01.60988    73.2007   6   6   0.1207   0.2204   0.3019  -0.0298  -0.1329   0.1133   0.00    0.0
2021/10/10 00:17:42.000   28 35 34.10735  -17 55 01.61036    73.2050   6   6   0.1198   0.2176   0.3008  -0.0296  -0.1314   0.1130   0.00    0.0
2021/10/10 00:18:12.000   28 35 34.10735  -17 55 01.61053    73.2014   6   6   0.1187   0.2148   0.2992  -0.0297  -0.1303   0.1129   0.00    0.0
2021/10/10 00:18:42.000   28 35 34.10767  -17 55 01.61066    73.1882   6   6   0.1168   0.2117   0.2967  -0.0305  -0.1296   0.1133   0.00    0.0
2021/10/10 00:19:12.000   28 35 34.10794  -17 55 01.61041    73.1712   6   6   0.1123   0.2075   0.2910  -0.0335  -0.1306   0.1154   0.00    0.0
2021/10/10 00:19:42.000   28 35 34.10848  -17 55 01.60897    73.1695   6   6   0.1029   0.2005   0.2797  -0.0414  -0.1349   0.1201   0.00    0.0
2021/10/10 00:20:12.000   28 35 34.10871  -17 55 01.60898    73.1472   6   6   0.1008   0.1972   0.2767  -0.0425  -0.1348   0.1202   0.00    0.0
2021/10/10 00:20:42.000   28 35 34.10883  -17 55 01.60850    73.1427   6   6   0.0999   0.1949   0.2753  -0.0425  -0.1338   0.1199   0.00    0.0
2021/10/10 00:21:12.000   28 35 34.10865  -17 55 01.60818    73.1359   6   6   0.0993   0.1929   0.2742  -0.0422  -0.1326   0.1196   0.00    0.0
2021/10/10 00:21:42.000   28 35 34.10853  -17 55 01.60771    73.1312   6   6   0.0989   0.1910   0.2734  -0.0418  -0.1314   0.1192   0.00    0.0
2021/10/10 00:22:12.000   28 35 34.10847  -17 55 01.60751    73.1273   6   6   0.0985   0.1892   0.2726  -0.0414  -0.1302   0.1188   0.00    0.0
2021/10/10 00:22:42.000   28 35 34.10852  -17 55 01.60742    73.1301   6   6   0.0980   0.1874   0.2717  -0.0411  -0.1291   0.1184   0.00    0.0
2021/10/10 00:23:12.000   28 35 34.10853  -17 55 01.60709    73.1331   6   6   0.0974   0.1855   0.2705  -0.0408  -0.1281   0.1181   0.00    0.0
2021/10/10 00:23:42.000   28 35 34.10839  -17 55 01.60702    73.1362   6   6   0.0963   0.1833   0.2688  -0.0410  -0.1273   0.1179   0.00    0.0
2021/10/10 00:24:12.000   28 35 34.10830  -17 55 01.60706    73.1723   6   6   0.0939   0.1799   0.2652  -0.0423  -0.1271   0.1182   0.00    0.0
2021/10/10 00:24:42.000   28 35 34.10857  -17 55 01.60656    73.1394   6   6   0.0881   0.1735   0.2575  -0.0463  -0.1281   0.1190   0.00    0.0
2021/10/10 00:25:12.000   28 35 34.10855  -17 55 01.60641    73.1406   6   6   0.0867   0.1707   0.2550  -0.0467  -0.1275   0.1186   0.00    0.0
2021/10/10 00:25:42.000   28 35 34.10848  -17 55 01.60648    73.1486   6   6   0.0861   0.1690   0.2537  -0.0464  -0.1265   0.1182   0.00    0.0
2021/10/10 00:26:12.000   28 35 34.10848  -17 55 01.60653    73.1534   6   6   0.0858   0.1676   0.2527  -0.0461  -0.1255   0.1178   0.00    0.0
2021/10/10 00:26:42.000   28 35 34.10827  -17 55 01.60620    73.1436   6   6   0.0854   0.1663   0.2519  -0.0457  -0.1245   0.1174   0.00    0.0
2021/10/10 00:27:12.000   28 35 34.10813  -17 55 01.60634    73.1411   6   6   0.0852   0.1651   0.2512  -0.0453  -0.1236   0.1170   0.00    0.0
2021/10/10 00:27:42.000   28 35 34.10807  -17 55 01.60604    73.1386   6   6   0.0849   0.1638   0.2503  -0.0449  -0.1226   0.1167   0.00    0.0
2021/10/10 00:28:12.000   28 35 34.10798  -17 55 01.60584    73.1387   6   6   0.0844   0.1624   0.2493  -0.0445  -0.1216   0.1162   0.00    0.0
2021/10/10 00:28:42.000   28 35 34.10800  -17 55 01.60588    73.1589   6   6   0.0837   0.1606   0.2476  -0.0443  -0.1206   0.1157   0.00    0.0
2021/10/10 00:29:12.000   28 35 34.10822  -17 55 01.60582    73.1999   6   6   0.0819   0.1575   0.2439  -0.0443  -0.1191   0.1148   0.00    0.0
2021/10/10 00:29:42.000   28 35 34.10905  -17 55 01.60575    73.1945   6   6   0.0773   0.1509   0.2353  -0.0450  -0.1166   0.1127   0.00    0.0
2021/10/10 00:30:12.000   28 35 34.10921  -17 55 01.60584    73.2060   6   6   0.0761   0.1483   0.2322  -0.0447  -0.1151   0.1116   0.00    0.0
2021/10/10 00:30:42.000   28 35 34.10920  -17 55 01.60596    73.2120   6   6   0.0756   0.1469   0.2308  -0.0443  -0.1140   0.1110   0.00    0.0
2021/10/10 00:31:12.000   28 35 34.10923  -17 55 01.60591    73.2177   6   6   0.0753   0.1459   0.2298  -0.0439  -0.1131   0.1106   0.00    0.0
2021/10/10 00:31:42.000   28 35 34.10926  -17 55 01.60595    73.2196   6   6   0.0750   0.1450   0.2290  -0.0435  -0.1123   0.1102   0.00    0.0
2021/10/10 00:32:12.000   28 35 34.10927  -17 55 01.60608    73.2200   6   6   0.0748   0.1441   0.2284  -0.0431  -0.1115   0.1099   0.00    0.0
2021/10/10 00:32:42.000   28 35 34.10928  -17 55 01.60597    73.2161   6   6   0.0746   0.1432   0.2275  -0.0427  -0.1106   0.1095   0.00    0.0
2021/10/10 00:33:12.000   28 35 34.10937  -17 55 01.60582    73.2144   6   6   0.0742   0.1421   0.2264  -0.0423  -0.1096   0.1090   0.00    0.0
2021/10/10 00:33:42.000   28 35 34.10951  -17 55 01.60600    73.2208   6   6   0.0735   0.1406   0.2243  -0.0417  -0.1082   0.1082   0.00    0.0
2021/10/10 00:34:12.000   28 35 34.11003  -17 55 01.60615    73.2289   6   6   0.0718   0.1375   0.2194  -0.0406  -0.1054   0.1062   0.00    0.0
2021/10/10 00:34:42.000   28 35 34.11076  -17 55 01.60615    73.2471   6   6   0.0671   0.1305   0.2077  -0.0386  -0.0994   0.1011   0.00    0.0
2021/10/10 00:35:12.000   28 35 34.11097  -17 55 01.60608    73.2600   6   6   0.0659   0.1281   0.2039  -0.0376  -0.0972   0.0995   0.00    0.0
2021/10/10 00:35:42.000   28 35 34.11109  -17 55 01.60581    73.2543   6   6   0.0654   0.1270   0.2023  -0.0370  -0.0960   0.0987   0.00    0.0
2021/10/10 00:36:12.000   28 35 34.11116  -17 55 01.60558    73.2531   6   6   0.0652   0.1262   0.2013  -0.0366  -0.0952   0.0983   0.00    0.0
2021/10/10 00:36:42.000   28 35 34.11121  -17 55 01.60551    73.2565   6   6   0.0650   0.1255   0.2006  -0.0363  -0.0945   0.0979   0.00    0.0
2021/10/10 00:37:12.000   28 35 34.11125  -17 55 01.60542    73.2604   6   6   0.0648   0.1249   0.2000  -0.0360  -0.0939   0.0976   0.00    0.0
2021/10/10 00:37:42.000   28 35 34.11128  -17 55 01.60528    73.2624   6   6   0.0646   0.1242   0.1992  -0.0356  -0.0932   0.0973   0.00    0.0
2021/10/10 00:38:12.000   28 35 34.11135  -17 55 01.60545    73.2756   6   6   0.0642   0.1234   0.1980  -0.0351  -0.0922   0.0967   0.00    0.0
2021/10/10 00:38:42.000   28 35 34.11138  -17 55 01.60557    73.2822   6   7   0.0635   0.1220   0.1955  -0.0342  -0.0904   0.0955   0.00    0.0
2021/10/10 00:39:12.000   28 35 34.11139  -17 55 01.60551    73.2753   6   7   0.0617   0.1191   0.1895  -0.0323  -0.0867   0.0927   0.00    0.0
2021/10/10 00:39:42.000   28 35 34.11198  -17 55 01.60546    73.3113   6   7   0.0569   0.1124   0.1759  -0.0287  -0.0790   0.0858   0.00    0.0
2021/10/10 00:40:12.000   28 35 34.11190  -17 55 01.60552    73.3227   6   7   0.0556   0.1102   0.1715  -0.0272  -0.0763   0.0838   0.00    0.0
2021/10/10 00:40:42.000   28 35 34.11189  -17 55 01.60555    73.3255   6   7   0.0552   0.1092   0.1697  -0.0265  -0.0751   0.0829   0.00    0.0
2021/10/10 00:41:12.000   28 35 34.11188  -17 55 01.60564    73.3258   6   7   0.0549   0.1086   0.1687  -0.0260  -0.0742   0.0824   0.00    0.0
2021/10/10 00:41:42.000   28 35 34.11189  -17 55 01.60575    73.3284   6   7   0.0547   0.1080   0.1679  -0.0256  -0.0735   0.0820   0.00    0.0
2021/10/10 00:42:12.000   28 35 34.11187  -17 55 01.60573    73.3263   6   7   0.0545   0.1076   0.1672  -0.0253  -0.0730   0.0816   0.00    0.0
2021/10/10 00:42:42.000   28 35 34.11186  -17 55 01.60576    73.3238   6   7   0.0543   0.1070   0.1663  -0.0248  -0.0722   0.0812   0.00    0.0
2021/10/10 00:43:12.000   28 35 34.11193  -17 55 01.60564    73.3210   6   7   0.0539   0.1063   0.1646  -0.0241  -0.0711   0.0803   0.00    0.0
2021/10/10 00:43:42.000   28 35 34.11200  -17 55 01.60547    73.3180   6   7   0.0530   0.1052   0.1614  -0.0230  -0.0693   0.0787   0.00    0.0
2021/10/10 00:44:12.000   28 35 34.11213  -17 55 01.60542    73.3140   6   7   0.0510   0.1027   0.1540  -0.0204  -0.0654   0.0749   0.00    0.0
2021/10/10 00:44:42.000   28 35 34.11256  -17 55 01.60516    73.3367   6   7   0.0464   0.0969   0.1400  -0.0164  -0.0581   0.0675   0.00    0.0
2021/10/10 00:45:12.000   28 35 34.11259  -17 55 01.60495    73.3155   6   7   0.0452   0.0952   0.1355  -0.0146  -0.0556   0.0652   0.00    0.0
2021/10/10 00:45:42.000   28 35 34.11261  -17 55 01.60494    73.3130   6   7   0.0447   0.0944   0.1337  -0.0138  -0.0545   0.0643   0.00    0.0
2021/10/10 00:46:12.000   28 35 34.11260  -17 55 01.60482    73.3071   6   7   0.0445   0.0939   0.1327  -0.0133  -0.0538   0.0638   0.00    0.0
2021/10/10 00:46:42.000   28 35 34.11257  -17 55 01.60466    73.3003   6   7   0.0443   0.0936   0.1320  -0.0129  -0.0533   0.0635   0.00    0.0
2021/10/10 00:47:12.000   28 35 34.11253  -17 55 01.60467    73.2950   6   7   0.0442   0.0932   0.1315  -0.0126  -0.0529   0.0632   0.00    0.0
2021/10/10 00:47:42.000   28 35 34.11250  -17 55 01.60463    73.2892   6   7   0.0440   0.0929   0.1307  -0.0122  -0.0524   0.0628   0.00    0.0
2021/10/10 00:48:12.000   28 35 34.11250  -17 55 01.60455    73.2850   6   7   0.0436   0.0923   0.1293  -0.0114  -0.0516   0.0621   0.00    0.0
2021/10/10 00:48:42.000   28 35 34.11258  -17 55 01.60451    73.2892   6   7   0.0430   0.0915   0.1265  -0.0101  -0.0502   0.0607   0.00    0.0
2021/10/10 00:49:12.000   28 35 34.11282  -17 55 01.60447    73.3015   6   7   0.0413   0.0895   0.1202  -0.0065  -0.0471   0.0574   0.00    0.0
2021/10/10 00:49:42.000   28 35 34.11321  -17 55 01.60447    73.3251   6   7   0.0376   0.0844   0.1088   0.0052  -0.0412   0.0512   0.00    0.0
2021/10/10 00:50:12.000   28 35 34.11330  -17 55 01.60455    73.3374   6   7   0.0366   0.0830   0.1052   0.0072  -0.0394   0.0493   0.00    0.0
2021/10/10 00:50:42.000   28 35 34.11329  -17 55 01.60459    73.3334   6   7   0.0362   0.0825   0.1038   0.0079  -0.0386   0.0486   0.00    0.0
2021/10/10 00:51:12.000   28 35 34.11326  -17 55 01.60455    73.3289   6   7   0.0361   0.0821   0.1030   0.0082  -0.0382   0.0482   0.00    0.0
2021/10/10 00:51:42.000   28 35 34.11324  -17 55 01.60449    73.3269   6   7   0.0359   0.0819   0.1025   0.0085  -0.0378   0.0480   0.00    0.0
2021/10/10 00:52:12.000   28 35 34.11324  -17 55 01.60437    73.3262   6   7   0.0359   0.0816   0.1022   0.0086  -0.0376   0.0478   0.00    0.0
2021/10/10 00:52:42.000   28 35 34.11325  -17 55 01.60441    73.3277   6   7   0.0357   0.0814   0.1016   0.0089  -0.0373   0.0475   0.00    0.0
2021/10/10 00:53:12.000   28 35 34.11324  -17 55 01.60448    73.3300   6   7   0.0355   0.0810   0.1006   0.0092  -0.0367   0.0470   0.00    0.0
2021/10/10 00:53:42.000   28 35 34.11319  -17 55 01.60449    73.3291   6   7   0.0350   0.0803   0.0986   0.0098  -0.0358   0.0460   0.00    0.0
2021/10/10 00:54:12.000   28 35 34.11323  -17 55 01.60441    73.3335   6   7   0.0338   0.0788   0.0942   0.0108  -0.0338   0.0436   0.00    0.0
2021/10/10 00:54:42.000   28 35 34.11364  -17 55 01.60424    73.3576   6   8   0.0310   0.0744   0.0862   0.0113  -0.0299   0.0391   0.00    0.0
2021/10/10 00:55:12.000   28 35 34.11381  -17 55 01.60418    73.3643   6   8   0.0303   0.0732   0.0835   0.0116  -0.0287   0.0377   0.00    0.0
2021/10/10 00:55:42.000   28 35 34.11382  -17 55 01.60420    73.3641   6   8   0.0301   0.0728   0.0825   0.0118  -0.0282   0.0372   0.00    0.0
2021/10/10 00:56:12.000   28 35 34.11381  -17 55 01.60419    73.3636   6   8   0.0299   0.0725   0.0819   0.0118  -0.0279   0.0369   0.00    0.0
2021/10/10 00:56:42.000   28 35 34.11380  -17 55 01.60423    73.3638   6   8   0.0298   0.0723   0.0815   0.0119  -0.0277   0.0368   0.00    0.0
2021/10/10 00:57:12.000   28 35 34.11380  -17 55 01.60426    73.3640   6   8   0.0298   0.0721   0.0813   0.0119  -0.0275   0.0366   0.00    0.0
2021/10/10 00:57:42.000   28 35 34.11379  -17 55 01.60422    73.3648   6   8   0.0297   0.0719   0.0809   0.0120  -0.0273   0.0364   0.00    0.0
2021/10/10 00:58:12.000   28 35 34.11378  -17 55 01.60427    73.3676   6   8   0.0295   0.0716   0.0801   0.0120  -0.0270   0.0360   0.00    0.0
2021/10/10 00:58:42.000   28 35 34.11377  -17 55 01.60419    73.3650   6   8   0.0292   0.0711   0.0787   0.0121  -0.0264   0.0353   0.00    0.0
2021/10/10 00:59:12.000   28 35 34.11382  -17 55 01.60406    73.3578   6   8   0.0283   0.0697   0.0755   0.0123  -0.0252   0.0335   0.00    0.0
2021/10/10 00:59:42.000   28 35 34.11406  -17 55 01.60386    73.3653   6   8   0.0262   0.0660   0.0698   0.0118  -0.0229   0.0302   0.00    0.0
2021/10/10 01:00:12.000   28 35 34.11408  -17 55 01.60384    73.3659   6   8   0.0257   0.0650   0.0678   0.0119  -0.0221   0.0292   0.00    0.0
2021/10/10 01:00:42.000   28 35 34.11408  -17 55 01.60386    73.3697   6   8   0.0255   0.0646   0.0670   0.0119  -0.0217   0.0288   0.00    0.0
2021/10/10 01:01:12.000   28 35 34.11408  -17 55 01.60384    73.3721   6   8   0.0254   0.0644   0.0666   0.0119  -0.0216   0.0286   0.00    0.0
2021/10/10 01:01:42.000   28 35 34.11408  -17 55 01.60384    73.3717   6   8   0.0253   0.0642   0.0664   0.0119  -0.0215   0.0285   0.00    0.0
2021/10/10 01:02:12.000   28 35 34.11408  -17 55 01.60382    73.3713   6   8   0.0253   0.0641   0.0663   0.0119  -0.0214   0.0284   0.00    0.0
2021/10/10 01:02:42.000   28 35 34.11407  -17 55 01.60379    73.3705   6   8   0.0253   0.0639   0.0661   0.0119  -0.0213   0.0284   0.00    0.0
2021/10/10 01:03:12.000   28 35 34.11408  -17 55 01.60371    73.3696   6   8   0.0252   0.0637   0.0658   0.0119  -0.0211   0.0282   0.00    0.0
2021/10/10 01:03:42.000   28 35 34.11406  -17 55 01.60360    73.3676   6   8   0.0250   0.0632   0.0651   0.0119  -0.0208   0.0278   0.00    0.0
2021/10/10 01:04:12.000   28 35 34.11404  -17 55 01.60351    73.3638   6   8   0.0244   0.0621   0.0635   0.0117  -0.0202   0.0270   0.00    0.0
2021/10/10 01:04:42.000   28 35 34.11423  -17 55 01.60342    73.3743   6   7   0.0230   0.0588   0.0603   0.0110  -0.0190   0.0250   0.00    0.0
2021/10/10 01:05:12.000   28 35 34.11425  -17 55 01.60338    73.3783   6   7   0.0226   0.0580   0.0591   0.0109  -0.0185   0.0245   0.00    0.0
2021/10/10 01:05:42.000   28 35 34.11424  -17 55 01.60331    73.3777   6   6   0.0225   0.0577   0.0589   0.0109  -0.0183   0.0243   0.00    0.0
2021/10/10 01:06:12.000   28 35 34.11424  -17 55 01.60324    73.3770   6   6   0.0224   0.0575   0.0587   0.0109  -0.0182   0.0242   0.00    0.0
2021/10/10 01:06:42.000   28 35 34.11424  -17 55 01.60322    73.3773   6   6   0.0224   0.0574   0.0586   0.0109  -0.0181   0.0242   0.00    0.0
2021/10/10 01:07:12.000   28 35 34.11424  -17 55 01.60320    73.3774   6   6   0.0224   0.0573   0.0586   0.0109  -0.0181   0.0241   0.00    0.0
2021/10/10 01:07:42.000   28 35 34.11426  -17 55 01.60316    73.3773   6   6   0.0223   0.0571   0.0585   0.0109  -0.0180   0.0241   0.00    0.0
2021/10/10 01:08:12.000   28 35 34.11428  -17 55 01.60310    73.3775   6   6   0.0223   0.0569   0.0584   0.0109  -0.0179   0.0240   0.00    0.0
2021/10/10 01:08:42.000   28 35 34.11429  -17 55 01.60310    73.3781   6   6   0.0221   0.0565   0.0581   0.0108  -0.0178   0.0238   0.00    0.0
2021/10/10 01:09:12.000   28 35 34.11431  -17 55 01.60300    73.3783   6   6   0.0217   0.0555   0.0573   0.0106  -0.0176   0.0232   0.00    0.0
2021/10/10 01:09:42.000   28 35 34.11441  -17 55 01.60286    73.3825   6   6   0.0205   0.0527   0.0553   0.0099  -0.0171   0.0217   0.00    0.0
2021/10/10 01:10:12.000   28 35 34.11437  -17 55 01.60283    73.3832   6   6   0.0202   0.0519   0.0547   0.0098  -0.0168   0.0213   0.00    0.0
2021/10/10 01:10:42.000   28 35 34.11436  -17 55 01.60281    73.3842   6   6   0.0201   0.0516   0.0545   0.0098  -0.0167   0.0211   0.00    0.0
2021/10/10 01:11:12.000   28 35 34.11435  -17 55 01.60279    73.3846   6   6   0.0200   0.0515   0.0544   0.0098  -0.0167   0.0210   0.00    0.0
2021/10/10 01:11:42.000   28 35 34.11435  -17 55 01.60277    73.3848   6   6   0.0200   0.0514   0.0544   0.0098  -0.0166   0.0210   0.00    0.0
2021/10/10 01:12:12.000   28 35 34.11435  -17 55 01.60273    73.3848   6   6   0.0200   0.0513   0.0543   0.0098  -0.0166   0.0210   0.00    0.0
2021/10/10 01:12:42.000   28 35 34.11435  -17 55 01.60270    73.3849   6   6   0.0200   0.0512   0.0543   0.0098  -0.0166   0.0209   0.00    0.0
2021/10/10 01:13:12.000   28 35 34.11435  -17 55 01.60268    73.3855   6   6   0.0199   0.0510   0.0541   0.0097  -0.0165   0.0208   0.00    0.0
2021/10/10 01:13:42.000   28 35 34.11436  -17 55 01.60267    73.3865   6   6   0.0198   0.0507   0.0539   0.0097  -0.0164   0.0206   0.00    0.0
2021/10/10 01:14:12.000   28 35 34.11437  -17 55 01.60262    73.3857   6   6   0.0194   0.0499   0.0533   0.0096  -0.0162   0.0202   0.00    0.0
2021/10/10 01:14:42.000   28 35 34.11452  -17 55 01.60249    73.3880   6   6   0.0184   0.0474   0.0517   0.0090  -0.0160   0.0188   0.00    0.0
2021/10/10 01:15:12.000   28 35 34.11457  -17 55 01.60248    73.3906   6   6   0.0182   0.0467   0.0513   0.0089  -0.0158   0.0184   0.00    0.0
2021/10/10 01:15:42.000   28 35 34.11458  -17 55 01.60247    73.3919   6   6   0.0181   0.0465   0.0511   0.0089  -0.0158   0.0183   0.00    0.0
2021/10/10 01:16:12.000   28 35 34.11458  -17 55 01.60244    73.3922   6   6   0.0181   0.0464   0.0510   0.0089  -0.0157   0.0182   0.00    0.0
2021/10/10 01:16:42.000   28 35 34.11458  -17 55 01.60241    73.3922   6   6   0.0180   0.0463   0.0510   0.0089  -0.0157   0.0182   0.00    0.0
2021/10/10 01:17:12.000   28 35 34.11457  -17 55 01.60239    73.3923   6   6   0.0180   0.0462   0.0509   0.0089  -0.0157   0.0182   0.00    0.0
2021/10/10 01:17:42.000   28 35 34.11457  -17 55 01.60235    73.3924   6   6   0.0180   0.0461   0.0509   0.0089  -0.0156   0.0181   0.00    0.0
2021/10/10 01:18:12.000   28 35 34.11458  -17 55 01.60234    73.3932   6   6   0.0180   0.0460   0.0508   0.0089  -0.0156   0.0181   0.00    0.0
2021/10/10 01:18:42.000   28 35 34.11459  -17 55 01.60236    73.3947   6   6   0.0179   0.0457   0.0506   0.0089  -0.0155   0.0179   0.00    0.0
2021/10/10 01:19:12.000   28 35 34.11459  -17 55 01.60235    73.3958   6   6   0.0176   0.0450   0.0501   0.0088  -0.0154   0.0175   0.00    0.0
2021/10/10 01:19:42.000   28 35 34.11471  -17 55 01.60229    73.3994   6   6   0.0167   0.0428   0.0488   0.0085  -0.0152   0.0162   0.00    0.0
2021/10/10 01:20:12.000   28 35 34.11476  -17 55 01.60221    73.3985   6   6   0.0165   0.0423   0.0485   0.0084  -0.0150   0.0158   0.00    0.0
2021/10/10 01:20:42.000   28 35 34.11476  -17 55 01.60215    73.3968   6   6   0.0165   0.0421   0.0484   0.0084  -0.0150   0.0157   0.00    0.0
2021/10/10 01:21:12.000   28 35 34.11476  -17 55 01.60210    73.3961   6   6   0.0164   0.0420   0.0483   0.0084  -0.0150   0.0157   0.00    0.0
2021/10/10 01:21:42.000   28 35 34.11476  -17 55 01.60206    73.3957   6   6   0.0164   0.0419   0.0483   0.0084  -0.0150   0.0156   0.00    0.0
2021/10/10 01:22:12.000   28 35 34.11476  -17 55 01.60202    73.3955   6   6   0.0164   0.0418   0.0482   0.0084  -0.0149   0.0156   0.00    0.0
2021/10/10 01:22:42.000   28 35 34.11476  -17 55 01.60199    73.3953   6   6   0.0164   0.0418   0.0482   0.0084  -0.0149   0.0156   0.00    0.0
2021/10/10 01:23:12.000   28 35 34.11477  -17 55 01.60193    73.3953   6   6   0.0163   0.0416   0.0481   0.0084  -0.0149   0.0155   0.00    0.0
2021/10/10 01:23:42.000   28 35 34.11479  -17 55 01.60188    73.3962   6   6   0.0162   0.0414   0.0480   0.0083  -0.0149   0.0154   0.00    0.0
2021/10/10 01:24:12.000   28 35 34.11485  -17 55 01.60181    73.3989   6   6   0.0160   0.0408   0.0476   0.0083  -0.0149   0.0150   0.00    0.0
2021/10/10 01:24:42.000   28 35 34.11492  -17 55 01.60167    73.4011   6   6   0.0153   0.0389   0.0466   0.0080  -0.0148   0.0138   0.00    0.0
2021/10/10 01:25:12.000   28 35 34.11487  -17 55 01.60164    73.3990   6   6   0.0151   0.0384   0.0463   0.0080  -0.0148   0.0135   0.00    0.0
2021/10/10 01:25:42.000   28 35 34.11486  -17 55 01.60160    73.3985   6   6   0.0151   0.0382   0.0462   0.0080  -0.0148   0.0134   0.00    0.0
2021/10/10 01:26:12.000   28 35 34.11487  -17 55 01.60155    73.3986   6   6   0.0151   0.0382   0.0462   0.0080  -0.0147   0.0133   0.00    0.0
2021/10/10 01:26:42.000   28 35 34.11487  -17 55 01.60153    73.3986   6   6   0.0150   0.0381   0.0461   0.0080  -0.0147   0.0133   0.00    0.0
2021/10/10 01:27:12.000   28 35 34.11487  -17 55 01.60151    73.3986   6   6   0.0150   0.0381   0.0461   0.0080  -0.0147   0.0133   0.00    0.0
2021/10/10 01:27:42.000   28 35 34.11488  -17 55 01.60148    73.3985   6   6   0.0150   0.0380   0.0461   0.0079  -0.0147   0.0133   0.00    0.0
2021/10/10 01:28:12.000   28 35 34.11488  -17 55 01.60144    73.3981   6   6   0.0150   0.0379   0.0460   0.0079  -0.0147   0.0132   0.00    0.0
2021/10/10 01:28:42.000   28 35 34.11490  -17 55 01.60140    73.3979   6   6   0.0149   0.0377   0.0459   0.0079  -0.0147   0.0131   0.00    0.0
2021/10/10 01:29:12.000   28 35 34.11493  -17 55 01.60132    73.3972   6   6   0.0147   0.0372   0.0456   0.0079  -0.0147   0.0127   0.00    0.0
2021/10/10 01:29:42.000   28 35 34.11498  -17 55 01.60131    73.3997   6   6   0.0141   0.0356   0.0448   0.0077  -0.0147   0.0116   0.00    0.0
2021/10/10 01:30:12.000   28 35 34.11497  -17 55 01.60132    73.3994   6   6   0.0140   0.0352   0.0446   0.0077  -0.0147   0.0113   0.00    0.0
2021/10/10 01:30:42.000   28 35 34.11498  -17 55 01.60132    73.3995   6   6   0.0140   0.0350   0.0445   0.0077  -0.0147   0.0112   0.00    0.0
2021/10/10 01:31:12.000   28 35 34.11498  -17 55 01.60131    73.3995   6   6   0.0139   0.0350   0.0445   0.0077  -0.0147   0.0112   0.00    0.0
2021/10/10 01:31:42.000   28 35 34.11498  -17 55 01.60130    73.3992   6   6   0.0139   0.0349   0.0444   0.0077  -0.0147   0.0111   0.00    0.0
2021/10/10 01:32:12.000   28 35 34.11498  -17 55 01.60128    73.3993   6   6   0.0139   0.0349   0.0444   0.0077  -0.0147   0.0111   0.00    0.0
2021/10/10 01:32:42.000   28 35 34.11498  -17 55 01.60126    73.3994   6   6   0.0139   0.0348   0.0444   0.0077  -0.0147   0.0111   0.00    0.0
2021/10/10 01:33:12.000   28 35 34.11498  -17 55 01.60122    73.3994   6   6   0.0139   0.0347   0.0444   0.0077  -0.0147   0.0110   0.00    0.0
2021/10/10 01:33:42.000   28 35 34.11498  -17 55 01.60118    73.3988   6   6   0.0138   0.0346   0.0443   0.0077  -0.0147   0.0109   0.00    0.0
2021/10/10 01:34:12.000   28 35 34.11497  -17 55 01.60115    73.3982   6   6   0.0137   0.0341   0.0440   0.0077  -0.0147   0.0105   0.00    0.0
2021/10/10 01:34:42.000   28 35 34.11498  -17 55 01.60113    73.3977   6   6   0.0132   0.0327   0.0433   0.0076  -0.0147   0.0094   0.00    0.0
2021/10/10 01:35:12.000   28 35 34.11501  -17 55 01.60109    73.3992   6   6   0.0131   0.0324   0.0431   0.0076  -0.0147   0.0091   0.00    0.0
2021/10/10 01:35:42.000   28 35 34.11502  -17 55 01.60107    73.3991   6   6   0.0130   0.0322   0.0430   0.0076  -0.0147   0.0090   0.00    0.0
2021/10/10 01:36:12.000   28 35 34.11502  -17 55 01.60107    73.3987   6   6   0.0130   0.0322   0.0430   0.0076  -0.0147   0.0090   0.00    0.0
2021/10/10 01:36:42.000   28 35 34.11502  -17 55 01.60106    73.3986   6   6   0.0130   0.0321   0.0429   0.0076  -0.0147   0.0089   0.00    0.0
2021/10/10 01:37:12.000   28 35 34.11502  -17 55 01.60104    73.3985   6   6   0.0130   0.0321   0.0429   0.0076  -0.0147   0.0089   0.00    0.0
2021/10/10 01:37:42.000   28 35 34.11502  -17 55 01.60103    73.3987   6   6   0.0130   0.0321   0.0429   0.0076  -0.0147   0.0089   0.00    0.0
2021/10/10 01:38:12.000   28 35 34.11502  -17 55 01.60102    73.3987   6   6   0.0130   0.0320   0.0428   0.0076  -0.0147   0.0088   0.00    0.0
2021/10/10 01:38:42.000   28 35 34.11503  -17 55 01.60101    73.3982   6   6   0.0129   0.0319   0.0428   0.0076  -0.0147   0.0087   0.00    0.0
2021/10/10 01:39:12.000   28 35 34.11503  -17 55 01.60101    73.3968   6   6   0.0128   0.0315   0.0425   0.0076  -0.0147   0.0083   0.00    0.0
2021/10/10 01:39:42.000   28 35 34.11503  -17 55 01.60109    73.3951   6   6   0.0124   0.0303   0.0418   0.0075  -0.0148   0.0072   0.00    0.0
2021/10/10 01:40:12.000   28 35 34.11503  -17 55 01.60108    73.3932   6   6   0.0123   0.0300   0.0416   0.0075  -0.0148   0.0069   0.00    0.0
2021/10/10 01:40:42.000   28 35 34.11504  -17 55 01.60108    73.3927   6   6   0.0123   0.0299   0.0416   0.0075  -0.0148   0.0068   0.00    0.0
2021/10/10 01:41:12.000   28 35 34.11505  -17 55 01.60105    73.3928   6   6   0.0122   0.0298   0.0415   0.0075  -0.0148   0.0067   0.00    0.0
2021/10/10 01:41:42.000   28 35 34.11505  -17 55 01.60104    73.3930   6   6   0.0122   0.0298   0.0415   0.0075  -0.0148   0.0067   0.00    0.0
2021/10/10 01:42:12.000   28 35 34.11505  -17 55 01.60102    73.3933   6   6   0.0122   0.0298   0.0415   0.0075  -0.0148   0.0066   0.00    0.0
2021/10/10 01:42:42.000   28 35 34.11506  -17 55 01.60101    73.3938   6   6   0.0122   0.0298   0.0414   0.0075  -0.0148   0.0066   0.00    0.0
2021/10/10 01:43:12.000   28 35 34.11507  -17 55 01.60099    73.3943   6   6   0.0122   0.0297   0.0414   0.0075  -0.0148   0.0065   0.00    0.0
2021/10/10 01:43:42.000   28 35 34.11506  -17 55 01.60099    73.3942   6   5   0.0122   0.0296   0.0413   0.0075  -0.0148   0.0064   0.00    0.0
2021/10/10 01:44:12.000   28 35 34.11506  -17 55 01.60104    73.3941   6   5   0.0121   0.0293   0.0412   0.0075  -0.0148   0.0061   0.00    0.0
2021/10/10 01:44:42.000   28 35 34.11505  -17 55 01.60114    73.3945   6   5   0.0117   0.0282   0.0408   0.0075  -0.0149   0.0050   0.00    0.0
2021/10/10 01:45:12.000   28 35 34.11507  -17 55 01.60114    73.3946   6   5   0.0116   0.0280   0.0408   0.0075  -0.0149   0.0047   0.00    0.0
2021/10/10 01:45:42.000   28 35 34.11507  -17 55 01.60111    73.3944   6   5   0.0116   0.0279   0.0407   0.0075  -0.0149   0.0046   0.00    0.0
2021/10/10 01:46:12.000   28 35 34.11507  -17 55 01.60111    73.3941   6   5   0.0116   0.0279   0.0407   0.0075  -0.0149   0.0046   0.00    0.0
2021/10/10 01:46:42.000   28 35 34.11507  -17 55 01.60111    73.3938   6   5   0.0116   0.0278   0.0407   0.0075  -0.0149   0.0045   0.00    0.0
2021/10/10 01:47:12.000   28 35 34.11506  -17 55 01.60111    73.3937   6   5   0.0116   0.0278   0.0407   0.0075  -0.0149   0.0045   0.00    0.0
2021/10/10 01:47:42.000   28 35 34.11506  -17 55 01.60111    73.3934   6   5   0.0116   0.0278   0.0407   0.0075  -0.0149   0.0045   0.00    0.0
2021/10/10 01:48:12.000   28 35 34.11505  -17 55 01.60110    73.3932   6   5   0.0116   0.0277   0.0407   0.0075  -0.0149   0.0044   0.00    0.0
2021/10/10 01:48:42.000   28 35 34.11505  -17 55 01.60108    73.3930   6   5   0.0115   0.0276   0.0406   0.0075  -0.0149   0.0043   0.00    0.0
2021/10/10 01:49:12.000   28 35 34.11505  -17 55 01.60109    73.3929   6   5   0.0114   0.0274   0.0405   0.0075  -0.0150   0.0039   0.00    0.0
2021/10/10 01:49:42.000   28 35 34.11505  -17 55 01.60116    73.3938   6   5   0.0112   0.0265   0.0402   0.0075  -0.0151   0.0021   0.00    0.0
2021/10/10 01:50:12.000   28 35 34.11507  -17 55 01.60114    73.3939   6   5   0.0111   0.0263   0.0401   0.0075  -0.0151   0.0014   0.00    0.0
2021/10/10 01:50:42.000   28 35 34.11507  -17 55 01.60110    73.3934   6   5   0.0111   0.0262   0.0401   0.0075  -0.0151   0.0011   0.00    0.0
2021/10/10 01:51:12.000   28 35 34.11507  -17 55 01.60109    73.3932   6   5   0.0110   0.0262   0.0401   0.0075  -0.0151   0.0009   0.00    0.0
2021/10/10 01:51:42.000   28 35 34.11507  -17 55 01.60107    73.3932   6   5   0.0110   0.0261   0.0401   0.0075  -0.0151   0.0008   0.00    0.0
2021/10/10 01:52:12.000   28 35 34.11507  -17 55 01.60106    73.3931   6   5   0.0110   0.0261   0.0401   0.0075  -0.0151   0.0007   0.00    0.0
2021/10/10 01:52:42.000   28 35 34.11507  -17 55 01.60107    73.3933   6   5   0.0110   0.0261   0.0401   0.0075  -0.0151   0.0005   0.00    0.0
2021/10/10 01:53:12.000   28 35 34.11508  -17 55 01.60107    73.3936   6   5   0.0110   0.0261   0.0401   0.0075  -0.0151  -0.0004   0.00    0.0
2021/10/10 01:53:42.000   28 35 34.11508  -17 55 01.60105    73.3937   6   5   0.0110   0.0260   0.0400   0.0075  -0.0152  -0.0010   0.00    0.0
2021/10/10 01:54:12.000   28 35 34.11510  -17 55 01.60102    73.3937   6   5   0.0109   0.0258   0.0400   0.0075  -0.0152  -0.0020   0.00    0.0
2021/10/10 01:54:42.000   28 35 34.11510  -17 55 01.60112    73.3947   6   5   0.0107   0.0250   0.0397   0.0075  -0.0154  -0.0036   0.00    0.0
2021/10/10 01:55:12.000   28 35 34.11511  -17 55 01.60114    73.3953   6   5   0.0106   0.0248   0.0396   0.0075  -0.0154  -0.0039   0.00    0.0
2021/10/10 01:55:42.000   28 35 34.11512  -17 55 01.60112    73.3957   6   5   0.0106   0.0248   0.0396   0.0075  -0.0154  -0.0040   0.00    0.0
2021/10/10 01:56:12.000   28 35 34.11512  -17 55 01.60110    73.3958   6   5   0.0106   0.0247   0.0396   0.0075  -0.0154  -0.0040   0.00    0.0
2021/10/10 01:56:42.000   28 35 34.11512  -17 55 01.60108    73.3959   6   5   0.0106   0.0247   0.0396   0.0075  -0.0154  -0.0040   0.00    0.0
2021/10/10 01:57:12.000   28 35 34.11513  -17 55 01.60106    73.3959   6   5   0.0106   0.0247   0.0396   0.0075  -0.0154  -0.0041   0.00    0.0
2021/10/10 01:57:42.000   28 35 34.11513  -17 55 01.60105    73.3959   6   5   0.0106   0.0247   0.0396   0.0075  -0.0155  -0.0041   0.00    0.0
2021/10/10 01:58:12.000   28 35 34.11513  -17 55 01.60103    73.3960   6   5   0.0105   0.0246   0.0396   0.0075  -0.0155  -0.0041   0.00    0.0
2021/10/10 01:58:42.000   28 35 34.11512  -17 55 01.60102    73.3952   6   5   0.0105   0.0246   0.0395   0.0075  -0.0155  -0.0042   0.00    0.0
2021/10/10 01:59:12.000   28 35 34.11509  -17 55 01.60104    73.3928   6   5   0.0105   0.0244   0.0395   0.0075  -0.0155  -0.0045   0.00    0.0
2021/10/10 01:59:42.000   28 35 34.11507  -17 55 01.60114    73.3926   6   5   0.0102   0.0237   0.0392   0.0075  -0.0157  -0.0053   0.00    0.0
2021/10/10 02:00:12.000   28 35 34.11508  -17 55 01.60115    73.3938   6   5   0.0102   0.0236   0.0391   0.0075  -0.0158  -0.0055   0.00    0.0
2021/10/10 02:00:42.000   28 35 34.11509  -17 55 01.60114    73.3948   6   5   0.0102   0.0235   0.0391   0.0075  -0.0158  -0.0056   0.00    0.0
2021/10/10 02:01:12.000   28 35 34.11510  -17 55 01.60114    73.3953   6   5   0.0101   0.0235   0.0391   0.0075  -0.0158  -0.0056   0.00    0.0
2021/10/10 02:01:42.000   28 35 34.11510  -17 55 01.60114    73.3953   6   5   0.0101   0.0235   0.0391   0.0075  -0.0158  -0.0056   0.00    0.0
2021/10/10 02:02:12.000   28 35 34.11510  -17 55 01.60113    73.3952   6   5   0.0101   0.0235   0.0391   0.0075  -0.0158  -0.0056   0.00    0.0
2021/10/10 02:02:42.000   28 35 34.11510  -17 55 01.60113    73.3951   6   5   0.0101   0.0235   0.0391   0.0075  -0.0158  -0.0056   0.00    0.0
2021/10/10 02:03:12.000   28 35 34.11509  -17 55 01.60114    73.3946   6   5   0.0101   0.0234   0.0391   0.0075  -0.0158  -0.0057   0.00    0.0
2021/10/10 02:03:42.000   28 35 34.11508  -17 55 01.60117    73.3944   6   5   0.0101   0.0234   0.0390   0.0075  -0.0158  -0.0057   0.00    0.0
2021/10/10 02:04:12.000   28 35 34.11508  -17 55 01.60121    73.3941   6   5   0.0100   0.0232   0.0390   0.0075  -0.0159  -0.0059   0.00    0.0
2021/10/10 02:04:42.000   28 35 34.11507  -17 55 01.60125    73.3935   6   5   0.0098   0.0227   0.0387   0.0075  -0.0161  -0.0065   0.00    0.0
2021/10/10 02:05:12.000   28 35 34.11508  -17 55 01.60128    73.3940   6   5   0.0098   0.0226   0.0387   0.0075  -0.0162  -0.0066   0.00    0.0
2021/10/10 02:05:42.000   28 35 34.11507  -17 55 01.60128    73.3933   6   5   0.0098   0.0225   0.0386   0.0075  -0.0162  -0.0066   0.00    0.0
2021/10/10 02:06:12.000   28 35 34.11506  -17 55 01.60128    73.3928   6   5   0.0098   0.0225   0.0386   0.0075  -0.0162  -0.0067   0.00    0.0
2021/10/10 02:06:42.000   28 35 34.11506  -17 55 01.60127    73.3925   6   5   0.0098   0.0225   0.0386   0.0075  -0.0162  -0.0067   0.00    0.0
2021/10/10 02:07:12.000   28 35 34.11505  -17 55 01.60127    73.3922   6   5   0.0098   0.0225   0.0386   0.0075  -0.0162  -0.0067   0.00    0.0
2021/10/10 02:07:42.000   28 35 34.11505  -17 55 01.60127    73.3918   6   5   0.0098   0.0225   0.0386   0.0075  -0.0162  -0.0067   0.00    0.0
2021/10/10 02:08:12.000   28 35 34.11504  -17 55 01.60128    73.3911   6   5   0.0098   0.0224   0.0386   0.0075  -0.0162  -0.0067   0.00    0.0
2021/10/10 02:08:42.000   28 35 34.11504  -17 55 01.60129    73.3905   6   5   0.0097   0.0224   0.0386   0.0075  -0.0162  -0.0068   0.00    0.0
2021/10/10 02:09:12.000   28 35 34.11503  -17 55 01.60132    73.3894   6   5   0.0097   0.0223   0.0385   0.0076  -0.0163  -0.0069   0.00    0.0
2021/10/10 02:09:42.000   28 35 34.11502  -17 55 01.60139    73.3883   6   5   0.0095   0.0218   0.0383   0.0076  -0.0165  -0.0073   0.00    0.0
2021/10/10 02:10:12.000   28 35 34.11499  -17 55 01.60144    73.3858   6   5   0.0095   0.0217   0.0382   0.0076  -0.0165  -0.0074   0.00    0.0
2021/10/10 02:10:42.000   28 35 34.11498  -17 55 01.60146    73.3852   6   5   0.0095   0.0217   0.0382   0.0076  -0.0166  -0.0074   0.00    0.0
2021/10/10 02:11:12.000   28 35 34.11497  -17 55 01.60147    73.3848   6   5   0.0095   0.0217   0.0382   0.0076  -0.0166  -0.0075   0.00    0.0
2021/10/10 02:11:42.000   28 35 34.11497  -17 55 01.60148    73.3845   6   5   0.0095   0.0216   0.0382   0.0076  -0.0166  -0.0075   0.00    0.0
2021/10/10 02:12:12.000   28 35 34.11497  -17 55 01.60148    73.3843   6   5   0.0094   0.0216   0.0382   0.0076  -0.0166  -0.0075   0.00    0.0
2021/10/10 02:12:42.000   28 35 34.11496  -17 55 01.60148    73.3840   6   5   0.0094   0.0216   0.0381   0.0076  -0.0166  -0.0075   0.00    0.0
2021/10/10 02:13:12.000   28 35 34.11496  -17 55 01.60147    73.3838   6   5   0.0094   0.0216   0.0381   0.0076  -0.0166  -0.0075   0.00    0.0
2021/10/10 02:13:42.000   28 35 34.11496  -17 55 01.60146    73.3834   6   5   0.0094   0.0216   0.0381   0.0076  -0.0166  -0.0075   0.00    0.0
2021/10/10 02:14:12.000   28 35 34.11496  -17 55 01.60147    73.3821   6   5   0.0094   0.0215   0.0380   0.0076  -0.0167  -0.0076   0.00    0.0
2021/10/10 02:14:42.000   28 35 34.11496  -17 55 01.60157    73.3800   6   5   0.0092   0.0211   0.0378   0.0077  -0.0169  -0.0080   0.00    0.0
2021/10/10 02:15:12.000   28 35 34.11496  -17 55 01.60160    73.3793   6   5   0.0092   0.0210   0.0377   0.0077  -0.0169  -0.0080   0.00    0.0
2021/10/10 02:15:42.000   28 35 34.11496  -17 55 01.60161    73.3787   6   5   0.0092   0.0210   0.0377   0.0077  -0.0169  -0.0081   0.00    0.0
2021/10/10 02:16:12.000   28 35 34.11495  -17 55 01.60161    73.3781   6   5   0.0092   0.0210   0.0377   0.0077  -0.0170  -0.0081   0.00    0.0
2021/10/10 02:16:42.000   28 35 34.11495  -17 55 01.60161    73.3779   6   5   0.0092   0.0210   0.0377   0.0077  -0.0170  -0.0081   0.00    0.0
2021/10/10 02:17:12.000   28 35 34.11495  -17 55 01.60161    73.3778   6   5   0.0092   0.0209   0.0377   0.0077  -0.0170  -0.0081   0.00    0.0
2021/10/10 02:17:42.000   28 35 34.11495  -17 55 01.60161    73.3778   6   5   0.0092   0.0209   0.0377   0.0077  -0.0170  -0.0081   0.00    0.0
2021/10/10 02:18:12.000   28 35 34.11495  -17 55 01.60160    73.3775   6   5   0.0092   0.0209   0.0376   0.0077  -0.0170  -0.0081   0.00    0.0
2021/10/10 02:18:42.000   28 35 34.11495  -17 55 01.60159    73.3770   6   5   0.0091   0.0209   0.0376   0.0077  -0.0170  -0.0081   0.00    0.0
2021/10/10 02:19:12.000   28 35 34.11495  -17 55 01.60155    73.3767   6   5   0.0091   0.0208   0.0375   0.0077  -0.0170  -0.0082   0.00    0.0
2021/10/10 02:19:42.000   28 35 34.11495  -17 55 01.60160    73.3753   6   5   0.0090   0.0205   0.0373   0.0077  -0.0173  -0.0085   0.00    0.0
2021/10/10 02:20:12.000   28 35 34.11495  -17 55 01.60164    73.3746   6   5   0.0089   0.0204   0.0372   0.0078  -0.0173  -0.0085   0.00    0.0
2021/10/10 02:20:42.000   28 35 34.11494  -17 55 01.60166    73.3739   6   5   0.0089   0.0204   0.0372   0.0078  -0.0173  -0.0086   0.00    0.0
2021/10/10 02:21:12.000   28 35 34.11494  -17 55 01.60165    73.3734   6   5   0.0089   0.0204   0.0372   0.0078  -0.0173  -0.0086   0.00    0.0
2021/10/10 02:21:42.000   28 35 34.11494  -17 55 01.60165    73.3733   6   5   0.0089   0.0204   0.0372   0.0078  -0.0173  -0.0086   0.00    0.0
2021/10/10 02:22:12.000   28 35 34.11494  -17 55 01.60164    73.3732   6   5   0.0089   0.0204   0.0371   0.0078  -0.0173  -0.0086   0.00    0.0
2021/10/10 02:22:42.000   28 35 34.11494  -17 55 01.60163    73.3729   6   6   0.0089   0.0204   0.0371   0.0078  -0.0173  -0.0086   0.00    0.0
2021/10/10 02:23:12.000   28 35 34.11494  -17 55 01.60163    73.3725   6   6   0.0089   0.0204   0.0371   0.0078  -0.0173  -0.0086   0.00    0.0
2021/10/10 02:23:42.000   28 35 34.11494  -17 55 01.60161    73.3721   6   6   0.0089   0.0203   0.0371   0.0078  -0.0173  -0.0086   0.00    0.0
2021/10/10 02:24:12.000   28 35 34.11494  -17 55 01.60159    73.3714   6   6   0.0089   0.0203   0.0370   0.0078  -0.0174  -0.0087   0.00    0.0
2021/10/10 02:24:42.000   28 35 34.11495  -17 55 01.60165    73.3692   6   6   0.0088   0.0200   0.0367   0.0078  -0.0176  -0.0089   0.00    0.0
2021/10/10 02:25:12.000   28 35 34.11496  -17 55 01.60165    73.3699   6   6   0.0087   0.0200   0.0367   0.0078  -0.0176  -0.0089   0.00    0.0
2021/10/10 02:25:42.000   28 35 34.11496  -17 55 01.60165    73.3696   6   6   0.0087   0.0200   0.0366   0.0078  -0.0176  -0.0089   0.00    0.0
2021/10/10 02:26:12.000   28 35 34.11496  -17 55 01.60165    73.3693   6   6   0.0087   0.0200   0.0366   0.0078  -0.0176  -0.0089   0.00    0.0
2021/10/10 02:26:42.000   28 35 34.11496  -17 55 01.60165    73.3693   6   6   0.0087   0.0200   0.0366   0.0078  -0.0176  -0.0089   0.00    0.0
2021/10/10 02:27:12.000   28 35 34.11496  -17 55 01.60164    73.3692   6   6   0.0087   0.0199   0.0366   0.0078  -0.0176  -0.0089   0.00    0.0
2021/10/10 02:27:42.000   28 35 34.11496  -17 55 01.60162    73.3691   6   6   0.0087   0.0199   0.0366   0.0078  -0.0176  -0.0090   0.00    0.0
2021/10/10 02:28:12.000   28 35 34.11496  -17 55 01.60161    73.3687   6   6   0.0087   0.0199   0.0366   0.0078  -0.0176  -0.0090   0.00    0.0
2021/10/10 02:28:42.000   28 35 34.11497  -17 55 01.60160    73.3677   6   6   0.0087   0.0199   0.0366   0.0079  -0.0177  -0.0090   0.00    0.0
2021/10/10 02:29:12.000   28 35 34.11497  -17 55 01.60159    73.3666   6   6   0.0087   0.0199   0.0365   0.0079  -0.0177  -0.0090   0.00    0.0
2021/10/10 02:29:42.000   28 35 34.11499  -17 55 01.60162    73.3658   6   6   0.0086   0.0197   0.0362   0.0079  -0.0179  -0.0092   0.00    0.0
2021/10/10 02:30:12.000   28 35 34.11499  -17 55 01.60164    73.3652   6   6   0.0085   0.0196   0.0361   0.0079  -0.0179  -0.0092   0.00    0.0
2021/10/10 02:30:42.000   28 35 34.11498  -17 55 01.60166    73.3643   6   6   0.0085   0.0196   0.0361   0.0079  -0.0179  -0.0092   0.00    0.0
2021/10/10 02:31:12.000   28 35 34.11498  -17 55 01.60165    73.3637   6   6   0.0085   0.0196   0.0361   0.0079  -0.0179  -0.0092   0.00    0.0
2021/10/10 02:31:42.000   28 35 34.11498  -17 55 01.60165    73.3638   6   6   0.0085   0.0196   0.0360   0.0079  -0.0179  -0.0092   0.00    0.0
2021/10/10 02:32:12.000   28 35 34.11498  -17 55 01.60165    73.3638   6   6   0.0085   0.0196   0.0360   0.0079  -0.0179  -0.0092   0.00    0.0
2021/10/10 02:32:42.000   28 35 34.11498  -17 55 01.60166    73.3637   6   7   0.0085   0.0196   0.0360   0.0079  -0.0179  -0.0092   0.00    0.0
2021/10/10 02:33:12.000   28 35 34.11497  -17 55 01.60166    73.3639   6   7   0.0085   0.0196   0.0360   0.0079  -0.0179  -0.0092   0.00    0.0
2021/10/10 02:33:42.000   28 35 34.11498  -17 55 01.60165    73.3641   6   7   0.0085   0.0196   0.0360   0.0079  -0.0179  -0.0092   0.00    0.0
2021/10/10 02:34:12.000   28 35 34.11499  -17 55 01.60164    73.3641   6   7   0.0085   0.0195   0.0359   0.0080  -0.0180  -0.0093   0.00    0.0
2021/10/10 02:34:42.000   28 35 34.11499  -17 55 01.60165    73.3627   6   7   0.0084   0.0194   0.0356   0.0080  -0.0181  -0.0094   0.00    0.0
2021/10/10 02:35:12.000   28 35 34.11500  -17 55 01.60164    73.3634   6   7   0.0084   0.0194   0.0355   0.0080  -0.0181  -0.0094   0.00    0.0
2021/10/10 02:35:42.000   28 35 34.11500  -17 55 01.60164    73.3637   6   7   0.0083   0.0193   0.0354   0.0080  -0.0181  -0.0094   0.00    0.0
2021/10/10 02:36:12.000   28 35 34.11501  -17 55 01.60163    73.3635   6   7   0.0083   0.0193   0.0354   0.0080  -0.0181  -0.0094   0.00    0.0
2021/10/10 02:36:42.000   28 35 34.11500  -17 55 01.60162    73.3632   6   7   0.0083   0.0193   0.0354   0.0080  -0.0181  -0.0094   0.00    0.0
2021/10/10 02:37:12.000   28 35 34.11500  -17 55 01.60162    73.3630   6   7   0.0083   0.0193   0.0354   0.0080  -0.0181  -0.0094   0.00    0.0
2021/10/10 02:37:42.000   28 35 34.11500  -17 55 01.60161    73.3629   6   7   0.0083   0.0193   0.0354   0.0080  -0.0181  -0.0094   0.00    0.0
2021/10/10 02:38:12.000   28 35 34.11500  -17 55 01.60161    73.3628   6   7   0.0083   0.0193   0.0354   0.0080  -0.0181  -0.0094   0.00    0.0
2021/10/10 02:38:42.000   28 35 34.11499  -17 55 01.60161    73.3625   6   7   0.0083   0.0193   0.0353   0.0080  -0.0181  -0.0094   0.00    0.0
2021/10/10 02:39:12.000   28 35 34.11498  -17 55 01.60162    73.3609   6   7   0.0083   0.0193   0.0352   0.0080  -0.0182  -0.0095   0.00    0.0
2021/10/10 02:39:42.000   28 35 34.11499  -17 55 01.60162    73.3593   6   7   0.0082   0.0192   0.0349   0.0081  -0.0183  -0.0095   0.00    0.0
2021/10/10 02:40:12.000   28 35 34.11499  -17 55 01.60162    73.3593   6   7   0.0082   0.0191   0.0348   0.0081  -0.0183  -0.0095   0.00    0.0
2021/10/10 02:40:42.000   28 35 34.11499  -17 55 01.60163    73.3592   6   7   0.0082   0.0191   0.0348   0.0081  -0.0183  -0.0095   0.00    0.0
2021/10/10 02:41:12.000   28 35 34.11499  -17 55 01.60162    73.3590   6   7   0.0082   0.0191   0.0348   0.0081  -0.0183  -0.0095   0.00    0.0
2021/10/10 02:41:42.000   28 35 34.11498  -17 55 01.60162    73.3590   6   7   0.0082   0.0191   0.0348   0.0081  -0.0183  -0.0095   0.00    0.0
2021/10/10 02:42:12.000   28 35 34.11498  -17 55 01.60163    73.3588   6   7   0.0082   0.0191   0.0348   0.0081  -0.0183  -0.0095   0.00    0.0
2021/10/10 02:42:42.000   28 35 34.11498  -17 55 01.60163    73.3582   6   7   0.0082   0.0191   0.0347   0.0081  -0.0183  -0.0095   0.00    0.0
2021/10/10 02:43:12.000   28 35 34.11497  -17 55 01.60162    73.3576   6   7   0.0082   0.0191   0.0347   0.0081  -0.0183  -0.0095   0.00    0.0
2021/10/10 02:43:42.000   28 35 34.11497  -17 55 01.60161    73.3567   6   7   0.0082   0.0191   0.0347   0.0081  -0.0183  -0.0095   0.00    0.0
2021/10/10 02:44:12.000   28 35 34.11497  -17 55 01.60161    73.3569   6   7   0.0081   0.0191   0.0346   0.0081  -0.0183  -0.0096   0.00    0.0
2021/10/10 02:44:42.000   28 35 34.11498  -17 55 01.60162    73.3547   6   7   0.0081   0.0190   0.0343   0.0081  -0.0184  -0.0096   0.00    0.0
2021/10/10 02:45:12.000   28 35 34.11498  -17 55 01.60162    73.3537   6   7   0.0080   0.0190   0.0342   0.0082  -0.0184  -0.0096   0.00    0.0
2021/10/10 02:45:42.000   28 35 34.11498  -17 55 01.60162    73.3526   6   7   0.0080   0.0190   0.0341   0.0082  -0.0185  -0.0096   0.00    0.0
2021/10/10 02:46:12.000   28 35 34.11498  -17 55 01.60161    73.3522   6   7   0.0080   0.0190   0.0341   0.0082  -0.0185  -0.0096   0.00    0.0
2021/10/10 02:46:42.000   28 35 34.11498  -17 55 01.60160    73.3522   6   7   0.0080   0.0190   0.0341   0.0082  -0.0185  -0.0096   0.00    0.0
2021/10/10 02:47:12.000   28 35 34.11498  -17 55 01.60159    73.3521   6   7   0.0080   0.0190   0.0341   0.0082  -0.0185  -0.0096   0.00    0.0
2021/10/10 02:47:42.000   28 35 34.11499  -17 55 01.60158    73.3523   6   8   0.0080   0.0190   0.0341   0.0082  -0.0185  -0.0096   0.00    0.0
2021/10/10 02:48:12.000   28 35 34.11499  -17 55 01.60157    73.3521   6   8   0.0080   0.0190   0.0341   0.0082  -0.0185  -0.0096   0.00    0.0
2021/10/10 02:48:42.000   28 35 34.11498  -17 55 01.60157    73.3520   6   8   0.0080   0.0190   0.0340   0.0082  -0.0185  -0.0096   0.00    0.0
2021/10/10 02:49:12.000   28 35 34.11498  -17 55 01.60156    73.3519   6   8   0.0080   0.0189   0.0339   0.0082  -0.0185  -0.0096   0.00    0.0
2021/10/10 02:49:42.000   28 35 34.11499  -17 55 01.60159    73.3508   6   8   0.0079   0.0189   0.0336   0.0082  -0.0185  -0.0096   0.00    0.0
2021/10/10 02:50:12.000   28 35 34.11499  -17 55 01.60160    73.3497   6   8   0.0079   0.0189   0.0336   0.0082  -0.0186  -0.0096   0.00    0.0
2021/10/10 02:50:42.000   28 35 34.11499  -17 55 01.60160    73.3489   6   8   0.0079   0.0189   0.0335   0.0082  -0.0186  -0.0096   0.00    0.0
2021/10/10 02:51:12.000   28 35 34.11498  -17 55 01.60160    73.3487   6   8   0.0079   0.0189   0.0335   0.0082  -0.0186  -0.0096   0.00    0.0
2021/10/10 02:51:42.000   28 35 34.11498  -17 55 01.60160    73.3487   6   8   0.0079   0.0189   0.0335   0.0082  -0.0186  -0.0096   0.00    0.0
2021/10/10 02:52:12.000   28 35 34.11498  -17 55 01.60160    73.3487   6   8   0.0079   0.0189   0.0335   0.0082  -0.0186  -0.0096   0.00    0.0
2021/10/10 02:52:42.000   28 35 34.11498  -17 55 01.60160    73.3486   6   8   0.0079   0.0189   0.0335   0.0082  -0.0186  -0.0096   0.00    0.0
2021/10/10 02:53:12.000   28 35 34.11498  -17 55 01.60159    73.3481   6   8   0.0079   0.0189   0.0335   0.0082  -0.0186  -0.0096   0.00    0.0
2021/10/10 02:53:42.000   28 35 34.11498  -17 55 01.60159    73.3471   6   8   0.0079   0.0188   0.0334   0.0082  -0.0186  -0.0096   0.00    0.0
2021/10/10 02:54:12.000   28 35 34.11498  -17 55 01.60159    73.3459   6   8   0.0078   0.0188   0.0333   0.0082  -0.0186  -0.0096   0.00    0.0
2021/10/10 02:54:42.000   28 35 34.11500  -17 55 01.60161    73.3428   6   8   0.0078   0.0188   0.0330   0.0082  -0.0186  -0.0096   0.00    0.0
2021/10/10 02:55:12.000   28 35 34.11500  -17 55 01.60161    73.3387   6   8   0.0078   0.0188   0.0330   0.0082  -0.0186  -0.0096   0.00    0.0
2021/10/10 02:55:42.000   28 35 34.11499  -17 55 01.60161    73.3374   6   8   0.0077   0.0188   0.0329   0.0082  -0.0186  -0.0096   0.00    0.0
2021/10/10 02:56:12.000   28 35 34.11499  -17 55 01.60161    73.3375   6   8   0.0077   0.0188   0.0329   0.0082  -0.0186  -0.0096   0.00    0.0
2021/10/10 02:56:42.000   28 35 34.11499  -17 55 01.60161    73.3374   6   8   0.0077   0.0188   0.0329   0.0082  -0.0186  -0.0096   0.00    0.0
2021/10/10 02:57:12.000   28 35 34.11499  -17 55 01.60160    73.3372   6   8   0.0077   0.0188   0.0329   0.0082  -0.0186  -0.0096   0.00    0.0
2021/10/10 02:57:42.000   28 35 34.11499  -17 55 01.60159    73.3367   6   8   0.0077   0.0188   0.0329   0.0082  -0.0186  -0.0096   0.00    0.0
2021/10/10 02:58:12.000   28 35 34.11499  -17 55 01.60159    73.3360   6   8   0.0077   0.0188   0.0329   0.0082  -0.0186  -0.0096   0.00    0.0
2021/10/10 02:58:42.000   28 35 34.11499  -17 55 01.60159    73.3342   6   8   0.0077   0.0188   0.0328   0.0082  -0.0186  -0.0096   0.00    0.0
2021/10/10 02:59:12.000   28 35 34.11500  -17 55 01.60160    73.3324   6   8   0.0077   0.0188   0.0327   0.0082  -0.0186  -0.0096   0.00    0.0
2021/10/10 02:59:42.000   28 35 34.11502  -17 55 01.60159    73.3313   6   8   0.0076   0.0187   0.0325   0.0083  -0.0187  -0.0096   0.00    0.0
2021/10/10 03:00:12.000   28 35 34.11501  -17 55 01.60160    73.3300   6   8   0.0076   0.0187   0.0324   0.0083  -0.0187  -0.0096   0.00    0.0
2021/10/10 03:00:42.000   28 35 34.11501  -17 55 01.60160    73.3291   6   8   0.0076   0.0187   0.0324   0.0083  -0.0187  -0.0096   0.00    0.0
2021/10/10 03:01:12.000   28 35 34.11501  -17 55 01.60159    73.3291   6   8   0.0076   0.0187   0.0324   0.0083  -0.0187  -0.0096   0.00    0.0
2021/10/10 03:01:42.000   28 35 34.11501  -17 55 01.60159    73.3289   6   8   0.0076   0.0187   0.0324   0.0083  -0.0187  -0.0095   0.00    0.0
2021/10/10 03:02:12.000   28 35 34.11501  -17 55 01.60158    73.3287   6   8   0.0076   0.0187   0.0324   0.0083  -0.0187  -0.0095   0.00    0.0
2021/10/10 03:02:42.000   28 35 34.11501  -17 55 01.60158    73.3286   6   8   0.0076   0.0187   0.0323   0.0083  -0.0187  -0.0095   0.00    0.0
2021/10/10 03:03:12.000   28 35 34.11501  -17 55 01.60157    73.3287   6   8   0.0076   0.0187   0.0323   0.0083  -0.0187  -0.0095   0.00    0.0
2021/10/10 03:03:42.000   28 35 34.11501  -17 55 01.60157    73.3290   6   8   0.0076   0.0187   0.0323   0.0083  -0.0187  -0.0095   0.00    0.0
2021/10/10 03:04:12.000   28 35 34.11501  -17 55 01.60156    73.3303   6   8   0.0076   0.0187   0.0322   0.0083  -0.0187  -0.0095   0.00    0.0
2021/10/10 03:04:42.000   28 35 34.11504  -17 55 01.60155    73.3308   6   8   0.0075   0.0187   0.0320   0.0083  -0.0187  -0.0095   0.00    0.0
2021/10/10 03:05:12.000   28 35 34.11504  -17 55 01.60155    73.3325   6   8   0.0075   0.0187   0.0319   0.0083  -0.0187  -0.0095   0.00    0.0
2021/10/10 03:05:42.000   28 35 34.11504  -17 55 01.60154    73.3330   6   8   0.0075   0.0187   0.0319   0.0083  -0.0187  -0.0095   0.00    0.0
2021/10/10 03:06:12.000   28 35 34.11504  -17 55 01.60154    73.3330   6   8   0.0075   0.0187   0.0319   0.0083  -0.0187  -0.0095   0.00    0.0
2021/10/10 03:06:42.000   28 35 34.11504  -17 55 01.60153    73.3331   6   8   0.0075   0.0187   0.0319   0.0083  -0.0187  -0.0095   0.00    0.0
2021/10/10 11:24:41.990   28 35 34.11504  -17 55 01.60152    73.3328   6   6   0.0075   0.0187   0.0319   0.0083  -0.0187  -0.0095   0.00    0.0
2021/10/10 11:25:12.000   28 35 34.11504  -17 55 01.60152    73.3326   6   8   0.0075   0.0187   0.0319   0.0083  -0.0187  -0.0095   0.00    0.0
2021/10/10 11:25:42.000   28 35 34.11505  -17 55 01.60150    73.3322   6   8   0.0075   0.0187   0.0319   0.0083  -0.0187  -0.0095   0.00    0.0
2021/10/10 11:26:12.000   28 35 34.11505  -17 55 01.60150    73.3320   6   8   0.0075   0.0187   0.0319   0.0083  -0.0187  -0.0095   0.00    0.0
2021/10/10 11:26:42.000   28 35 34.11505  -17 55 01.60149    73.3318   6   7   0.0075   0.0187   0.0319   0.0083  -0.0187  -0.0095   0.00    0.0
2021/10/10 11:27:12.000   28 35 34.11505  -17 55 01.60149    73.3316   6   7   0.0075   0.0186   0.0319   0.0083  -0.0187  -0.0095   0.00    0.0
2021/10/10 11:27:42.000   28 35 34.11505  -17 55 01.60148    73.3314   6   7   0.0075   0.0186   0.0319   0.0083  -0.0187  -0.0095   0.00    0.0
2021/10/10 11:28:12.000   28 35 34.11506  -17 55 01.60147    73.3313   6   7   0.0075   0.0186   0.0319   0.0083  -0.0187  -0.0095   0.00    0.0
2021/10/10 11:28:42.000   28 35 34.11506  -17 55 01.60147    73.3311   6   7   0.0075   0.0186   0.0318   0.0083  -0.0187  -0.0095   0.00    0.0
2021/10/10 11:29:12.000   28 35 34.11506  -17 55 01.60146    73.3311   6   7   0.0075   0.0186   0.0318   0.0083  -0.0187  -0.0095   0.00    0.0
2021/10/10 11:29:42.000   28 35 34.11506  -17 55 01.60145    73.3301   6   7   0.0075   0.0186   0.0318   0.0083  -0.0187  -0.0095   0.00    0.0
2021/10/10 11:30:12.000   28 35 34.11506  -17 55 01.60144    73.3295   6   7   0.0075   0.0186   0.0318   0.0083  -0.0187  -0.0095   0.00    0.0
2021/10/10 11:30:42.000   28 35 34.11507  -17 55 01.60143    73.3291   6   7   0.0075   0.0186   0.0318   0.0083  -0.0187  -0.0095   0.00    0.0
2021/10/10 11:31:12.000   28 35 34.11507  -17 55 01.60142    73.3288   6   7   0.0075   0.0186   0.0318   0.0083  -0.0187  -0.0095   0.00    0.0
2021/10/10 11:31:42.000   28 35 34.11507  -17 55 01.60141    73.3285   6   7   0.0075   0.0186   0.0318   0.0083  -0.0187  -0.0094   0.00    0.0
2021/10/10 11:32:12.000   28 35 34.11507  -17 55 01.60140    73.3282   6   7   0.0075   0.0186   0.0318   0.0083  -0.0187  -0.0094   0.00    0.0
2021/10/10 11:32:42.000   28 35 34.11508  -17 55 01.60139    73.3280   6   7   0.0075   0.0186   0.0318   0.0083  -0.0187  -0.0094   0.00    0.0
2021/10/10 11:33:12.000   28 35 34.11508  -17 55 01.60138    73.3277   6   7   0.0075   0.0186   0.0318   0.0082  -0.0186  -0.0094   0.00    0.0
2021/10/10 11:33:42.000   28 35 34.11508  -17 55 01.60137    73.3274   6   7   0.0075   0.0186   0.0318   0.0082  -0.0186  -0.0094   0.00    0.0
2021/10/10 11:34:12.000   28 35 34.11509  -17 55 01.60136    73.3269   6   7   0.0075   0.0186   0.0318   0.0082  -0.0186  -0.0094   0.00    0.0
2021/10/10 11:34:42.000   28 35 34.11508  -17 55 01.60136    73.3268   6   7   0.0075   0.0186   0.0317   0.0082  -0.0186  -0.0094   0.00    0.0
2021/10/10 11:35:12.000   28 35 34.11508  -17 55 01.60136    73.3268   6   7   0.0075   0.0186   0.0317   0.0082  -0.0186  -0.0094   0.00    0.0
2021/10/10 11:35:42.000   28 35 34.11508  -17 55 01.60135    73.3265   6   7   0.0075   0.0186   0.0317   0.0082  -0.0186  -0.0094   0.00    0.0
2021/10/10 11:36:12.000   28 35 34.11509  -17 55 01.60134    73.3262   6   7   0.0075   0.0186   0.0317   0.0082  -0.0186  -0.0094   0.00    0.0
2021/10/10 11:36:42.000   28 35 34.11509  -17 55 01.60134    73.3260   6   7   0.0075   0.0186   0.0317   0.0082  -0.0186  -0.0094   0.00    0.0
2021/10/10 11:37:12.000   28 35 34.11509  -17 55 01.60133    73.3258   6   8   0.0075   0.0186   0.0317   0.0082  -0.0186  -0.0094   0.00    0.0
2021/10/10 11:37:42.000   28 35 34.11509  -17 55 01.60132    73.3253   6   8   0.0075   0.0186   0.0317   0.0082  -0.0186  -0.0094   0.00    0.0
2021/10/10 11:38:12.000   28 35 34.11509  -17 55 01.60130    73.3248   6   8   0.0075   0.0186   0.0316   0.0082  -0.0186  -0.0094   0.00    0.0
2021/10/10 11:38:42.000   28 35 34.11510  -17 55 01.60129    73.3242   6   8   0.0075   0.0186   0.0316   0.0082  -0.0186  -0.0094   0.00    0.0
2021/10/10 11:39:12.000   28 35 34.11510  -17 55 01.60127    73.3231   6   8   0.0074   0.0186   0.0316   0.0082  -0.0186  -0.0094   0.00    0.0
2021/10/10 11:39:42.000   28 35 34.11510  -17 55 01.60126    73.3225   6   7   0.0074   0.0186   0.0315   0.0082  -0.0185  -0.0093   0.00    0.0
2021/10/10 11:40:12.000   28 35 34.11510  -17 55 01.60125    73.3218   6   7   0.0074   0.0186   0.0315   0.0082  -0.0185  -0.0093   0.00    0.0
2021/10/10 11:40:42.000   28 35 34.11510  -17 55 01.60124    73.3212   6   7   0.0074   0.0186   0.0315   0.0082  -0.0185  -0.0093   0.00    0.0
