% program   : RTKLIB ver.2.4.2
% inp file  : C:\IPNA\data\OBS\CVBB2850.o
% inp file  : C:\IPNA\data\NAV\CVBB2850.n
% inp file  : C:\IPNA\data\SP3\CVBB2850.sp3
% inp file  : C:\IPNA\data\CLOCK\CVBB2850.clk
% obs start : 2021/10/11 23:59:42.0 UTC (week2179 172800.0s)
% obs end   : 2021/10/12 03:41:12.0 UTC (week2179 186090.0s)
% pos mode  : ppp-static
% solution  : forward
% elev mask : 15.0 deg
% dynamics  : off
% tidecorr  : on
% tropo opt : est ztd
% ephemeris : precise
% antenna1  :                       ( 0.0000  0.0000  0.0000)
%
% (lat/lon/height=WGS84/ellipsoidal,Q=1:fix,2:float,3:sbas,4:dgps,5:single,6:ppp,ns=# of satellites)
%  UTC                     latitude(d'")   longitude(d'")  height(m)   Q  ns   sdn(m)   sde(m)   sdu(m)  sdne(m)  sdeu(m)  sdue(m) age(s)  ratio
2021/10/11 23:59:42.000   28 35 34.12726  -17 55 01.67368    72.7435   6   6   1.6693   1.4642   5.3490  -0.6048   1.2970  -2.2021   0.00    0.0
2021/10/12 00:00:12.000   28 35 34.12830  -17 55 01.66192    72.5473   6   6   1.1475   1.0320   3.5486  -0.3988   0.8562  -1.4479   0.00    0.0
2021/10/12 00:00:42.000   28 35 34.12186  -17 55 01.64506    72.6509   6   6   0.9239   0.8414   2.7942  -0.3132   0.6717  -1.1371   0.00    0.0
2021/10/12 00:01:12.000   28 35 34.11148  -17 55 01.62689    73.2822   6   6   0.7933   0.7282   2.3636  -0.2643   0.5666  -0.9606   0.00    0.0
2021/10/12 00:01:42.000   28 35 34.10251  -17 55 01.62020    74.0112   6   6   0.7055   0.6512   2.0795  -0.2319   0.4973  -0.8444   0.00    0.0
2021/10/12 00:02:12.000   28 35 34.09794  -17 55 01.61518    74.1226   6   6   0.6413   0.5945   1.8754  -0.2086   0.4477  -0.7608   0.00    0.0
2021/10/12 00:02:42.000   28 35 34.09752  -17 55 01.61411    74.1448   6   6   0.5847   0.5494   1.6640  -0.1841   0.3936  -0.6736   0.00    0.0
2021/10/12 00:03:12.000   28 35 34.09851  -17 55 01.61474    73.9575   6   6   0.5298   0.5118   1.4268  -0.1555   0.3292  -0.5742   0.00    0.0
2021/10/12 00:03:42.000   28 35 34.09830  -17 55 01.61277    73.8136   6   6   0.4704   0.4791   1.1525  -0.1190   0.2489  -0.4550   0.00    0.0
2021/10/12 00:04:12.000   28 35 34.09890  -17 55 01.60985    73.7824   6   6   0.3980   0.4495   0.8542  -0.0663   0.1464  -0.3111   0.00    0.0
2021/10/12 00:04:42.000   28 35 34.10172  -17 55 01.61051    73.7533   6   6   0.3228   0.4229   0.6345   0.0408  -0.0347  -0.1724   0.00    0.0
2021/10/12 00:05:12.000   28 35 34.10355  -17 55 01.60982    73.6479   6   6   0.3046   0.4044   0.6001   0.0449  -0.0470  -0.1539   0.00    0.0
2021/10/12 00:05:42.000   28 35 34.10446  -17 55 01.60967    73.6278   6   6   0.2943   0.3888   0.5855   0.0430  -0.0427  -0.1482   0.00    0.0
2021/10/12 00:06:12.000   28 35 34.10421  -17 55 01.61078    73.6366   6   6   0.2864   0.3752   0.5769   0.0407  -0.0321  -0.1448   0.00    0.0
2021/10/12 00:06:42.000   28 35 34.10372  -17 55 01.61227    73.6610   6   6   0.2797   0.3630   0.5702   0.0382  -0.0170  -0.1429   0.00    0.0
2021/10/12 00:07:12.000   28 35 34.10234  -17 55 01.61283    73.6630   6   6   0.2737   0.3520   0.5645   0.0356   0.0196  -0.1417   0.00    0.0
2021/10/12 00:07:42.000   28 35 34.10215  -17 55 01.61255    73.6686   6   6   0.2671   0.3419   0.5564   0.0346   0.0277  -0.1380   0.00    0.0
2021/10/12 00:08:12.000   28 35 34.10204  -17 55 01.61186    73.6591   6   6   0.2591   0.3323   0.5433   0.0359   0.0266  -0.1294   0.00    0.0
2021/10/12 00:08:42.000   28 35 34.10298  -17 55 01.61186    73.6075   6   6   0.2474   0.3230   0.5197   0.0410  -0.0140  -0.1092   0.00    0.0
2021/10/12 00:09:12.000   28 35 34.10430  -17 55 01.61226    73.5535   6   6   0.2260   0.3129   0.4739   0.0506  -0.0532  -0.0453   0.00    0.0
2021/10/12 00:09:42.000   28 35 34.10600  -17 55 01.61203    73.4418   6   6   0.1926   0.3006   0.4147   0.0562  -0.0821   0.1023   0.00    0.0
2021/10/12 00:10:12.000   28 35 34.10472  -17 55 01.61232    73.5323   6   6   0.1851   0.2929   0.4029   0.0561  -0.0839   0.1085   0.00    0.0
2021/10/12 00:10:42.000   28 35 34.10399  -17 55 01.61212    73.5685   6   6   0.1815   0.2866   0.3981   0.0552  -0.0828   0.1092   0.00    0.0
2021/10/12 00:11:12.000   28 35 34.10379  -17 55 01.61193    73.5624   6   6   0.1790   0.2809   0.3952   0.0541  -0.0810   0.1088   0.00    0.0
2021/10/12 00:11:42.000   28 35 34.10351  -17 55 01.61193    73.5495   6   6   0.1768   0.2757   0.3930   0.0529  -0.0791   0.1079   0.00    0.0
2021/10/12 00:12:12.000   28 35 34.10364  -17 55 01.61115    73.5514   6   6   0.1750   0.2708   0.3912   0.0519  -0.0771   0.1069   0.00    0.0
2021/10/12 00:12:42.000   28 35 34.10372  -17 55 01.61060    73.5269   6   6   0.1728   0.2660   0.3887   0.0509  -0.0756   0.1064   0.00    0.0
2021/10/12 00:13:12.000   28 35 34.10374  -17 55 01.60986    73.4908   6   6   0.1700   0.2613   0.3848   0.0502  -0.0748   0.1070   0.00    0.0
2021/10/12 00:13:42.000   28 35 34.10378  -17 55 01.60893    73.4664   6   6   0.1654   0.2563   0.3778   0.0498  -0.0756   0.1100   0.00    0.0
2021/10/12 00:14:12.000   28 35 34.10407  -17 55 01.60822    73.4868   6   6   0.1560   0.2501   0.3629   0.0491  -0.0805   0.1183   0.00    0.0
2021/10/12 00:14:42.000   28 35 34.10525  -17 55 01.60765    73.4131   6   6   0.1388   0.2404   0.3396   0.0438  -0.0905   0.1301   0.00    0.0
2021/10/12 00:15:12.000   28 35 34.10602  -17 55 01.60780    73.3596   6   6   0.1348   0.2355   0.3334   0.0427  -0.0914   0.1312   0.00    0.0
2021/10/12 00:15:42.000   28 35 34.10621  -17 55 01.60802    73.3388   6   6   0.1330   0.2319   0.3308   0.0420  -0.0906   0.1310   0.00    0.0
2021/10/12 00:16:12.000   28 35 34.10631  -17 55 01.60787    73.3286   6   6   0.1319   0.2288   0.3291   0.0415  -0.0895   0.1305   0.00    0.0
2021/10/12 00:16:42.000   28 35 34.10609  -17 55 01.60773    73.3153   6   6   0.1309   0.2258   0.3278   0.0410  -0.0882   0.1299   0.00    0.0
2021/10/12 00:17:12.000   28 35 34.10609  -17 55 01.60783    73.3176   6   6   0.1301   0.2231   0.3267   0.0406  -0.0870   0.1293   0.00    0.0
2021/10/12 00:17:42.000   28 35 34.10607  -17 55 01.60814    73.3281   6   6   0.1291   0.2204   0.3254   0.0401  -0.0859   0.1287   0.00    0.0
2021/10/12 00:18:12.000   28 35 34.10611  -17 55 01.60780    73.3341   6   6   0.1278   0.2175   0.3234   0.0397  -0.0850   0.1283   0.00    0.0
2021/10/12 00:18:42.000   28 35 34.10638  -17 55 01.60756    73.2936   6   6   0.1256   0.2143   0.3199   0.0390  -0.0846   0.1284   0.00    0.0
2021/10/12 00:19:12.000   28 35 34.10688  -17 55 01.60803    73.2282   6   6   0.1207   0.2095   0.3120   0.0373  -0.0857   0.1292   0.00    0.0
2021/10/12 00:19:42.000   28 35 34.10647  -17 55 01.60853    73.1804   6   6   0.1100   0.2004   0.2962   0.0298  -0.0902   0.1299   0.00    0.0
2021/10/12 00:20:12.000   28 35 34.10635  -17 55 01.60804    73.2429   6   6   0.1075   0.1967   0.2916   0.0286  -0.0899   0.1292   0.00    0.0
2021/10/12 00:20:42.000   28 35 34.10630  -17 55 01.60811    73.2794   6   6   0.1064   0.1943   0.2896   0.0283  -0.0890   0.1287   0.00    0.0
2021/10/12 00:21:12.000   28 35 34.10632  -17 55 01.60824    73.2897   6   6   0.1057   0.1924   0.2883   0.0281  -0.0880   0.1281   0.00    0.0
2021/10/12 00:21:42.000   28 35 34.10633  -17 55 01.60859    73.2947   6   6   0.1052   0.1906   0.2873   0.0280  -0.0870   0.1276   0.00    0.0
2021/10/12 00:22:12.000   28 35 34.10627  -17 55 01.60861    73.2921   6   6   0.1047   0.1889   0.2864   0.0280  -0.0861   0.1272   0.00    0.0
2021/10/12 00:22:42.000   28 35 34.10626  -17 55 01.60862    73.2993   6   6   0.1042   0.1871   0.2854   0.0279  -0.0851   0.1267   0.00    0.0
2021/10/12 00:23:12.000   28 35 34.10628  -17 55 01.60827    73.3066   6   6   0.1034   0.1852   0.2838   0.0277  -0.0842   0.1261   0.00    0.0
2021/10/12 00:23:42.000   28 35 34.10637  -17 55 01.60806    73.3002   6   6   0.1020   0.1828   0.2810   0.0273  -0.0833   0.1253   0.00    0.0
2021/10/12 00:24:12.000   28 35 34.10671  -17 55 01.60795    73.2799   6   6   0.0987   0.1787   0.2743   0.0259  -0.0825   0.1236   0.00    0.0
2021/10/12 00:24:42.000   28 35 34.10748  -17 55 01.60834    73.2700   6   6   0.0904   0.1699   0.2594   0.0190  -0.0824   0.1190   0.00    0.0
2021/10/12 00:25:12.000   28 35 34.10765  -17 55 01.60834    73.2832   6   6   0.0884   0.1667   0.2546   0.0185  -0.0811   0.1173   0.00    0.0
2021/10/12 00:25:42.000   28 35 34.10775  -17 55 01.60834    73.2808   6   6   0.0876   0.1650   0.2526   0.0185  -0.0801   0.1165   0.00    0.0
2021/10/12 00:26:12.000   28 35 34.10775  -17 55 01.60869    73.2848   6   6   0.0872   0.1636   0.2513   0.0187  -0.0793   0.1160   0.00    0.0
2021/10/12 00:26:42.000   28 35 34.10778  -17 55 01.60847    73.2865   6   6   0.0868   0.1625   0.2504   0.0188  -0.0785   0.1156   0.00    0.0
2021/10/12 00:27:12.000   28 35 34.10779  -17 55 01.60832    73.2835   6   6   0.0865   0.1614   0.2497   0.0190  -0.0777   0.1152   0.00    0.0
2021/10/12 00:27:42.000   28 35 34.10786  -17 55 01.60772    73.2764   6   6   0.0861   0.1602   0.2487   0.0192  -0.0769   0.1147   0.00    0.0
2021/10/12 00:28:12.000   28 35 34.10792  -17 55 01.60760    73.2682   6   6   0.0855   0.1589   0.2472   0.0193  -0.0760   0.1140   0.00    0.0
2021/10/12 00:28:42.000   28 35 34.10824  -17 55 01.60750    73.2866   6   6   0.0845   0.1570   0.2444   0.0195  -0.0747   0.1129   0.00    0.0
2021/10/12 00:29:12.000   28 35 34.10896  -17 55 01.60726    73.3147   6   6   0.0818   0.1533   0.2374   0.0193  -0.0726   0.1100   0.00    0.0
2021/10/12 00:29:42.000   28 35 34.11005  -17 55 01.60715    73.3441   6   6   0.0746   0.1449   0.2219   0.0157  -0.0694   0.1028   0.00    0.0
2021/10/12 00:30:12.000   28 35 34.11024  -17 55 01.60715    73.3508   6   6   0.0729   0.1421   0.2168   0.0161  -0.0675   0.1006   0.00    0.0
2021/10/12 00:30:42.000   28 35 34.11034  -17 55 01.60729    73.3434   6   7   0.0722   0.1407   0.2147   0.0166  -0.0662   0.0997   0.00    0.0
2021/10/12 00:31:12.000   28 35 34.11041  -17 55 01.60700    73.3353   6   7   0.0718   0.1396   0.2135   0.0171  -0.0652   0.0992   0.00    0.0
2021/10/12 00:31:42.000   28 35 34.11045  -17 55 01.60715    73.3329   6   7   0.0715   0.1387   0.2126   0.0175  -0.0643   0.0987   0.00    0.0
2021/10/12 00:32:12.000   28 35 34.11040  -17 55 01.60706    73.3255   6   7   0.0713   0.1378   0.2119   0.0178  -0.0635   0.0984   0.00    0.0
2021/10/12 00:32:42.000   28 35 34.11033  -17 55 01.60701    73.3158   6   7   0.0710   0.1369   0.2109   0.0182  -0.0626   0.0979   0.00    0.0
2021/10/12 00:33:12.000   28 35 34.11026  -17 55 01.60712    73.3123   6   7   0.0705   0.1358   0.2092   0.0187  -0.0615   0.0971   0.00    0.0
2021/10/12 00:33:42.000   28 35 34.11038  -17 55 01.60726    73.3101   6   7   0.0696   0.1342   0.2060   0.0193  -0.0598   0.0956   0.00    0.0
2021/10/12 00:34:12.000   28 35 34.11118  -17 55 01.60701    73.3257   6   7   0.0671   0.1310   0.1986   0.0200  -0.0568   0.0921   0.00    0.0
2021/10/12 00:34:42.000   28 35 34.11133  -17 55 01.60682    73.3414   6   7   0.0607   0.1231   0.1832   0.0184  -0.0523   0.0839   0.00    0.0
2021/10/12 00:35:12.000   28 35 34.11118  -17 55 01.60668    73.3627   6   7   0.0591   0.1207   0.1782   0.0189  -0.0501   0.0816   0.00    0.0
2021/10/12 00:35:42.000   28 35 34.11110  -17 55 01.60678    73.3707   6   7   0.0586   0.1196   0.1761   0.0192  -0.0489   0.0807   0.00    0.0
2021/10/12 00:36:12.000   28 35 34.11100  -17 55 01.60667    73.3653   6   7   0.0583   0.1189   0.1750   0.0195  -0.0482   0.0802   0.00    0.0
2021/10/12 00:36:42.000   28 35 34.11090  -17 55 01.60650    73.3581   6   7   0.0580   0.1183   0.1742   0.0196  -0.0475   0.0798   0.00    0.0
2021/10/12 00:37:12.000   28 35 34.11085  -17 55 01.60631    73.3539   6   7   0.0579   0.1177   0.1736   0.0198  -0.0470   0.0795   0.00    0.0
2021/10/12 00:37:42.000   28 35 34.11079  -17 55 01.60631    73.3471   6   7   0.0576   0.1171   0.1726   0.0200  -0.0463   0.0790   0.00    0.0
2021/10/12 00:38:12.000   28 35 34.11078  -17 55 01.60616    73.3374   6   7   0.0572   0.1163   0.1709   0.0202  -0.0453   0.0782   0.00    0.0
2021/10/12 00:38:42.000   28 35 34.11086  -17 55 01.60600    73.3287   6   7   0.0564   0.1151   0.1676   0.0206  -0.0438   0.0766   0.00    0.0
2021/10/12 00:39:12.000   28 35 34.11106  -17 55 01.60600    73.3288   6   7   0.0542   0.1124   0.1600   0.0211  -0.0408   0.0729   0.00    0.0
2021/10/12 00:39:42.000   28 35 34.11178  -17 55 01.60595    73.3604   6   7   0.0489   0.1055   0.1460   0.0197  -0.0368   0.0653   0.00    0.0
2021/10/12 00:40:12.000   28 35 34.11183  -17 55 01.60588    73.3406   6   7   0.0477   0.1035   0.1413   0.0199  -0.0348   0.0631   0.00    0.0
2021/10/12 00:40:42.000   28 35 34.11183  -17 55 01.60597    73.3337   6   7   0.0472   0.1027   0.1395   0.0200  -0.0338   0.0622   0.00    0.0
2021/10/12 00:41:12.000   28 35 34.11180  -17 55 01.60593    73.3290   6   7   0.0469   0.1021   0.1385   0.0201  -0.0333   0.0618   0.00    0.0
2021/10/12 00:41:42.000   28 35 34.11178  -17 55 01.60599    73.3262   6   7   0.0468   0.1017   0.1378   0.0202  -0.0328   0.0614   0.00    0.0
2021/10/12 00:42:12.000   28 35 34.11178  -17 55 01.60612    73.3282   6   7   0.0467   0.1013   0.1374   0.0202  -0.0324   0.0612   0.00    0.0
2021/10/12 00:42:42.000   28 35 34.11178  -17 55 01.60607    73.3277   6   7   0.0465   0.1009   0.1366   0.0203  -0.0319   0.0609   0.00    0.0
2021/10/12 00:43:12.000   28 35 34.11176  -17 55 01.60600    73.3266   6   7   0.0462   0.1003   0.1353   0.0204  -0.0312   0.0602   0.00    0.0
2021/10/12 00:43:42.000   28 35 34.11169  -17 55 01.60594    73.3276   6   7   0.0456   0.0994   0.1327   0.0205  -0.0300   0.0590   0.00    0.0
2021/10/12 00:44:12.000   28 35 34.11162  -17 55 01.60586    73.3385   6   7   0.0440   0.0972   0.1268   0.0206  -0.0277   0.0561   0.00    0.0
2021/10/12 00:44:42.000   28 35 34.11205  -17 55 01.60567    73.3612   6   7   0.0400   0.0913   0.1161   0.0191  -0.0248   0.0501   0.00    0.0
2021/10/12 00:45:12.000   28 35 34.11219  -17 55 01.60566    73.3563   6   7   0.0390   0.0897   0.1124   0.0192  -0.0232   0.0484   0.00    0.0
2021/10/12 00:45:42.000   28 35 34.11218  -17 55 01.60567    73.3530   6   7   0.0387   0.0890   0.1110   0.0192  -0.0225   0.0478   0.00    0.0
2021/10/12 00:46:12.000   28 35 34.11216  -17 55 01.60559    73.3504   6   7   0.0385   0.0886   0.1102   0.0192  -0.0220   0.0474   0.00    0.0
2021/10/12 00:46:42.000   28 35 34.11215  -17 55 01.60543    73.3484   6   8   0.0384   0.0883   0.1097   0.0192  -0.0217   0.0472   0.00    0.0
2021/10/12 00:47:12.000   28 35 34.11214  -17 55 01.60545    73.3471   6   8   0.0383   0.0880   0.1094   0.0192  -0.0214   0.0471   0.00    0.0
2021/10/12 00:47:42.000   28 35 34.11211  -17 55 01.60543    73.3451   6   8   0.0382   0.0876   0.1089   0.0192  -0.0210   0.0468   0.00    0.0
2021/10/12 00:48:12.000   28 35 34.11213  -17 55 01.60545    73.3442   6   8   0.0380   0.0872   0.1080   0.0192  -0.0205   0.0464   0.00    0.0
2021/10/12 00:48:42.000   28 35 34.11225  -17 55 01.60547    73.3503   6   8   0.0375   0.0864   0.1061   0.0193  -0.0196   0.0455   0.00    0.0
2021/10/12 00:49:12.000   28 35 34.11249  -17 55 01.60533    73.3628   6   8   0.0364   0.0845   0.1020   0.0192  -0.0177   0.0435   0.00    0.0
2021/10/12 00:49:42.000   28 35 34.11290  -17 55 01.60522    73.3751   6   8   0.0333   0.0792   0.0940   0.0179  -0.0154   0.0390   0.00    0.0
2021/10/12 00:50:12.000   28 35 34.11295  -17 55 01.60520    73.3594   6   8   0.0326   0.0779   0.0914   0.0178  -0.0141   0.0378   0.00    0.0
2021/10/12 00:50:42.000   28 35 34.11295  -17 55 01.60516    73.3555   6   8   0.0324   0.0774   0.0904   0.0178  -0.0135   0.0373   0.00    0.0
2021/10/12 00:51:12.000   28 35 34.11298  -17 55 01.60504    73.3565   6   8   0.0322   0.0770   0.0898   0.0177  -0.0131   0.0371   0.00    0.0
2021/10/12 00:51:42.000   28 35 34.11299  -17 55 01.60502    73.3575   6   8   0.0322   0.0768   0.0895   0.0177  -0.0129   0.0369   0.00    0.0
2021/10/12 00:52:12.000   28 35 34.11299  -17 55 01.60490    73.3573   6   8   0.0321   0.0766   0.0893   0.0177  -0.0127   0.0368   0.00    0.0
2021/10/12 00:52:42.000   28 35 34.11297  -17 55 01.60486    73.3582   6   8   0.0320   0.0763   0.0889   0.0177  -0.0124   0.0367   0.00    0.0
2021/10/12 00:53:12.000   28 35 34.11294  -17 55 01.60489    73.3591   6   8   0.0319   0.0760   0.0883   0.0177  -0.0120   0.0364   0.00    0.0
2021/10/12 00:53:42.000   28 35 34.11295  -17 55 01.60488    73.3657   6   8   0.0316   0.0754   0.0870   0.0176  -0.0112   0.0358   0.00    0.0
2021/10/12 00:54:12.000   28 35 34.11308  -17 55 01.60470    73.3845   6   8   0.0307   0.0738   0.0842   0.0175  -0.0094   0.0344   0.00    0.0
2021/10/12 00:54:42.000   28 35 34.11337  -17 55 01.60420    73.3760   6   8   0.0284   0.0694   0.0786   0.0163  -0.0079   0.0311   0.00    0.0
2021/10/12 00:55:12.000   28 35 34.11339  -17 55 01.60409    73.3685   6   8   0.0279   0.0683   0.0766   0.0161  -0.0065   0.0302   0.00    0.0
2021/10/12 00:55:42.000   28 35 34.11341  -17 55 01.60399    73.3688   6   8   0.0277   0.0679   0.0759   0.0161  -0.0057   0.0298   0.00    0.0
2021/10/12 00:56:12.000   28 35 34.11343  -17 55 01.60390    73.3708   6   7   0.0276   0.0676   0.0755   0.0161  -0.0053   0.0297   0.00    0.0
2021/10/12 00:56:42.000   28 35 34.11345  -17 55 01.60385    73.3724   6   7   0.0275   0.0674   0.0752   0.0161  -0.0050   0.0296   0.00    0.0
2021/10/12 00:57:12.000   28 35 34.11347  -17 55 01.60378    73.3741   6   7   0.0275   0.0673   0.0751   0.0160  -0.0047   0.0295   0.00    0.0
2021/10/12 00:57:42.000   28 35 34.11348  -17 55 01.60365    73.3747   6   6   0.0274   0.0671   0.0749   0.0160  -0.0045   0.0294   0.00    0.0
2021/10/12 00:58:12.000   28 35 34.11349  -17 55 01.60361    73.3748   6   6   0.0273   0.0669   0.0747   0.0160  -0.0043   0.0293   0.00    0.0
2021/10/12 00:58:42.000   28 35 34.11346  -17 55 01.60361    73.3772   6   6   0.0271   0.0664   0.0743   0.0159  -0.0038   0.0290   0.00    0.0
2021/10/12 00:59:12.000   28 35 34.11343  -17 55 01.60357    73.3851   6   6   0.0266   0.0652   0.0731   0.0157  -0.0030   0.0282   0.00    0.0
2021/10/12 00:59:42.000   28 35 34.11369  -17 55 01.60348    73.3941   6   6   0.0248   0.0615   0.0703   0.0146  -0.0050   0.0260   0.00    0.0
2021/10/12 01:00:12.000   28 35 34.11381  -17 55 01.60341    73.3934   6   6   0.0244   0.0606   0.0695   0.0145  -0.0045   0.0254   0.00    0.0
2021/10/12 01:00:42.000   28 35 34.11386  -17 55 01.60339    73.3928   6   6   0.0243   0.0602   0.0692   0.0144  -0.0043   0.0252   0.00    0.0
2021/10/12 01:01:12.000   28 35 34.11390  -17 55 01.60335    73.3924   6   6   0.0242   0.0600   0.0690   0.0144  -0.0041   0.0251   0.00    0.0
2021/10/12 01:01:42.000   28 35 34.11392  -17 55 01.60331    73.3923   6   6   0.0241   0.0599   0.0689   0.0144  -0.0040   0.0251   0.00    0.0
2021/10/12 01:02:12.000   28 35 34.11394  -17 55 01.60325    73.3923   6   6   0.0241   0.0598   0.0689   0.0144  -0.0039   0.0250   0.00    0.0
2021/10/12 01:02:42.000   28 35 34.11396  -17 55 01.60317    73.3928   6   6   0.0241   0.0596   0.0688   0.0143  -0.0037   0.0250   0.00    0.0
2021/10/12 01:03:12.000   28 35 34.11400  -17 55 01.60312    73.3939   6   6   0.0240   0.0594   0.0686   0.0143  -0.0036   0.0249   0.00    0.0
2021/10/12 01:03:42.000   28 35 34.11408  -17 55 01.60300    73.3975   6   6   0.0238   0.0590   0.0683   0.0142  -0.0034   0.0246   0.00    0.0
2021/10/12 01:04:12.000   28 35 34.11422  -17 55 01.60292    73.4006   6   6   0.0234   0.0580   0.0674   0.0140  -0.0034   0.0240   0.00    0.0
2021/10/12 01:04:42.000   28 35 34.11440  -17 55 01.60260    73.3985   6   6   0.0219   0.0548   0.0652   0.0131  -0.0059   0.0220   0.00    0.0
2021/10/12 01:05:12.000   28 35 34.11442  -17 55 01.60263    73.4031   6   6   0.0216   0.0540   0.0645   0.0129  -0.0058   0.0215   0.00    0.0
2021/10/12 01:05:42.000   28 35 34.11442  -17 55 01.60263    73.4049   6   6   0.0215   0.0537   0.0643   0.0129  -0.0056   0.0213   0.00    0.0
2021/10/12 01:06:12.000   28 35 34.11443  -17 55 01.60261    73.4059   6   6   0.0214   0.0536   0.0642   0.0129  -0.0055   0.0213   0.00    0.0
2021/10/12 01:06:42.000   28 35 34.11443  -17 55 01.60260    73.4064   6   6   0.0214   0.0534   0.0641   0.0129  -0.0055   0.0212   0.00    0.0
2021/10/12 01:07:12.000   28 35 34.11443  -17 55 01.60261    73.4065   6   6   0.0214   0.0534   0.0641   0.0128  -0.0054   0.0212   0.00    0.0
2021/10/12 01:07:42.000   28 35 34.11445  -17 55 01.60259    73.4066   6   6   0.0213   0.0532   0.0640   0.0128  -0.0054   0.0211   0.00    0.0
2021/10/12 01:08:12.000   28 35 34.11448  -17 55 01.60253    73.4066   6   6   0.0213   0.0531   0.0639   0.0128  -0.0053   0.0210   0.00    0.0
2021/10/12 01:08:42.000   28 35 34.11454  -17 55 01.60246    73.4057   6   6   0.0211   0.0528   0.0637   0.0128  -0.0051   0.0208   0.00    0.0
2021/10/12 01:09:12.000   28 35 34.11462  -17 55 01.60236    73.4034   6   6   0.0208   0.0519   0.0630   0.0126  -0.0049   0.0203   0.00    0.0
2021/10/12 01:09:42.000   28 35 34.11475  -17 55 01.60233    73.4077   6   6   0.0196   0.0492   0.0613   0.0119  -0.0064   0.0185   0.00    0.0
2021/10/12 01:10:12.000   28 35 34.11482  -17 55 01.60225    73.4138   6   6   0.0193   0.0485   0.0608   0.0118  -0.0062   0.0181   0.00    0.0
2021/10/12 01:10:42.000   28 35 34.11483  -17 55 01.60221    73.4159   6   6   0.0192   0.0483   0.0607   0.0118  -0.0062   0.0179   0.00    0.0
2021/10/12 01:11:12.000   28 35 34.11485  -17 55 01.60214    73.4161   6   6   0.0192   0.0482   0.0606   0.0118  -0.0061   0.0179   0.00    0.0
2021/10/12 01:11:42.000   28 35 34.11486  -17 55 01.60211    73.4162   6   6   0.0192   0.0481   0.0605   0.0117  -0.0061   0.0178   0.00    0.0
2021/10/12 01:12:12.000   28 35 34.11488  -17 55 01.60207    73.4161   6   6   0.0192   0.0480   0.0605   0.0117  -0.0061   0.0178   0.00    0.0
2021/10/12 01:12:42.000   28 35 34.11489  -17 55 01.60202    73.4163   6   6   0.0191   0.0479   0.0605   0.0117  -0.0061   0.0177   0.00    0.0
2021/10/12 01:13:12.000   28 35 34.11492  -17 55 01.60198    73.4169   6   6   0.0191   0.0478   0.0604   0.0117  -0.0060   0.0177   0.00    0.0
2021/10/12 01:13:42.000   28 35 34.11495  -17 55 01.60196    73.4193   6   6   0.0190   0.0475   0.0602   0.0116  -0.0060   0.0175   0.00    0.0
2021/10/12 01:14:12.000   28 35 34.11503  -17 55 01.60187    73.4221   6   6   0.0187   0.0468   0.0597   0.0115  -0.0061   0.0170   0.00    0.0
2021/10/12 01:14:42.000   28 35 34.11505  -17 55 01.60177    73.4241   6   6   0.0177   0.0445   0.0583   0.0109  -0.0077   0.0153   0.00    0.0
2021/10/12 01:15:12.000   28 35 34.11510  -17 55 01.60174    73.4270   6   6   0.0175   0.0439   0.0579   0.0108  -0.0077   0.0149   0.00    0.0
2021/10/12 01:15:42.000   28 35 34.11512  -17 55 01.60173    73.4284   6   6   0.0174   0.0437   0.0578   0.0108  -0.0077   0.0148   0.00    0.0
2021/10/12 01:16:12.000   28 35 34.11514  -17 55 01.60172    73.4297   6   6   0.0174   0.0436   0.0577   0.0108  -0.0077   0.0147   0.00    0.0
2021/10/12 01:16:42.000   28 35 34.11514  -17 55 01.60171    73.4304   6   6   0.0173   0.0435   0.0577   0.0108  -0.0077   0.0146   0.00    0.0
2021/10/12 01:17:12.000   28 35 34.11514  -17 55 01.60167    73.4306   6   6   0.0173   0.0435   0.0577   0.0107  -0.0077   0.0146   0.00    0.0
2021/10/12 01:17:42.000   28 35 34.11515  -17 55 01.60161    73.4307   6   6   0.0173   0.0434   0.0576   0.0107  -0.0077   0.0146   0.00    0.0
2021/10/12 01:18:12.000   28 35 34.11514  -17 55 01.60157    73.4305   6   6   0.0173   0.0433   0.0576   0.0107  -0.0077   0.0145   0.00    0.0
2021/10/12 01:18:42.000   28 35 34.11515  -17 55 01.60153    73.4308   6   6   0.0172   0.0431   0.0574   0.0107  -0.0077   0.0143   0.00    0.0
2021/10/12 01:19:12.000   28 35 34.11519  -17 55 01.60147    73.4340   6   6   0.0169   0.0424   0.0570   0.0106  -0.0080   0.0138   0.00    0.0
2021/10/12 01:19:42.000   28 35 34.11518  -17 55 01.60154    73.4342   6   6   0.0162   0.0404   0.0558   0.0101  -0.0092   0.0122   0.00    0.0
2021/10/12 01:20:12.000   28 35 34.11517  -17 55 01.60154    73.4347   6   6   0.0160   0.0399   0.0555   0.0101  -0.0093   0.0118   0.00    0.0
2021/10/12 01:20:42.000   28 35 34.11515  -17 55 01.60155    73.4348   6   6   0.0159   0.0398   0.0554   0.0100  -0.0093   0.0116   0.00    0.0
2021/10/12 01:21:12.000   28 35 34.11515  -17 55 01.60151    73.4347   6   6   0.0159   0.0397   0.0553   0.0100  -0.0093   0.0115   0.00    0.0
2021/10/12 01:21:42.000   28 35 34.11515  -17 55 01.60147    73.4349   6   6   0.0159   0.0396   0.0553   0.0100  -0.0094   0.0115   0.00    0.0
2021/10/12 01:22:12.000   28 35 34.11515  -17 55 01.60144    73.4354   6   6   0.0159   0.0396   0.0553   0.0100  -0.0094   0.0115   0.00    0.0
2021/10/12 01:22:42.000   28 35 34.11516  -17 55 01.60141    73.4361   6   6   0.0158   0.0395   0.0552   0.0100  -0.0094   0.0114   0.00    0.0
2021/10/12 01:23:12.000   28 35 34.11517  -17 55 01.60140    73.4376   6   6   0.0158   0.0394   0.0552   0.0100  -0.0094   0.0113   0.00    0.0
2021/10/12 01:23:42.000   28 35 34.11519  -17 55 01.60136    73.4399   6   6   0.0157   0.0392   0.0550   0.0099  -0.0095   0.0112   0.00    0.0
2021/10/12 01:24:12.000   28 35 34.11517  -17 55 01.60142    73.4413   6   6   0.0155   0.0387   0.0547   0.0099  -0.0098   0.0106   0.00    0.0
2021/10/12 01:24:42.000   28 35 34.11515  -17 55 01.60152    73.4403   6   6   0.0149   0.0369   0.0536   0.0095  -0.0108   0.0089   0.00    0.0
2021/10/12 01:25:12.000   28 35 34.11515  -17 55 01.60146    73.4386   6   6   0.0148   0.0365   0.0533   0.0095  -0.0110   0.0084   0.00    0.0
2021/10/12 01:25:42.000   28 35 34.11516  -17 55 01.60139    73.4383   6   6   0.0147   0.0364   0.0532   0.0095  -0.0110   0.0083   0.00    0.0
2021/10/12 01:26:12.000   28 35 34.11517  -17 55 01.60134    73.4385   6   6   0.0147   0.0363   0.0532   0.0094  -0.0111   0.0082   0.00    0.0
2021/10/12 01:26:42.000   28 35 34.11518  -17 55 01.60127    73.4391   6   6   0.0147   0.0363   0.0531   0.0094  -0.0111   0.0081   0.00    0.0
2021/10/12 01:27:12.000   28 35 34.11518  -17 55 01.60123    73.4393   6   6   0.0147   0.0362   0.0531   0.0094  -0.0111   0.0081   0.00    0.0
2021/10/12 01:27:42.000   28 35 34.11517  -17 55 01.60122    73.4393   6   6   0.0146   0.0362   0.0531   0.0094  -0.0111   0.0080   0.00    0.0
2021/10/12 01:28:12.000   28 35 34.11517  -17 55 01.60120    73.4401   6   6   0.0146   0.0361   0.0530   0.0094  -0.0112   0.0079   0.00    0.0
2021/10/12 01:28:42.000   28 35 34.11517  -17 55 01.60118    73.4414   6   6   0.0146   0.0359   0.0529   0.0094  -0.0112   0.0077   0.00    0.0
2021/10/12 01:29:12.000   28 35 34.11516  -17 55 01.60118    73.4425   6   6   0.0144   0.0355   0.0525   0.0093  -0.0115   0.0071   0.00    0.0
2021/10/12 01:29:42.000   28 35 34.11514  -17 55 01.60121    73.4433   6   6   0.0139   0.0340   0.0516   0.0091  -0.0124   0.0049   0.00    0.0
2021/10/12 01:30:12.000   28 35 34.11515  -17 55 01.60120    73.4448   6   6   0.0138   0.0336   0.0513   0.0091  -0.0125   0.0042   0.00    0.0
2021/10/12 01:30:42.000   28 35 34.11514  -17 55 01.60117    73.4444   6   6   0.0137   0.0335   0.0511   0.0091  -0.0126   0.0040   0.00    0.0
2021/10/12 01:31:12.000   28 35 34.11514  -17 55 01.60116    73.4436   6   6   0.0137   0.0335   0.0511   0.0091  -0.0126   0.0038   0.00    0.0
2021/10/12 01:31:42.000   28 35 34.11514  -17 55 01.60114    73.4431   6   6   0.0137   0.0334   0.0511   0.0090  -0.0126   0.0037   0.00    0.0
2021/10/12 01:32:12.000   28 35 34.11514  -17 55 01.60112    73.4430   6   6   0.0137   0.0334   0.0510   0.0090  -0.0126   0.0037   0.00    0.0
2021/10/12 01:32:42.000   28 35 34.11515  -17 55 01.60108    73.4426   6   6   0.0137   0.0333   0.0510   0.0090  -0.0127   0.0036   0.00    0.0
2021/10/12 01:33:12.000   28 35 34.11515  -17 55 01.60104    73.4412   6   6   0.0136   0.0333   0.0509   0.0090  -0.0127   0.0034   0.00    0.0
2021/10/12 01:33:42.000   28 35 34.11513  -17 55 01.60102    73.4381   6   6   0.0136   0.0331   0.0507   0.0090  -0.0128   0.0030   0.00    0.0
2021/10/12 01:34:12.000   28 35 34.11505  -17 55 01.60107    73.4276   6   6   0.0135   0.0327   0.0503   0.0090  -0.0130   0.0013   0.00    0.0
2021/10/12 01:34:42.000   28 35 34.11503  -17 55 01.60112    73.4259   6   6   0.0130   0.0314   0.0494   0.0089  -0.0137  -0.0043   0.00    0.0
2021/10/12 01:35:12.000   28 35 34.11501  -17 55 01.60114    73.4238   6   6   0.0129   0.0312   0.0491   0.0089  -0.0138  -0.0048   0.00    0.0
2021/10/12 01:35:42.000   28 35 34.11500  -17 55 01.60114    73.4238   6   5   0.0129   0.0311   0.0490   0.0089  -0.0138  -0.0050   0.00    0.0
2021/10/12 01:36:12.000   28 35 34.11500  -17 55 01.60114    73.4237   6   5   0.0129   0.0310   0.0490   0.0088  -0.0138  -0.0050   0.00    0.0
2021/10/12 01:36:42.000   28 35 34.11500  -17 55 01.60114    73.4237   6   5   0.0129   0.0310   0.0490   0.0088  -0.0139  -0.0051   0.00    0.0
2021/10/12 01:37:12.000   28 35 34.11499  -17 55 01.60114    73.4237   6   5   0.0129   0.0309   0.0490   0.0088  -0.0139  -0.0051   0.00    0.0
2021/10/12 01:37:42.000   28 35 34.11499  -17 55 01.60116    73.4237   6   5   0.0129   0.0309   0.0490   0.0088  -0.0139  -0.0051   0.00    0.0
2021/10/12 01:38:12.000   28 35 34.11498  -17 55 01.60118    73.4233   6   5   0.0129   0.0308   0.0489   0.0088  -0.0139  -0.0052   0.00    0.0
2021/10/12 01:38:42.000   28 35 34.11497  -17 55 01.60121    73.4228   6   5   0.0128   0.0307   0.0489   0.0088  -0.0139  -0.0053   0.00    0.0
2021/10/12 01:39:12.000   28 35 34.11498  -17 55 01.60126    73.4224   6   5   0.0127   0.0304   0.0488   0.0088  -0.0141  -0.0057   0.00    0.0
2021/10/12 01:39:42.000   28 35 34.11501  -17 55 01.60126    73.4246   6   5   0.0124   0.0293   0.0483   0.0088  -0.0147  -0.0068   0.00    0.0
2021/10/12 01:40:12.000   28 35 34.11502  -17 55 01.60123    73.4252   6   5   0.0123   0.0291   0.0482   0.0087  -0.0148  -0.0071   0.00    0.0
2021/10/12 01:40:42.000   28 35 34.11503  -17 55 01.60118    73.4255   6   5   0.0122   0.0290   0.0481   0.0087  -0.0149  -0.0071   0.00    0.0
2021/10/12 01:41:12.000   28 35 34.11504  -17 55 01.60115    73.4257   6   5   0.0122   0.0290   0.0481   0.0087  -0.0149  -0.0072   0.00    0.0
2021/10/12 01:41:42.000   28 35 34.11504  -17 55 01.60113    73.4258   6   5   0.0122   0.0289   0.0481   0.0087  -0.0149  -0.0072   0.00    0.0
2021/10/12 01:42:12.000   28 35 34.11504  -17 55 01.60110    73.4258   6   5   0.0122   0.0289   0.0481   0.0087  -0.0149  -0.0072   0.00    0.0
2021/10/12 01:42:42.000   28 35 34.11503  -17 55 01.60109    73.4257   6   5   0.0122   0.0289   0.0481   0.0087  -0.0149  -0.0072   0.00    0.0
2021/10/12 01:43:12.000   28 35 34.11503  -17 55 01.60108    73.4256   6   5   0.0122   0.0288   0.0481   0.0087  -0.0149  -0.0073   0.00    0.0
2021/10/12 01:43:42.000   28 35 34.11501  -17 55 01.60108    73.4250   6   5   0.0122   0.0287   0.0480   0.0087  -0.0150  -0.0073   0.00    0.0
2021/10/12 01:44:12.000   28 35 34.11497  -17 55 01.60117    73.4242   6   5   0.0121   0.0285   0.0479   0.0087  -0.0151  -0.0076   0.00    0.0
2021/10/12 01:44:42.000   28 35 34.11495  -17 55 01.60119    73.4231   6   5   0.0118   0.0276   0.0475   0.0087  -0.0157  -0.0083   0.00    0.0
2021/10/12 01:45:12.000   28 35 34.11494  -17 55 01.60120    73.4220   6   5   0.0117   0.0273   0.0474   0.0087  -0.0158  -0.0085   0.00    0.0
2021/10/12 01:45:42.000   28 35 34.11493  -17 55 01.60121    73.4220   6   5   0.0117   0.0273   0.0474   0.0087  -0.0159  -0.0085   0.00    0.0
2021/10/12 01:46:12.000   28 35 34.11493  -17 55 01.60121    73.4220   6   5   0.0117   0.0272   0.0473   0.0087  -0.0159  -0.0086   0.00    0.0
2021/10/12 01:46:42.000   28 35 34.11493  -17 55 01.60121    73.4219   6   5   0.0117   0.0272   0.0473   0.0087  -0.0159  -0.0086   0.00    0.0
2021/10/12 01:47:12.000   28 35 34.11493  -17 55 01.60121    73.4217   6   5   0.0117   0.0272   0.0473   0.0087  -0.0159  -0.0086   0.00    0.0
2021/10/12 01:47:42.000   28 35 34.11492  -17 55 01.60121    73.4214   6   5   0.0117   0.0272   0.0473   0.0087  -0.0159  -0.0086   0.00    0.0
2021/10/12 01:48:12.000   28 35 34.11492  -17 55 01.60120    73.4213   6   5   0.0116   0.0271   0.0473   0.0087  -0.0159  -0.0086   0.00    0.0
2021/10/12 01:48:42.000   28 35 34.11492  -17 55 01.60119    73.4211   6   5   0.0116   0.0270   0.0473   0.0087  -0.0160  -0.0087   0.00    0.0
2021/10/12 01:49:12.000   28 35 34.11493  -17 55 01.60116    73.4219   6   5   0.0115   0.0268   0.0472   0.0087  -0.0161  -0.0089   0.00    0.0
2021/10/12 01:49:42.000   28 35 34.11490  -17 55 01.60118    73.4200   6   5   0.0113   0.0261   0.0468   0.0087  -0.0166  -0.0094   0.00    0.0
2021/10/12 01:50:12.000   28 35 34.11490  -17 55 01.60114    73.4195   6   5   0.0112   0.0259   0.0467   0.0087  -0.0167  -0.0095   0.00    0.0
2021/10/12 01:50:42.000   28 35 34.11490  -17 55 01.60110    73.4191   6   5   0.0112   0.0258   0.0466   0.0087  -0.0168  -0.0095   0.00    0.0
2021/10/12 01:51:12.000   28 35 34.11491  -17 55 01.60108    73.4190   6   5   0.0112   0.0258   0.0466   0.0087  -0.0168  -0.0095   0.00    0.0
2021/10/12 01:51:42.000   28 35 34.11491  -17 55 01.60105    73.4190   6   5   0.0112   0.0258   0.0466   0.0087  -0.0168  -0.0096   0.00    0.0
2021/10/12 01:52:12.000   28 35 34.11491  -17 55 01.60104    73.4190   6   5   0.0112   0.0258   0.0466   0.0087  -0.0168  -0.0096   0.00    0.0
2021/10/12 01:52:42.000   28 35 34.11491  -17 55 01.60103    73.4189   6   5   0.0112   0.0257   0.0466   0.0087  -0.0168  -0.0096   0.00    0.0
2021/10/12 01:53:12.000   28 35 34.11491  -17 55 01.60102    73.4190   6   5   0.0112   0.0257   0.0466   0.0087  -0.0168  -0.0096   0.00    0.0
2021/10/12 01:53:42.000   28 35 34.11491  -17 55 01.60098    73.4189   6   5   0.0112   0.0257   0.0466   0.0087  -0.0169  -0.0096   0.00    0.0
2021/10/12 01:54:12.000   28 35 34.11492  -17 55 01.60095    73.4180   6   5   0.0111   0.0255   0.0464   0.0087  -0.0170  -0.0098   0.00    0.0
2021/10/12 01:54:42.000   28 35 34.11492  -17 55 01.60102    73.4161   6   5   0.0109   0.0248   0.0461   0.0088  -0.0175  -0.0102   0.00    0.0
2021/10/12 01:55:12.000   28 35 34.11492  -17 55 01.60103    73.4147   6   5   0.0108   0.0247   0.0460   0.0088  -0.0176  -0.0103   0.00    0.0
2021/10/12 01:55:42.000   28 35 34.11492  -17 55 01.60103    73.4144   6   5   0.0108   0.0247   0.0459   0.0088  -0.0176  -0.0103   0.00    0.0
2021/10/12 01:56:12.000   28 35 34.11491  -17 55 01.60102    73.4141   6   5   0.0108   0.0246   0.0459   0.0088  -0.0176  -0.0103   0.00    0.0
2021/10/12 01:56:42.000   28 35 34.11491  -17 55 01.60100    73.4138   6   5   0.0108   0.0246   0.0459   0.0088  -0.0176  -0.0103   0.00    0.0
2021/10/12 01:57:12.000   28 35 34.11491  -17 55 01.60099    73.4136   6   5   0.0108   0.0246   0.0459   0.0088  -0.0176  -0.0103   0.00    0.0
2021/10/12 01:57:42.000   28 35 34.11491  -17 55 01.60099    73.4134   6   5   0.0108   0.0246   0.0459   0.0088  -0.0176  -0.0103   0.00    0.0
2021/10/12 01:58:12.000   28 35 34.11490  -17 55 01.60099    73.4130   6   5   0.0108   0.0246   0.0459   0.0088  -0.0177  -0.0104   0.00    0.0
2021/10/12 01:58:42.000   28 35 34.11490  -17 55 01.60100    73.4125   6   5   0.0108   0.0245   0.0458   0.0088  -0.0177  -0.0104   0.00    0.0
2021/10/12 01:59:12.000   28 35 34.11488  -17 55 01.60102    73.4111   6   5   0.0107   0.0244   0.0457   0.0088  -0.0178  -0.0105   0.00    0.0
2021/10/12 01:59:42.000   28 35 34.11488  -17 55 01.60110    73.4100   6   5   0.0105   0.0238   0.0453   0.0088  -0.0183  -0.0108   0.00    0.0
2021/10/12 02:00:12.000   28 35 34.11488  -17 55 01.60113    73.4099   6   5   0.0105   0.0237   0.0452   0.0088  -0.0184  -0.0109   0.00    0.0
2021/10/12 02:00:42.000   28 35 34.11488  -17 55 01.60114    73.4104   6   5   0.0105   0.0237   0.0452   0.0088  -0.0184  -0.0109   0.00    0.0
2021/10/12 02:01:12.000   28 35 34.11488  -17 55 01.60114    73.4107   6   5   0.0105   0.0237   0.0452   0.0088  -0.0184  -0.0109   0.00    0.0
2021/10/12 02:01:42.000   28 35 34.11488  -17 55 01.60115    73.4104   6   5   0.0104   0.0237   0.0452   0.0088  -0.0184  -0.0109   0.00    0.0
2021/10/12 02:02:12.000   28 35 34.11488  -17 55 01.60114    73.4101   6   5   0.0104   0.0236   0.0451   0.0088  -0.0184  -0.0109   0.00    0.0
2021/10/12 02:02:42.000   28 35 34.11487  -17 55 01.60114    73.4100   6   5   0.0104   0.0236   0.0451   0.0088  -0.0184  -0.0110   0.00    0.0
2021/10/12 02:03:12.000   28 35 34.11487  -17 55 01.60115    73.4098   6   5   0.0104   0.0236   0.0451   0.0088  -0.0184  -0.0110   0.00    0.0
2021/10/12 02:03:42.000   28 35 34.11487  -17 55 01.60115    73.4100   6   5   0.0104   0.0236   0.0451   0.0088  -0.0185  -0.0110   0.00    0.0
2021/10/12 02:04:12.000   28 35 34.11488  -17 55 01.60115    73.4101   6   5   0.0104   0.0234   0.0450   0.0089  -0.0186  -0.0111   0.00    0.0
2021/10/12 02:04:42.000   28 35 34.11485  -17 55 01.60121    73.4069   6   5   0.0102   0.0230   0.0445   0.0089  -0.0190  -0.0113   0.00    0.0
2021/10/12 02:05:12.000   28 35 34.11484  -17 55 01.60127    73.4045   6   5   0.0102   0.0229   0.0444   0.0089  -0.0191  -0.0114   0.00    0.0
2021/10/12 02:05:42.000   28 35 34.11483  -17 55 01.60128    73.4028   6   5   0.0101   0.0229   0.0444   0.0089  -0.0191  -0.0114   0.00    0.0
2021/10/12 02:06:12.000   28 35 34.11483  -17 55 01.60127    73.4021   6   5   0.0101   0.0229   0.0444   0.0089  -0.0191  -0.0114   0.00    0.0
2021/10/12 02:06:42.000   28 35 34.11482  -17 55 01.60127    73.4016   6   5   0.0101   0.0229   0.0444   0.0089  -0.0191  -0.0114   0.00    0.0
2021/10/12 02:07:12.000   28 35 34.11482  -17 55 01.60126    73.4015   6   5   0.0101   0.0229   0.0444   0.0089  -0.0191  -0.0114   0.00    0.0
2021/10/12 02:07:42.000   28 35 34.11482  -17 55 01.60124    73.4014   6   5   0.0101   0.0229   0.0443   0.0089  -0.0191  -0.0114   0.00    0.0
2021/10/12 02:08:12.000   28 35 34.11482  -17 55 01.60124    73.4013   6   5   0.0101   0.0228   0.0443   0.0089  -0.0191  -0.0115   0.00    0.0
2021/10/12 02:08:42.000   28 35 34.11482  -17 55 01.60123    73.4011   6   5   0.0101   0.0228   0.0443   0.0089  -0.0192  -0.0115   0.00    0.0
2021/10/12 02:09:12.000   28 35 34.11482  -17 55 01.60126    73.4010   6   5   0.0101   0.0227   0.0441   0.0089  -0.0192  -0.0115   0.00    0.0
2021/10/12 02:09:42.000   28 35 34.11481  -17 55 01.60126    73.4007   6   5   0.0099   0.0224   0.0437   0.0090  -0.0196  -0.0117   0.00    0.0
2021/10/12 02:10:12.000   28 35 34.11480  -17 55 01.60125    73.3987   6   5   0.0099   0.0223   0.0436   0.0090  -0.0197  -0.0118   0.00    0.0
2021/10/12 02:10:42.000   28 35 34.11479  -17 55 01.60123    73.3980   6   5   0.0099   0.0223   0.0436   0.0090  -0.0197  -0.0118   0.00    0.0
2021/10/12 02:11:12.000   28 35 34.11479  -17 55 01.60122    73.3979   6   5   0.0099   0.0223   0.0435   0.0090  -0.0197  -0.0118   0.00    0.0
2021/10/12 02:11:42.000   28 35 34.11479  -17 55 01.60121    73.3981   6   5   0.0099   0.0223   0.0435   0.0090  -0.0197  -0.0118   0.00    0.0
2021/10/12 02:12:12.000   28 35 34.11480  -17 55 01.60121    73.3983   6   5   0.0099   0.0223   0.0435   0.0090  -0.0197  -0.0118   0.00    0.0
2021/10/12 02:12:42.000   28 35 34.11480  -17 55 01.60119    73.3987   6   5   0.0099   0.0223   0.0435   0.0090  -0.0197  -0.0118   0.00    0.0
2021/10/12 02:13:12.000   28 35 34.11480  -17 55 01.60118    73.3990   6   5   0.0098   0.0222   0.0435   0.0090  -0.0197  -0.0118   0.00    0.0
2021/10/12 02:13:42.000   28 35 34.11481  -17 55 01.60116    73.3996   6   5   0.0098   0.0222   0.0434   0.0090  -0.0197  -0.0118   0.00    0.0
2021/10/12 02:14:12.000   28 35 34.11483  -17 55 01.60114    73.4011   6   5   0.0098   0.0221   0.0433   0.0091  -0.0198  -0.0119   0.00    0.0
2021/10/12 02:14:42.000   28 35 34.11482  -17 55 01.60116    73.4022   6   6   0.0097   0.0219   0.0429   0.0091  -0.0201  -0.0120   0.00    0.0
2021/10/12 02:15:12.000   28 35 34.11483  -17 55 01.60116    73.4026   6   6   0.0096   0.0218   0.0428   0.0091  -0.0201  -0.0120   0.00    0.0
2021/10/12 02:15:42.000   28 35 34.11483  -17 55 01.60117    73.4024   6   6   0.0096   0.0218   0.0427   0.0091  -0.0202  -0.0120   0.00    0.0
2021/10/12 02:16:12.000   28 35 34.11483  -17 55 01.60116    73.4023   6   6   0.0096   0.0218   0.0427   0.0091  -0.0202  -0.0120   0.00    0.0
2021/10/12 02:16:42.000   28 35 34.11483  -17 55 01.60115    73.4025   6   6   0.0096   0.0218   0.0427   0.0091  -0.0202  -0.0120   0.00    0.0
2021/10/12 02:17:12.000   28 35 34.11483  -17 55 01.60114    73.4026   6   6   0.0096   0.0218   0.0427   0.0091  -0.0202  -0.0120   0.00    0.0
2021/10/12 02:17:42.000   28 35 34.11483  -17 55 01.60114    73.4026   6   6   0.0096   0.0218   0.0427   0.0091  -0.0202  -0.0120   0.00    0.0
2021/10/12 02:18:12.000   28 35 34.11483  -17 55 01.60113    73.4029   6   6   0.0096   0.0218   0.0426   0.0091  -0.0202  -0.0120   0.00    0.0
2021/10/12 02:18:42.000   28 35 34.11483  -17 55 01.60112    73.4039   6   6   0.0096   0.0218   0.0426   0.0092  -0.0202  -0.0121   0.00    0.0
2021/10/12 02:19:12.000   28 35 34.11485  -17 55 01.60110    73.4049   6   6   0.0096   0.0217   0.0424   0.0092  -0.0203  -0.0121   0.00    0.0
2021/10/12 02:19:42.000   28 35 34.11485  -17 55 01.60114    73.4034   6   6   0.0095   0.0215   0.0420   0.0092  -0.0205  -0.0122   0.00    0.0
2021/10/12 02:20:12.000   28 35 34.11485  -17 55 01.60114    73.4029   6   6   0.0094   0.0215   0.0419   0.0093  -0.0205  -0.0122   0.00    0.0
2021/10/12 02:20:42.000   28 35 34.11485  -17 55 01.60113    73.4032   6   6   0.0094   0.0215   0.0418   0.0093  -0.0205  -0.0122   0.00    0.0
2021/10/12 02:21:12.000   28 35 34.11485  -17 55 01.60112    73.4028   6   6   0.0094   0.0215   0.0418   0.0093  -0.0205  -0.0122   0.00    0.0
2021/10/12 02:21:42.000   28 35 34.11485  -17 55 01.60111    73.4026   6   6   0.0094   0.0215   0.0418   0.0093  -0.0205  -0.0122   0.00    0.0
2021/10/12 02:22:12.000   28 35 34.11485  -17 55 01.60111    73.4025   6   6   0.0094   0.0214   0.0418   0.0093  -0.0205  -0.0122   0.00    0.0
2021/10/12 02:22:42.000   28 35 34.11485  -17 55 01.60110    73.4024   6   6   0.0094   0.0214   0.0418   0.0093  -0.0206  -0.0122   0.00    0.0
2021/10/12 02:23:12.000   28 35 34.11486  -17 55 01.60109    73.4026   6   6   0.0094   0.0214   0.0417   0.0093  -0.0206  -0.0122   0.00    0.0
2021/10/12 02:23:42.000   28 35 34.11487  -17 55 01.60108    73.4036   6   6   0.0094   0.0214   0.0417   0.0093  -0.0206  -0.0122   0.00    0.0
2021/10/12 02:24:12.000   28 35 34.11489  -17 55 01.60108    73.4047   6   7   0.0094   0.0214   0.0415   0.0093  -0.0206  -0.0122   0.00    0.0
2021/10/12 02:24:42.000   28 35 34.11491  -17 55 01.60113    73.4030   6   7   0.0093   0.0212   0.0411   0.0093  -0.0208  -0.0122   0.00    0.0
2021/10/12 02:25:12.000   28 35 34.11492  -17 55 01.60112    73.4040   6   7   0.0092   0.0212   0.0409   0.0093  -0.0208  -0.0123   0.00    0.0
2021/10/12 02:25:42.000   28 35 34.11492  -17 55 01.60111    73.4037   6   7   0.0092   0.0212   0.0409   0.0094  -0.0208  -0.0123   0.00    0.0
2021/10/12 02:26:12.000   28 35 34.11492  -17 55 01.60110    73.4032   6   7   0.0092   0.0212   0.0409   0.0094  -0.0208  -0.0123   0.00    0.0
2021/10/12 02:26:42.000   28 35 34.11492  -17 55 01.60109    73.4032   6   7   0.0092   0.0212   0.0409   0.0094  -0.0208  -0.0123   0.00    0.0
2021/10/12 02:27:12.000   28 35 34.11492  -17 55 01.60108    73.4035   6   7   0.0092   0.0212   0.0408   0.0094  -0.0208  -0.0123   0.00    0.0
2021/10/12 02:27:42.000   28 35 34.11492  -17 55 01.60107    73.4038   6   7   0.0092   0.0212   0.0408   0.0094  -0.0208  -0.0123   0.00    0.0
2021/10/12 02:28:12.000   28 35 34.11492  -17 55 01.60107    73.4040   6   7   0.0092   0.0212   0.0408   0.0094  -0.0208  -0.0123   0.00    0.0
2021/10/12 02:28:42.000   28 35 34.11492  -17 55 01.60105    73.4032   6   7   0.0092   0.0212   0.0407   0.0094  -0.0208  -0.0123   0.00    0.0
2021/10/12 02:29:12.000   28 35 34.11491  -17 55 01.60105    73.4017   6   7   0.0092   0.0211   0.0406   0.0094  -0.0209  -0.0122   0.00    0.0
2021/10/12 02:29:42.000   28 35 34.11491  -17 55 01.60106    73.3991   6   7   0.0091   0.0210   0.0401   0.0094  -0.0210  -0.0122   0.00    0.0
2021/10/12 02:30:12.000   28 35 34.11492  -17 55 01.60105    73.3996   6   7   0.0090   0.0210   0.0400   0.0094  -0.0210  -0.0122   0.00    0.0
2021/10/12 02:30:42.000   28 35 34.11493  -17 55 01.60104    73.3995   6   7   0.0090   0.0210   0.0399   0.0094  -0.0210  -0.0122   0.00    0.0
2021/10/12 02:31:12.000   28 35 34.11493  -17 55 01.60102    73.3991   6   7   0.0090   0.0210   0.0399   0.0094  -0.0210  -0.0122   0.00    0.0
2021/10/12 02:31:42.000   28 35 34.11493  -17 55 01.60102    73.3988   6   7   0.0090   0.0210   0.0399   0.0094  -0.0210  -0.0122   0.00    0.0
2021/10/12 02:32:12.000   28 35 34.11493  -17 55 01.60101    73.3987   6   7   0.0090   0.0210   0.0399   0.0094  -0.0210  -0.0122   0.00    0.0
2021/10/12 02:32:42.000   28 35 34.11494  -17 55 01.60101    73.3985   6   7   0.0090   0.0210   0.0398   0.0094  -0.0210  -0.0122   0.00    0.0
2021/10/12 02:33:12.000   28 35 34.11494  -17 55 01.60101    73.3983   6   7   0.0090   0.0210   0.0398   0.0094  -0.0210  -0.0122   0.00    0.0
2021/10/12 02:33:42.000   28 35 34.11494  -17 55 01.60101    73.3977   6   7   0.0090   0.0210   0.0398   0.0094  -0.0210  -0.0122   0.00    0.0
2021/10/12 02:34:12.000   28 35 34.11495  -17 55 01.60101    73.3977   6   7   0.0090   0.0209   0.0396   0.0094  -0.0211  -0.0122   0.00    0.0
2021/10/12 02:34:42.000   28 35 34.11494  -17 55 01.60103    73.3953   6   7   0.0089   0.0209   0.0391   0.0095  -0.0211  -0.0122   0.00    0.0
2021/10/12 02:35:12.000   28 35 34.11492  -17 55 01.60099    73.3988   6   7   0.0089   0.0209   0.0390   0.0095  -0.0212  -0.0122   0.00    0.0
2021/10/12 02:35:42.000   28 35 34.11492  -17 55 01.60098    73.3991   6   7   0.0088   0.0208   0.0389   0.0095  -0.0212  -0.0122   0.00    0.0
2021/10/12 02:36:12.000   28 35 34.11492  -17 55 01.60098    73.3990   6   7   0.0088   0.0208   0.0389   0.0095  -0.0212  -0.0122   0.00    0.0
2021/10/12 02:36:42.000   28 35 34.11492  -17 55 01.60098    73.3988   6   7   0.0088   0.0208   0.0389   0.0095  -0.0212  -0.0122   0.00    0.0
2021/10/12 02:37:12.000   28 35 34.11492  -17 55 01.60098    73.3984   6   7   0.0088   0.0208   0.0389   0.0095  -0.0212  -0.0122   0.00    0.0
2021/10/12 02:37:42.000   28 35 34.11492  -17 55 01.60097    73.3984   6   7   0.0088   0.0208   0.0389   0.0095  -0.0212  -0.0122   0.00    0.0
2021/10/12 02:38:12.000   28 35 34.11492  -17 55 01.60097    73.3983   6   7   0.0088   0.0208   0.0388   0.0095  -0.0212  -0.0122   0.00    0.0
2021/10/12 02:38:42.000   28 35 34.11492  -17 55 01.60096    73.3978   6   7   0.0088   0.0208   0.0388   0.0095  -0.0212  -0.0122   0.00    0.0
2021/10/12 02:39:12.000   28 35 34.11493  -17 55 01.60096    73.3975   6   8   0.0088   0.0208   0.0386   0.0095  -0.0212  -0.0121   0.00    0.0
2021/10/12 02:39:42.000   28 35 34.11493  -17 55 01.60099    73.3931   6   8   0.0087   0.0208   0.0382   0.0095  -0.0212  -0.0121   0.00    0.0
2021/10/12 02:40:12.000   28 35 34.11493  -17 55 01.60100    73.3898   6   8   0.0087   0.0207   0.0381   0.0095  -0.0212  -0.0121   0.00    0.0
2021/10/12 02:40:42.000   28 35 34.11493  -17 55 01.60099    73.3891   6   8   0.0087   0.0207   0.0380   0.0095  -0.0212  -0.0121   0.00    0.0
2021/10/12 02:41:12.000   28 35 34.11493  -17 55 01.60099    73.3897   6   8   0.0087   0.0207   0.0380   0.0095  -0.0212  -0.0121   0.00    0.0
2021/10/12 02:41:42.000   28 35 34.11492  -17 55 01.60100    73.3903   6   8   0.0087   0.0207   0.0380   0.0095  -0.0212  -0.0121   0.00    0.0
2021/10/12 02:42:12.000   28 35 34.11492  -17 55 01.60100    73.3904   6   8   0.0087   0.0207   0.0380   0.0095  -0.0212  -0.0121   0.00    0.0
2021/10/12 02:42:42.000   28 35 34.11493  -17 55 01.60099    73.3900   6   8   0.0087   0.0207   0.0380   0.0095  -0.0212  -0.0121   0.00    0.0
2021/10/12 02:43:12.000   28 35 34.11493  -17 55 01.60099    73.3893   6   8   0.0087   0.0207   0.0379   0.0095  -0.0212  -0.0121   0.00    0.0
2021/10/12 02:43:42.000   28 35 34.11494  -17 55 01.60100    73.3871   6   8   0.0087   0.0207   0.0379   0.0095  -0.0212  -0.0121   0.00    0.0
2021/10/12 02:44:12.000   28 35 34.11495  -17 55 01.60100    73.3822   6   8   0.0086   0.0207   0.0377   0.0095  -0.0212  -0.0120   0.00    0.0
2021/10/12 02:44:42.000   28 35 34.11493  -17 55 01.60101    73.3821   6   8   0.0085   0.0207   0.0373   0.0096  -0.0213  -0.0120   0.00    0.0
2021/10/12 02:45:12.000   28 35 34.11493  -17 55 01.60102    73.3798   6   8   0.0085   0.0207   0.0372   0.0096  -0.0213  -0.0120   0.00    0.0
2021/10/12 02:45:42.000   28 35 34.11493  -17 55 01.60101    73.3785   6   8   0.0085   0.0207   0.0371   0.0096  -0.0213  -0.0119   0.00    0.0
2021/10/12 02:46:12.000   28 35 34.11494  -17 55 01.60101    73.3780   6   8   0.0085   0.0206   0.0371   0.0096  -0.0213  -0.0119   0.00    0.0
2021/10/12 02:46:42.000   28 35 34.11494  -17 55 01.60100    73.3775   6   8   0.0085   0.0206   0.0371   0.0096  -0.0213  -0.0119   0.00    0.0
2021/10/12 02:47:12.000   28 35 34.11494  -17 55 01.60099    73.3769   6   8   0.0085   0.0206   0.0371   0.0096  -0.0213  -0.0119   0.00    0.0
2021/10/12 02:47:42.000   28 35 34.11494  -17 55 01.60098    73.3765   6   8   0.0085   0.0206   0.0371   0.0096  -0.0213  -0.0119   0.00    0.0
2021/10/12 02:48:12.000   28 35 34.11494  -17 55 01.60098    73.3758   6   8   0.0085   0.0206   0.0371   0.0096  -0.0213  -0.0119   0.00    0.0
2021/10/12 02:48:42.000   28 35 34.11494  -17 55 01.60098    73.3754   6   8   0.0085   0.0206   0.0370   0.0096  -0.0213  -0.0119   0.00    0.0
2021/10/12 02:49:12.000   28 35 34.11494  -17 55 01.60097    73.3763   6   8   0.0085   0.0206   0.0369   0.0096  -0.0213  -0.0119   0.00    0.0
2021/10/12 02:49:42.000   28 35 34.11494  -17 55 01.60097    73.3747   6   8   0.0084   0.0206   0.0365   0.0096  -0.0213  -0.0118   0.00    0.0
2021/10/12 02:50:12.000   28 35 34.11495  -17 55 01.60096    73.3739   6   8   0.0084   0.0206   0.0364   0.0096  -0.0213  -0.0118   0.00    0.0
2021/10/12 02:50:42.000   28 35 34.11495  -17 55 01.60096    73.3732   6   8   0.0084   0.0206   0.0363   0.0096  -0.0213  -0.0118   0.00    0.0
2021/10/12 02:51:12.000   28 35 34.11494  -17 55 01.60096    73.3728   6   8   0.0083   0.0206   0.0363   0.0096  -0.0213  -0.0118   0.00    0.0
2021/10/12 02:51:42.000   28 35 34.11494  -17 55 01.60096    73.3725   6   8   0.0083   0.0206   0.0363   0.0096  -0.0213  -0.0118   0.00    0.0
2021/10/12 02:52:12.000   28 35 34.11494  -17 55 01.60096    73.3723   6   8   0.0083   0.0206   0.0363   0.0096  -0.0213  -0.0118   0.00    0.0
2021/10/12 02:52:42.000   28 35 34.11494  -17 55 01.60096    73.3721   6   8   0.0083   0.0206   0.0363   0.0096  -0.0213  -0.0118   0.00    0.0
2021/10/12 02:53:12.000   28 35 34.11494  -17 55 01.60096    73.3717   6   8   0.0083   0.0206   0.0363   0.0096  -0.0213  -0.0118   0.00    0.0
2021/10/12 02:53:42.000   28 35 34.11494  -17 55 01.60095    73.3709   6   8   0.0083   0.0206   0.0362   0.0096  -0.0213  -0.0118   0.00    0.0
2021/10/12 02:54:12.000   28 35 34.11494  -17 55 01.60095    73.3688   6   8   0.0083   0.0206   0.0361   0.0096  -0.0213  -0.0117   0.00    0.0
2021/10/12 02:54:42.000   28 35 34.11496  -17 55 01.60095    73.3695   6   8   0.0082   0.0205   0.0358   0.0096  -0.0213  -0.0117   0.00    0.0
2021/10/12 02:55:12.000   28 35 34.11497  -17 55 01.60096    73.3674   6   8   0.0082   0.0205   0.0357   0.0096  -0.0213  -0.0116   0.00    0.0
2021/10/12 02:55:42.000   28 35 34.11497  -17 55 01.60096    73.3671   6   8   0.0082   0.0205   0.0356   0.0096  -0.0213  -0.0116   0.00    0.0
2021/10/12 02:56:12.000   28 35 34.11497  -17 55 01.60096    73.3670   6   8   0.0082   0.0205   0.0356   0.0096  -0.0213  -0.0116   0.00    0.0
2021/10/12 02:56:42.000   28 35 34.11497  -17 55 01.60096    73.3669   6   8   0.0082   0.0205   0.0356   0.0096  -0.0213  -0.0116   0.00    0.0
2021/10/12 02:57:12.000   28 35 34.11497  -17 55 01.60096    73.3667   6   8   0.0082   0.0205   0.0356   0.0096  -0.0213  -0.0116   0.00    0.0
2021/10/12 02:57:42.000   28 35 34.11497  -17 55 01.60095    73.3663   6   8   0.0082   0.0205   0.0356   0.0096  -0.0213  -0.0116   0.00    0.0
2021/10/12 02:58:12.000   28 35 34.11498  -17 55 01.60094    73.3659   6   8   0.0082   0.0205   0.0355   0.0096  -0.0213  -0.0116   0.00    0.0
2021/10/12 02:58:42.000   28 35 34.11498  -17 55 01.60094    73.3660   6   8   0.0082   0.0205   0.0355   0.0096  -0.0213  -0.0116   0.00    0.0
2021/10/12 02:59:12.000   28 35 34.11500  -17 55 01.60092    73.3667   6   8   0.0081   0.0205   0.0354   0.0095  -0.0213  -0.0116   0.00    0.0
2021/10/12 02:59:42.000   28 35 34.11501  -17 55 01.60091    73.3671   6   8   0.0081   0.0205   0.0351   0.0095  -0.0213  -0.0115   0.00    0.0
2021/10/12 03:00:12.000   28 35 34.11501  -17 55 01.60092    73.3658   6   8   0.0081   0.0205   0.0350   0.0095  -0.0212  -0.0115   0.00    0.0
2021/10/12 03:00:42.000   28 35 34.11502  -17 55 01.60092    73.3652   6   8   0.0080   0.0205   0.0350   0.0095  -0.0212  -0.0115   0.00    0.0
2021/10/12 03:01:12.000   28 35 34.11502  -17 55 01.60091    73.3649   6   8   0.0080   0.0205   0.0350   0.0095  -0.0212  -0.0114   0.00    0.0
2021/10/12 03:01:42.000   28 35 34.11502  -17 55 01.60090    73.3645   6   8   0.0080   0.0205   0.0350   0.0095  -0.0212  -0.0114   0.00    0.0
2021/10/12 03:02:12.000   28 35 34.11502  -17 55 01.60090    73.3646   6   8   0.0080   0.0205   0.0349   0.0095  -0.0212  -0.0114   0.00    0.0
2021/10/12 03:02:42.000   28 35 34.11502  -17 55 01.60090    73.3643   6   8   0.0080   0.0205   0.0349   0.0095  -0.0212  -0.0114   0.00    0.0
2021/10/12 03:03:12.000   28 35 34.11503  -17 55 01.60089    73.3640   6   8   0.0080   0.0204   0.0349   0.0095  -0.0212  -0.0114   0.00    0.0
2021/10/12 03:03:42.000   28 35 34.11503  -17 55 01.60089    73.3640   6   8   0.0080   0.0204   0.0349   0.0095  -0.0212  -0.0114   0.00    0.0
2021/10/12 03:04:12.000   28 35 34.11504  -17 55 01.60089    73.3638   6   8   0.0080   0.0204   0.0348   0.0095  -0.0212  -0.0114   0.00    0.0
2021/10/12 03:04:42.000   28 35 34.11507  -17 55 01.60087    73.3624   6   8   0.0079   0.0204   0.0345   0.0095  -0.0212  -0.0113   0.00    0.0
2021/10/12 03:05:12.000   28 35 34.11509  -17 55 01.60086    73.3602   6   8   0.0079   0.0204   0.0345   0.0095  -0.0212  -0.0113   0.00    0.0
2021/10/12 03:05:42.000   28 35 34.11510  -17 55 01.60084    73.3590   6   8   0.0079   0.0204   0.0344   0.0095  -0.0212  -0.0113   0.00    0.0
2021/10/12 03:06:12.000   28 35 34.11511  -17 55 01.60083    73.3586   6   8   0.0079   0.0204   0.0344   0.0095  -0.0212  -0.0113   0.00    0.0
2021/10/12 03:06:42.000   28 35 34.11511  -17 55 01.60083    73.3583   6   8   0.0079   0.0204   0.0344   0.0095  -0.0212  -0.0113   0.00    0.0
2021/10/12 03:07:12.000   28 35 34.11511  -17 55 01.60082    73.3582   6   8   0.0079   0.0204   0.0344   0.0095  -0.0212  -0.0113   0.00    0.0
2021/10/12 03:07:42.000   28 35 34.11511  -17 55 01.60081    73.3579   6   8   0.0079   0.0204   0.0344   0.0095  -0.0212  -0.0113   0.00    0.0
2021/10/12 03:08:12.000   28 35 34.11512  -17 55 01.60080    73.3577   6   8   0.0079   0.0204   0.0344   0.0095  -0.0212  -0.0113   0.00    0.0
2021/10/12 03:08:42.000   28 35 34.11512  -17 55 01.60080    73.3575   6   8   0.0079   0.0204   0.0343   0.0095  -0.0212  -0.0112   0.00    0.0
2021/10/12 03:09:12.000   28 35 34.11513  -17 55 01.60080    73.3568   6   8   0.0078   0.0204   0.0343   0.0095  -0.0212  -0.0112   0.00    0.0
2021/10/12 03:09:42.000   28 35 34.11515  -17 55 01.60079    73.3567   6   8   0.0078   0.0203   0.0340   0.0094  -0.0212  -0.0111   0.00    0.0
2021/10/12 03:10:12.000   28 35 34.11516  -17 55 01.60078    73.3556   6   8   0.0078   0.0203   0.0340   0.0094  -0.0212  -0.0111   0.00    0.0
2021/10/12 03:10:42.000   28 35 34.11516  -17 55 01.60078    73.3558   6   8   0.0077   0.0203   0.0339   0.0094  -0.0211  -0.0111   0.00    0.0
2021/10/12 03:11:12.000   28 35 34.11515  -17 55 01.60078    73.3558   6   8   0.0077   0.0203   0.0339   0.0094  -0.0211  -0.0111   0.00    0.0
2021/10/12 03:11:42.000   28 35 34.11515  -17 55 01.60077    73.3557   6   8   0.0077   0.0203   0.0339   0.0094  -0.0211  -0.0111   0.00    0.0
2021/10/12 03:12:12.000   28 35 34.11516  -17 55 01.60077    73.3555   6   8   0.0077   0.0203   0.0339   0.0094  -0.0211  -0.0111   0.00    0.0
2021/10/12 03:12:42.000   28 35 34.11516  -17 55 01.60076    73.3552   6   8   0.0077   0.0203   0.0339   0.0094  -0.0211  -0.0111   0.00    0.0
2021/10/12 03:13:12.000   28 35 34.11516  -17 55 01.60075    73.3549   6   8   0.0077   0.0203   0.0339   0.0094  -0.0211  -0.0111   0.00    0.0
2021/10/12 03:13:42.000   28 35 34.11516  -17 55 01.60074    73.3553   6   8   0.0077   0.0203   0.0339   0.0094  -0.0211  -0.0111   0.00    0.0
2021/10/12 03:14:12.000   28 35 34.11517  -17 55 01.60074    73.3559   6   8   0.0077   0.0203   0.0338   0.0094  -0.0211  -0.0110   0.00    0.0
2021/10/12 03:14:42.000   28 35 34.11518  -17 55 01.60072    73.3552   6   8   0.0076   0.0202   0.0336   0.0094  -0.0211  -0.0110   0.00    0.0
2021/10/12 03:15:12.000   28 35 34.11518  -17 55 01.60070    73.3546   6   8   0.0076   0.0202   0.0335   0.0094  -0.0211  -0.0109   0.00    0.0
2021/10/12 03:15:42.000   28 35 34.11519  -17 55 01.60069    73.3532   6   8   0.0076   0.0202   0.0335   0.0093  -0.0211  -0.0109   0.00    0.0
2021/10/12 03:16:12.000   28 35 34.11519  -17 55 01.60068    73.3525   6   9   0.0076   0.0202   0.0335   0.0093  -0.0211  -0.0109   0.00    0.0
2021/10/12 03:16:42.000   28 35 34.11519  -17 55 01.60068    73.3522   6   9   0.0076   0.0202   0.0335   0.0093  -0.0211  -0.0109   0.00    0.0
2021/10/12 03:17:12.000   28 35 34.11520  -17 55 01.60067    73.3518   6   9   0.0076   0.0202   0.0334   0.0093  -0.0210  -0.0109   0.00    0.0
2021/10/12 03:17:42.000   28 35 34.11520  -17 55 01.60067    73.3513   6   9   0.0076   0.0202   0.0334   0.0093  -0.0210  -0.0109   0.00    0.0
2021/10/12 03:18:12.000   28 35 34.11521  -17 55 01.60066    73.3505   6   9   0.0076   0.0202   0.0334   0.0093  -0.0210  -0.0109   0.00    0.0
2021/10/12 03:18:42.000   28 35 34.11521  -17 55 01.60065    73.3497   6   9   0.0076   0.0202   0.0334   0.0093  -0.0210  -0.0109   0.00    0.0
2021/10/12 03:19:12.000   28 35 34.11521  -17 55 01.60066    73.3507   6   9   0.0076   0.0202   0.0333   0.0093  -0.0210  -0.0109   0.00    0.0
2021/10/12 03:19:42.000   28 35 34.11520  -17 55 01.60066    73.3506   6   9   0.0075   0.0201   0.0331   0.0093  -0.0210  -0.0108   0.00    0.0
2021/10/12 03:20:12.000   28 35 34.11522  -17 55 01.60064    73.3490   6   9   0.0075   0.0201   0.0330   0.0092  -0.0209  -0.0107   0.00    0.0
2021/10/12 03:20:42.000   28 35 34.11524  -17 55 01.60062    73.3470   6   9   0.0075   0.0201   0.0330   0.0092  -0.0209  -0.0107   0.00    0.0
2021/10/12 03:21:12.000   28 35 34.11524  -17 55 01.60060    73.3458   6   9   0.0075   0.0201   0.0330   0.0092  -0.0209  -0.0107   0.00    0.0
2021/10/12 03:21:42.000   28 35 34.11525  -17 55 01.60058    73.3451   6   9   0.0075   0.0201   0.0329   0.0092  -0.0209  -0.0107   0.00    0.0
2021/10/12 03:22:12.000   28 35 34.11525  -17 55 01.60057    73.3448   6   9   0.0075   0.0201   0.0329   0.0092  -0.0209  -0.0107   0.00    0.0
2021/10/12 03:22:42.000   28 35 34.11525  -17 55 01.60056    73.3443   6   9   0.0074   0.0201   0.0329   0.0092  -0.0209  -0.0107   0.00    0.0
2021/10/12 03:23:12.000   28 35 34.11526  -17 55 01.60055    73.3438   6   9   0.0074   0.0200   0.0329   0.0092  -0.0209  -0.0107   0.00    0.0
