% program   : RTKLIB ver.2.4.2
% inp file  : C:\IPNA\data\OBS\CVBB2930.o
% inp file  : C:\IPNA\data\NAV\CVBB2930.n
% inp file  : C:\IPNA\data\SP3\CVBB2930.sp3
% inp file  : C:\IPNA\data\CLOCK\CVBB2930.clk
% obs start : 2021/10/20 10:13:42.0 UTC (week2180 296040.0s)
% obs end   : 2021/10/20 23:59:12.0 UTC (week2180 345570.0s)
% pos mode  : ppp-static
% solution  : forward
% elev mask : 15.0 deg
% dynamics  : off
% tidecorr  : on
% tropo opt : est ztd
% ephemeris : precise
% antenna1  :                       ( 0.0000  0.0000  0.0000)
%
% (lat/lon/height=WGS84/ellipsoidal,Q=1:fix,2:float,3:sbas,4:dgps,5:single,6:ppp,ns=# of satellites)
%  UTC                     latitude(d'")   longitude(d'")  height(m)   Q  ns   sdn(m)   sde(m)   sdu(m)  sdne(m)  sdeu(m)  sdue(m) age(s)  ratio
2021/10/20 10:13:42.000   28 35 34.14781  -17 55 01.58997    73.7262   6   7   2.1499   1.5392   4.7424   0.9732   1.9102   2.4968   0.00    0.0
2021/10/20 10:14:12.000   28 35 34.13979  -17 55 01.59113    72.9473   6   7   1.4727   1.0787   3.2500   0.6482   1.3035   1.6788   0.00    0.0
2021/10/20 10:14:42.000   28 35 34.13088  -17 55 01.58951    72.5295   6   7   1.0937   0.8580   2.4078   0.4387   0.9550   1.1702   0.00    0.0
2021/10/20 10:15:12.000   28 35 34.13218  -17 55 01.58974    72.5972   6   7   0.9124   0.7359   2.0059   0.3475   0.7895   0.9460   0.00    0.0
2021/10/20 10:15:42.000   28 35 34.12427  -17 55 01.58838    72.3587   6   7   0.8009   0.6555   1.7634   0.2955   0.6901   0.8168   0.00    0.0
2021/10/20 10:16:12.000   28 35 34.12083  -17 55 01.58869    72.4705   6   7   0.7224   0.5972   1.5947   0.2603   0.6210   0.7288   0.00    0.0
2021/10/20 10:16:42.000   28 35 34.12124  -17 55 01.58805    72.4269   6   7   0.6631   0.5524   1.4683   0.2342   0.5692   0.6637   0.00    0.0
2021/10/20 10:17:12.000   28 35 34.11709  -17 55 01.58377    72.3668   6   7   0.6162   0.5166   1.3692   0.2139   0.5285   0.6130   0.00    0.0
2021/10/20 10:17:42.000   28 35 34.11762  -17 55 01.58048    72.5512   6   7   0.5645   0.4840   1.2572   0.1849   0.4807   0.5465   0.00    0.0
2021/10/20 10:18:12.000   28 35 34.12040  -17 55 01.57715    72.5996   6   7   0.5025   0.4523   1.1209   0.1420   0.4200   0.4552   0.00    0.0
2021/10/20 10:18:42.000   28 35 34.12420  -17 55 01.57433    72.6980   6   7   0.4232   0.4195   0.9491   0.0730   0.3388   0.3295   0.00    0.0
2021/10/20 10:19:12.000   28 35 34.12275  -17 55 01.57369    72.7253   6   7   0.3182   0.3826   0.7393  -0.0695   0.2277   0.1690   0.00    0.0
2021/10/20 10:19:42.000   28 35 34.11807  -17 55 01.57352    72.7362   6   7   0.2134   0.3444   0.5558  -0.0741   0.1010   0.0176   0.00    0.0
2021/10/20 10:20:12.000   28 35 34.11873  -17 55 01.57285    72.7340   6   7   0.2012   0.3295   0.5317  -0.0719   0.0857   0.0108   0.00    0.0
2021/10/20 10:20:42.000   28 35 34.11869  -17 55 01.57249    72.7317   6   7   0.1961   0.3189   0.5216  -0.0705   0.0842   0.0230   0.00    0.0
2021/10/20 10:21:12.000   28 35 34.11889  -17 55 01.57169    72.7350   6   7   0.1927   0.3100   0.5149  -0.0692   0.0855   0.0319   0.00    0.0
2021/10/20 10:21:42.000   28 35 34.11932  -17 55 01.57217    72.7202   6   7   0.1901   0.3020   0.5097  -0.0682   0.0875   0.0387   0.00    0.0
2021/10/20 10:22:12.000   28 35 34.11945  -17 55 01.57235    72.6970   6   7   0.1878   0.2948   0.5053  -0.0672   0.0895   0.0443   0.00    0.0
2021/10/20 10:22:42.000   28 35 34.11976  -17 55 01.57240    72.6567   6   7   0.1847   0.2878   0.4993  -0.0663   0.0893   0.0478   0.00    0.0
2021/10/20 10:23:12.000   28 35 34.11979  -17 55 01.57157    72.6466   6   7   0.1802   0.2808   0.4901  -0.0645   0.0853   0.0491   0.00    0.0
2021/10/20 10:23:42.000   28 35 34.11961  -17 55 01.57295    72.6727   6   7   0.1717   0.2727   0.4730  -0.0616   0.0714   0.0455   0.00    0.0
2021/10/20 10:24:12.000   28 35 34.11791  -17 55 01.57358    72.6464   6   7   0.1517   0.2605   0.4333  -0.0553  -0.0304   0.0268   0.00    0.0
2021/10/20 10:24:42.000   28 35 34.11597  -17 55 01.57529    72.7029   6   7   0.1137   0.2407   0.3613  -0.0437  -0.1014  -0.0327   0.00    0.0
2021/10/20 10:25:12.000   28 35 34.11640  -17 55 01.57479    72.7239   6   7   0.1086   0.2340   0.3504  -0.0416  -0.1052  -0.0318   0.00    0.0
2021/10/20 10:25:42.000   28 35 34.11654  -17 55 01.57488    72.7285   6   7   0.1068   0.2297   0.3463  -0.0409  -0.1048  -0.0306   0.00    0.0
2021/10/20 10:26:12.000   28 35 34.11667  -17 55 01.57504    72.7340   6   7   0.1057   0.2261   0.3439  -0.0405  -0.1036  -0.0293   0.00    0.0
2021/10/20 10:26:42.000   28 35 34.11681  -17 55 01.57499    72.7344   6   7   0.1050   0.2229   0.3421  -0.0403  -0.1021  -0.0280   0.00    0.0
2021/10/20 10:27:12.000   28 35 34.11693  -17 55 01.57564    72.7360   6   7   0.1044   0.2199   0.3407  -0.0402  -0.1005  -0.0267   0.00    0.0
2021/10/20 10:27:42.000   28 35 34.11690  -17 55 01.57585    72.7422   6   7   0.1035   0.2169   0.3386  -0.0399  -0.0994  -0.0254   0.00    0.0
2021/10/20 10:28:12.000   28 35 34.11653  -17 55 01.57645    72.7546   6   7   0.1021   0.2137   0.3353  -0.0394  -0.0994  -0.0242   0.00    0.0
2021/10/20 10:28:42.000   28 35 34.11576  -17 55 01.57721    72.7426   6   7   0.0992   0.2097   0.3287  -0.0383  -0.1016  -0.0234   0.00    0.0
2021/10/20 10:29:12.000   28 35 34.11488  -17 55 01.57865    72.7084   6   7   0.0916   0.2032   0.3113  -0.0353  -0.1097  -0.0241   0.00    0.0
2021/10/20 10:29:42.000   28 35 34.11518  -17 55 01.58070    72.7506   6   7   0.0735   0.1905   0.2712  -0.0287  -0.1212  -0.0276   0.00    0.0
2021/10/20 10:30:12.000   28 35 34.11525  -17 55 01.58126    72.7431   6   7   0.0707   0.1866   0.2641  -0.0275  -0.1219  -0.0265   0.00    0.0
2021/10/20 10:30:42.000   28 35 34.11519  -17 55 01.58143    72.7402   6   7   0.0698   0.1842   0.2614  -0.0272  -0.1214  -0.0258   0.00    0.0
2021/10/20 10:31:12.000   28 35 34.11527  -17 55 01.58084    72.7346   6   7   0.0693   0.1824   0.2599  -0.0271  -0.1205  -0.0253   0.00    0.0
2021/10/20 10:31:42.000   28 35 34.11538  -17 55 01.58073    72.7340   6   7   0.0690   0.1807   0.2588  -0.0271  -0.1196  -0.0248   0.00    0.0
2021/10/20 10:32:12.000   28 35 34.11553  -17 55 01.58093    72.7336   6   7   0.0687   0.1791   0.2579  -0.0271  -0.1187  -0.0243   0.00    0.0
2021/10/20 10:32:42.000   28 35 34.11574  -17 55 01.58047    72.7250   6   8   0.0683   0.1775   0.2566  -0.0270  -0.1178  -0.0238   0.00    0.0
2021/10/20 10:33:12.000   28 35 34.11592  -17 55 01.58001    72.7280   6   8   0.0677   0.1757   0.2546  -0.0268  -0.1173  -0.0232   0.00    0.0
2021/10/20 10:33:42.000   28 35 34.11619  -17 55 01.57995    72.7374   6   8   0.0664   0.1735   0.2506  -0.0263  -0.1173  -0.0222   0.00    0.0
2021/10/20 10:34:12.000   28 35 34.11632  -17 55 01.58034    72.7502   6   8   0.0627   0.1696   0.2399  -0.0248  -0.1186  -0.0206   0.00    0.0
2021/10/20 10:34:42.000   28 35 34.11611  -17 55 01.58177    72.7781   6   8   0.0526   0.1607   0.2131  -0.0209  -0.1193  -0.0199   0.00    0.0
2021/10/20 10:35:12.000   28 35 34.11616  -17 55 01.58179    72.7845   6   8   0.0510   0.1581   0.2075  -0.0203  -0.1187  -0.0187   0.00    0.0
2021/10/20 10:35:42.000   28 35 34.11626  -17 55 01.58164    72.7835   6   8   0.0504   0.1566   0.2053  -0.0202  -0.1179  -0.0182   0.00    0.0
2021/10/20 10:36:12.000   28 35 34.11632  -17 55 01.58125    72.7758   6   8   0.0501   0.1554   0.2040  -0.0201  -0.1171  -0.0178   0.00    0.0
2021/10/20 10:36:42.000   28 35 34.11635  -17 55 01.58114    72.7701   6   8   0.0500   0.1544   0.2030  -0.0201  -0.1163  -0.0175   0.00    0.0
2021/10/20 10:37:12.000   28 35 34.11635  -17 55 01.58077    72.7602   6   8   0.0498   0.1534   0.2022  -0.0202  -0.1156  -0.0172   0.00    0.0
2021/10/20 10:37:42.000   28 35 34.11639  -17 55 01.58056    72.7554   6   8   0.0496   0.1523   0.2010  -0.0202  -0.1147  -0.0169   0.00    0.0
2021/10/20 10:38:12.000   28 35 34.11641  -17 55 01.58042    72.7530   6   8   0.0493   0.1510   0.1989  -0.0201  -0.1137  -0.0164   0.00    0.0
2021/10/20 10:38:42.000   28 35 34.11639  -17 55 01.58024    72.7524   6   8   0.0485   0.1493   0.1950  -0.0199  -0.1123  -0.0155   0.00    0.0
2021/10/20 10:39:12.000   28 35 34.11624  -17 55 01.58092    72.7862   6   8   0.0464   0.1461   0.1855  -0.0193  -0.1101  -0.0136   0.00    0.0
2021/10/20 10:39:42.000   28 35 34.11606  -17 55 01.58273    72.8577   6   8   0.0403   0.1386   0.1652  -0.0173  -0.1062  -0.0123   0.00    0.0
2021/10/20 10:40:12.000   28 35 34.11611  -17 55 01.58319    72.8867   6   8   0.0392   0.1365   0.1604  -0.0170  -0.1047  -0.0112   0.00    0.0
2021/10/20 10:40:42.000   28 35 34.11609  -17 55 01.58308    72.8869   6   8   0.0389   0.1354   0.1585  -0.0170  -0.1038  -0.0106   0.00    0.0
2021/10/20 10:41:12.000   28 35 34.11608  -17 55 01.58295    72.8840   6   8   0.0387   0.1345   0.1574  -0.0170  -0.1030  -0.0103   0.00    0.0
2021/10/20 10:41:42.000   28 35 34.11611  -17 55 01.58293    72.8820   6   8   0.0386   0.1338   0.1566  -0.0170  -0.1024  -0.0101   0.00    0.0
2021/10/20 10:42:12.000   28 35 34.11612  -17 55 01.58311    72.8839   6   8   0.0385   0.1331   0.1560  -0.0170  -0.1018  -0.0099   0.00    0.0
2021/10/20 10:42:42.000   28 35 34.11613  -17 55 01.58307    72.8823   6   8   0.0384   0.1323   0.1551  -0.0170  -0.1012  -0.0096   0.00    0.0
2021/10/20 10:43:12.000   28 35 34.11613  -17 55 01.58322    72.8841   6   8   0.0381   0.1314   0.1537  -0.0170  -0.1003  -0.0092   0.00    0.0
2021/10/20 10:43:42.000   28 35 34.11615  -17 55 01.58337    72.8967   6   8   0.0377   0.1302   0.1509  -0.0169  -0.0991  -0.0084   0.00    0.0
2021/10/20 10:44:12.000   28 35 34.11605  -17 55 01.58386    72.9226   6   8   0.0364   0.1276   0.1445  -0.0166  -0.0969  -0.0065   0.00    0.0
2021/10/20 10:44:42.000   28 35 34.11585  -17 55 01.58552    72.9838   6   8   0.0323   0.1217   0.1306  -0.0156  -0.0928  -0.0046   0.00    0.0
2021/10/20 10:45:12.000   28 35 34.11586  -17 55 01.58586    73.0009   6   8   0.0315   0.1201   0.1271  -0.0155  -0.0915  -0.0026   0.00    0.0
2021/10/20 10:45:42.000   28 35 34.11587  -17 55 01.58577    73.0007   6   8   0.0313   0.1192   0.1258  -0.0154  -0.0908  -0.0011   0.00    0.0
2021/10/20 10:46:12.000   28 35 34.11590  -17 55 01.58566    73.0004   6   7   0.0312   0.1187   0.1250  -0.0154  -0.0903   0.0015   0.00    0.0
2021/10/20 10:46:42.000   28 35 34.11594  -17 55 01.58551    72.9989   6   7   0.0311   0.1182   0.1245  -0.0155  -0.0899   0.0021   0.00    0.0
2021/10/20 10:47:12.000   28 35 34.11597  -17 55 01.58528    72.9956   6   7   0.0310   0.1178   0.1241  -0.0155  -0.0895   0.0025   0.00    0.0
2021/10/20 10:47:42.000   28 35 34.11599  -17 55 01.58524    72.9964   6   7   0.0310   0.1173   0.1235  -0.0155  -0.0891   0.0030   0.00    0.0
2021/10/20 10:48:12.000   28 35 34.11600  -17 55 01.58528    72.9991   6   7   0.0308   0.1167   0.1226  -0.0155  -0.0885   0.0036   0.00    0.0
2021/10/20 10:48:42.000   28 35 34.11596  -17 55 01.58569    73.0139   6   7   0.0305   0.1158   0.1209  -0.0155  -0.0877   0.0046   0.00    0.0
2021/10/20 10:49:12.000   28 35 34.11589  -17 55 01.58629    73.0307   6   7   0.0296   0.1141   0.1168  -0.0154  -0.0862   0.0060   0.00    0.0
2021/10/20 10:49:42.000   28 35 34.11584  -17 55 01.58702    73.0570   6   7   0.0268   0.1097   0.1075  -0.0149  -0.0832   0.0069   0.00    0.0
2021/10/20 10:50:12.000   28 35 34.11590  -17 55 01.58688    73.0578   6   7   0.0263   0.1085   0.1051  -0.0149  -0.0822   0.0075   0.00    0.0
2021/10/20 10:50:42.000   28 35 34.11595  -17 55 01.58660    73.0547   6   7   0.0261   0.1079   0.1042  -0.0149  -0.0817   0.0077   0.00    0.0
2021/10/20 10:51:12.000   28 35 34.11596  -17 55 01.58639    73.0485   6   7   0.0260   0.1075   0.1037  -0.0149  -0.0814   0.0078   0.00    0.0
2021/10/20 10:51:42.000   28 35 34.11596  -17 55 01.58624    73.0439   6   7   0.0260   0.1072   0.1033  -0.0149  -0.0811   0.0079   0.00    0.0
2021/10/20 10:52:12.000   28 35 34.11596  -17 55 01.58615    73.0414   6   7   0.0259   0.1068   0.1030  -0.0149  -0.0808   0.0079   0.00    0.0
2021/10/20 10:52:42.000   28 35 34.11596  -17 55 01.58619    73.0405   6   7   0.0259   0.1065   0.1026  -0.0149  -0.0805   0.0080   0.00    0.0
2021/10/20 10:53:12.000   28 35 34.11595  -17 55 01.58591    73.0330   6   7   0.0258   0.1061   0.1020  -0.0149  -0.0802   0.0081   0.00    0.0
2021/10/20 10:53:42.000   28 35 34.11594  -17 55 01.58563    73.0214   6   7   0.0255   0.1055   0.1009  -0.0149  -0.0796   0.0084   0.00    0.0
2021/10/20 10:54:12.000   28 35 34.11597  -17 55 01.58490    72.9931   6   7   0.0249   0.1042   0.0982  -0.0149  -0.0786   0.0088   0.00    0.0
2021/10/20 10:54:42.000   28 35 34.11585  -17 55 01.58576    73.0235   6   7   0.0229   0.1010   0.0918  -0.0147  -0.0764   0.0093   0.00    0.0
2021/10/20 10:55:12.000   28 35 34.11581  -17 55 01.58588    73.0264   6   7   0.0224   0.1001   0.0901  -0.0146  -0.0756   0.0095   0.00    0.0
2021/10/20 10:55:42.000   28 35 34.11581  -17 55 01.58576    73.0233   6   7   0.0223   0.0997   0.0894  -0.0146  -0.0753   0.0096   0.00    0.0
2021/10/20 10:56:12.000   28 35 34.11581  -17 55 01.58567    73.0207   6   7   0.0223   0.0994   0.0890  -0.0146  -0.0750   0.0096   0.00    0.0
2021/10/20 10:56:42.000   28 35 34.11581  -17 55 01.58551    73.0181   6   7   0.0222   0.0991   0.0887  -0.0146  -0.0748   0.0097   0.00    0.0
2021/10/20 10:57:12.000   28 35 34.11582  -17 55 01.58538    73.0162   6   7   0.0222   0.0989   0.0885  -0.0146  -0.0746   0.0097   0.00    0.0
2021/10/20 10:57:42.000   28 35 34.11583  -17 55 01.58524    73.0146   6   8   0.0221   0.0986   0.0882  -0.0146  -0.0743   0.0097   0.00    0.0
2021/10/20 10:58:12.000   28 35 34.11585  -17 55 01.58517    73.0150   6   8   0.0221   0.0983   0.0878  -0.0146  -0.0740   0.0097   0.00    0.0
2021/10/20 10:58:42.000   28 35 34.11586  -17 55 01.58514    73.0168   6   8   0.0219   0.0978   0.0870  -0.0146  -0.0736   0.0098   0.00    0.0
2021/10/20 10:59:12.000   28 35 34.11582  -17 55 01.58521    73.0195   6   8   0.0215   0.0969   0.0851  -0.0146  -0.0729   0.0100   0.00    0.0
2021/10/20 10:59:42.000   28 35 34.11568  -17 55 01.58591    73.0372   6   8   0.0199   0.0945   0.0805  -0.0145  -0.0712   0.0103   0.00    0.0
2021/10/20 11:00:12.000   28 35 34.11551  -17 55 01.58606    73.0314   6   7   0.0196   0.0939   0.0796  -0.0145  -0.0707   0.0103   0.00    0.0
2021/10/20 11:00:42.000   28 35 34.11545  -17 55 01.58610    73.0305   6   7   0.0195   0.0935   0.0792  -0.0145  -0.0705   0.0104   0.00    0.0
2021/10/20 11:01:12.000   28 35 34.11544  -17 55 01.58606    73.0305   6   7   0.0195   0.0933   0.0790  -0.0145  -0.0703   0.0104   0.00    0.0
2021/10/20 11:01:42.000   28 35 34.11544  -17 55 01.58597    73.0294   6   7   0.0194   0.0931   0.0789  -0.0145  -0.0701   0.0104   0.00    0.0
2021/10/20 11:02:12.000   28 35 34.11544  -17 55 01.58591    73.0286   6   7   0.0194   0.0929   0.0788  -0.0144  -0.0700   0.0104   0.00    0.0
2021/10/20 11:02:42.000   28 35 34.11545  -17 55 01.58585    73.0279   6   7   0.0194   0.0927   0.0786  -0.0144  -0.0698   0.0104   0.00    0.0
2021/10/20 11:03:12.000   28 35 34.11547  -17 55 01.58580    73.0279   6   7   0.0193   0.0925   0.0784  -0.0144  -0.0696   0.0104   0.00    0.0
2021/10/20 11:03:42.000   28 35 34.11549  -17 55 01.58569    73.0272   6   7   0.0192   0.0922   0.0780  -0.0144  -0.0694   0.0104   0.00    0.0
2021/10/20 11:04:12.000   28 35 34.11550  -17 55 01.58549    73.0251   6   7   0.0188   0.0915   0.0770  -0.0144  -0.0689   0.0105   0.00    0.0
2021/10/20 11:04:42.000   28 35 34.11544  -17 55 01.58608    73.0447   6   7   0.0177   0.0897   0.0741  -0.0143  -0.0678   0.0107   0.00    0.0
2021/10/20 11:05:12.000   28 35 34.11548  -17 55 01.58608    73.0488   6   7   0.0174   0.0892   0.0734  -0.0143  -0.0674   0.0108   0.00    0.0
2021/10/20 11:05:42.000   28 35 34.11550  -17 55 01.58612    73.0515   6   7   0.0173   0.0890   0.0732  -0.0143  -0.0672   0.0108   0.00    0.0
2021/10/20 11:06:12.000   28 35 34.11551  -17 55 01.58606    73.0516   6   7   0.0173   0.0888   0.0730  -0.0143  -0.0670   0.0108   0.00    0.0
2021/10/20 11:06:42.000   28 35 34.11552  -17 55 01.58602    73.0517   6   7   0.0173   0.0886   0.0729  -0.0143  -0.0669   0.0108   0.00    0.0
2021/10/20 11:07:12.000   28 35 34.11553  -17 55 01.58604    73.0524   6   7   0.0173   0.0884   0.0728  -0.0143  -0.0668   0.0108   0.00    0.0
2021/10/20 11:07:42.000   28 35 34.11553  -17 55 01.58596    73.0513   6   7   0.0172   0.0883   0.0726  -0.0143  -0.0667   0.0108   0.00    0.0
2021/10/20 11:08:12.000   28 35 34.11553  -17 55 01.58594    73.0511   6   7   0.0172   0.0881   0.0725  -0.0143  -0.0665   0.0108   0.00    0.0
2021/10/20 11:08:42.000   28 35 34.11550  -17 55 01.58596    73.0513   6   7   0.0171   0.0878   0.0722  -0.0143  -0.0663   0.0108   0.00    0.0
2021/10/20 11:09:12.000   28 35 34.11544  -17 55 01.58607    73.0537   6   7   0.0168   0.0873   0.0714  -0.0143  -0.0659   0.0108   0.00    0.0
2021/10/20 11:09:42.000   28 35 34.11541  -17 55 01.58649    73.0674   6   7   0.0159   0.0859   0.0692  -0.0143  -0.0650   0.0111   0.00    0.0
2021/10/20 11:10:12.000   28 35 34.11546  -17 55 01.58644    73.0719   6   7   0.0157   0.0855   0.0686  -0.0143  -0.0647   0.0111   0.00    0.0
2021/10/20 11:10:42.000   28 35 34.11547  -17 55 01.58633    73.0737   6   7   0.0156   0.0853   0.0684  -0.0143  -0.0646   0.0111   0.00    0.0
2021/10/20 11:11:12.000   28 35 34.11548  -17 55 01.58626    73.0739   6   7   0.0156   0.0851   0.0683  -0.0143  -0.0644   0.0111   0.00    0.0
2021/10/20 11:11:42.000   28 35 34.11548  -17 55 01.58616    73.0728   6   7   0.0156   0.0850   0.0682  -0.0142  -0.0643   0.0111   0.00    0.0
2021/10/20 11:12:12.000   28 35 34.11548  -17 55 01.58604    73.0712   6   7   0.0156   0.0848   0.0681  -0.0142  -0.0642   0.0111   0.00    0.0
2021/10/20 11:12:42.000   28 35 34.11547  -17 55 01.58592    73.0695   6   7   0.0156   0.0847   0.0680  -0.0142  -0.0641   0.0111   0.00    0.0
2021/10/20 11:13:12.000   28 35 34.11546  -17 55 01.58583    73.0690   6   7   0.0155   0.0845   0.0678  -0.0142  -0.0640   0.0110   0.00    0.0
2021/10/20 11:13:42.000   28 35 34.11545  -17 55 01.58595    73.0722   6   7   0.0154   0.0843   0.0676  -0.0142  -0.0638   0.0110   0.00    0.0
2021/10/20 11:14:12.000   28 35 34.11539  -17 55 01.58617    73.0777   6   7   0.0152   0.0839   0.0670  -0.0142  -0.0635   0.0111   0.00    0.0
2021/10/20 11:14:42.000   28 35 34.11536  -17 55 01.58642    73.0825   6   7   0.0145   0.0829   0.0653  -0.0142  -0.0628   0.0113   0.00    0.0
2021/10/20 11:15:12.000   28 35 34.11540  -17 55 01.58630    73.0827   6   7   0.0143   0.0825   0.0649  -0.0142  -0.0626   0.0113   0.00    0.0
2021/10/20 11:15:42.000   28 35 34.11541  -17 55 01.58628    73.0835   6   7   0.0143   0.0823   0.0647  -0.0142  -0.0624   0.0113   0.00    0.0
2021/10/20 11:16:12.000   28 35 34.11541  -17 55 01.58623    73.0828   6   7   0.0143   0.0822   0.0646  -0.0142  -0.0623   0.0113   0.00    0.0
2021/10/20 11:16:42.000   28 35 34.11540  -17 55 01.58616    73.0815   6   7   0.0142   0.0821   0.0645  -0.0142  -0.0622   0.0113   0.00    0.0
2021/10/20 11:17:12.000   28 35 34.11540  -17 55 01.58606    73.0799   6   7   0.0142   0.0819   0.0644  -0.0142  -0.0621   0.0113   0.00    0.0
2021/10/20 11:17:42.000   28 35 34.11540  -17 55 01.58604    73.0797   6   7   0.0142   0.0818   0.0643  -0.0141  -0.0620   0.0113   0.00    0.0
2021/10/20 11:18:12.000   28 35 34.11539  -17 55 01.58606    73.0801   6   7   0.0142   0.0817   0.0642  -0.0141  -0.0619   0.0113   0.00    0.0
2021/10/20 11:18:42.000   28 35 34.11538  -17 55 01.58601    73.0791   6   8   0.0141   0.0814   0.0640  -0.0141  -0.0617   0.0112   0.00    0.0
2021/10/20 11:19:12.000   28 35 34.11537  -17 55 01.58591    73.0766   6   9   0.0139   0.0811   0.0636  -0.0141  -0.0615   0.0113   0.00    0.0
2021/10/20 11:19:42.000   28 35 34.11534  -17 55 01.58599    73.0772   6   9   0.0133   0.0802   0.0622  -0.0142  -0.0609   0.0115   0.00    0.0
2021/10/20 11:20:12.000   28 35 34.11532  -17 55 01.58590    73.0744   6   9   0.0132   0.0799   0.0619  -0.0142  -0.0607   0.0115   0.00    0.0
2021/10/20 11:20:42.000   28 35 34.11529  -17 55 01.58573    73.0700   6   9   0.0132   0.0797   0.0617  -0.0141  -0.0605   0.0115   0.00    0.0
2021/10/20 11:21:12.000   28 35 34.11527  -17 55 01.58557    73.0662   6   9   0.0131   0.0795   0.0616  -0.0141  -0.0604   0.0114   0.00    0.0
2021/10/20 11:21:42.000   28 35 34.11525  -17 55 01.58548    73.0644   6   9   0.0131   0.0794   0.0615  -0.0141  -0.0603   0.0114   0.00    0.0
2021/10/20 11:22:12.000   28 35 34.11525  -17 55 01.58548    73.0646   6   9   0.0131   0.0793   0.0615  -0.0141  -0.0602   0.0114   0.00    0.0
2021/10/20 11:22:42.000   28 35 34.11526  -17 55 01.58549    73.0652   6   9   0.0131   0.0791   0.0614  -0.0141  -0.0601   0.0114   0.00    0.0
2021/10/20 11:23:12.000   28 35 34.11527  -17 55 01.58547    73.0654   6   9   0.0131   0.0790   0.0613  -0.0140  -0.0600   0.0114   0.00    0.0
2021/10/20 11:23:42.000   28 35 34.11530  -17 55 01.58551    73.0670   6   9   0.0130   0.0788   0.0611  -0.0140  -0.0598   0.0114   0.00    0.0
2021/10/20 11:24:12.000   28 35 34.11529  -17 55 01.58534    73.0629   6   9   0.0129   0.0784   0.0607  -0.0140  -0.0596   0.0114   0.00    0.0
2021/10/20 11:24:42.000   28 35 34.11527  -17 55 01.58549    73.0658   6   9   0.0124   0.0776   0.0596  -0.0141  -0.0590   0.0115   0.00    0.0
2021/10/20 11:25:12.000   28 35 34.11527  -17 55 01.58552    73.0672   6   9   0.0123   0.0773   0.0592  -0.0140  -0.0588   0.0115   0.00    0.0
2021/10/20 11:25:42.000   28 35 34.11528  -17 55 01.58545    73.0670   6   9   0.0122   0.0771   0.0591  -0.0140  -0.0587   0.0115   0.00    0.0
2021/10/20 11:26:12.000   28 35 34.11529  -17 55 01.58538    73.0664   6   9   0.0122   0.0770   0.0590  -0.0140  -0.0586   0.0115   0.00    0.0
2021/10/20 11:26:42.000   28 35 34.11529  -17 55 01.58532    73.0658   6   9   0.0122   0.0769   0.0589  -0.0140  -0.0585   0.0115   0.00    0.0
2021/10/20 11:27:12.000   28 35 34.11529  -17 55 01.58531    73.0659   6   9   0.0122   0.0767   0.0589  -0.0139  -0.0584   0.0115   0.00    0.0
2021/10/20 11:27:42.000   28 35 34.11530  -17 55 01.58534    73.0666   6   9   0.0122   0.0766   0.0588  -0.0139  -0.0583   0.0114   0.00    0.0
2021/10/20 11:28:12.000   28 35 34.11530  -17 55 01.58532    73.0668   6   9   0.0122   0.0764   0.0587  -0.0139  -0.0581   0.0114   0.00    0.0
2021/10/20 11:28:42.000   28 35 34.11531  -17 55 01.58544    73.0696   6   9   0.0121   0.0762   0.0585  -0.0139  -0.0580   0.0114   0.00    0.0
2021/10/20 11:29:12.000   28 35 34.11533  -17 55 01.58550    73.0731   6   9   0.0120   0.0759   0.0581  -0.0138  -0.0577   0.0114   0.00    0.0
2021/10/20 11:29:42.000   28 35 34.11531  -17 55 01.58569    73.0809   6   9   0.0116   0.0750   0.0570  -0.0139  -0.0570   0.0115   0.00    0.0
2021/10/20 11:30:12.000   28 35 34.11529  -17 55 01.58600    73.0863   6   9   0.0115   0.0747   0.0567  -0.0138  -0.0568   0.0115   0.00    0.0
2021/10/20 11:30:42.000   28 35 34.11530  -17 55 01.58606    73.0889   6   9   0.0115   0.0745   0.0566  -0.0138  -0.0566   0.0115   0.00    0.0
2021/10/20 11:31:12.000   28 35 34.11531  -17 55 01.58610    73.0903   6   9   0.0115   0.0743   0.0565  -0.0138  -0.0565   0.0114   0.00    0.0
2021/10/20 11:31:42.000   28 35 34.11532  -17 55 01.58612    73.0909   6   9   0.0114   0.0742   0.0564  -0.0137  -0.0564   0.0114   0.00    0.0
2021/10/20 11:32:12.000   28 35 34.11532  -17 55 01.58608    73.0906   6   9   0.0114   0.0741   0.0563  -0.0137  -0.0563   0.0114   0.00    0.0
2021/10/20 11:32:42.000   28 35 34.11531  -17 55 01.58606    73.0902   6   9   0.0114   0.0740   0.0562  -0.0137  -0.0562   0.0114   0.00    0.0
2021/10/20 11:33:12.000   28 35 34.11531  -17 55 01.58601    73.0897   6   9   0.0114   0.0738   0.0561  -0.0137  -0.0561   0.0114   0.00    0.0
2021/10/20 11:33:42.000   28 35 34.11531  -17 55 01.58590    73.0882   6   9   0.0114   0.0736   0.0559  -0.0136  -0.0559   0.0113   0.00    0.0
2021/10/20 11:34:12.000   28 35 34.11532  -17 55 01.58597    73.0916   6   9   0.0113   0.0732   0.0555  -0.0136  -0.0555   0.0113   0.00    0.0
2021/10/20 11:34:42.000   28 35 34.11530  -17 55 01.58631    73.1021   6   9   0.0109   0.0721   0.0543  -0.0135  -0.0546   0.0113   0.00    0.0
2021/10/20 11:35:12.000   28 35 34.11528  -17 55 01.58618    73.0998   6   9   0.0108   0.0717   0.0540  -0.0135  -0.0543   0.0113   0.00    0.0
2021/10/20 11:35:42.000   28 35 34.11526  -17 55 01.58605    73.0978   6   9   0.0108   0.0715   0.0538  -0.0134  -0.0541   0.0112   0.00    0.0
2021/10/20 11:36:12.000   28 35 34.11525  -17 55 01.58594    73.0965   6   9   0.0108   0.0714   0.0537  -0.0134  -0.0540   0.0112   0.00    0.0
2021/10/20 11:36:42.000   28 35 34.11524  -17 55 01.58585    73.0953   6   9   0.0108   0.0713   0.0537  -0.0134  -0.0539   0.0112   0.00    0.0
2021/10/20 11:37:12.000   28 35 34.11523  -17 55 01.58573    73.0938   6   9   0.0108   0.0711   0.0536  -0.0134  -0.0538   0.0112   0.00    0.0
2021/10/20 11:37:42.000   28 35 34.11523  -17 55 01.58564    73.0926   6   9   0.0108   0.0710   0.0535  -0.0133  -0.0537   0.0112   0.00    0.0
2021/10/20 11:38:12.000   28 35 34.11521  -17 55 01.58548    73.0902   6   9   0.0107   0.0709   0.0534  -0.0133  -0.0536   0.0111   0.00    0.0
2021/10/20 11:38:42.000   28 35 34.11518  -17 55 01.58543    73.0896   6   9   0.0107   0.0706   0.0532  -0.0133  -0.0534   0.0111   0.00    0.0
2021/10/20 11:39:12.000   28 35 34.11513  -17 55 01.58568    73.0950   6   9   0.0106   0.0701   0.0527  -0.0132  -0.0529   0.0110   0.00    0.0
2021/10/20 11:39:42.000   28 35 34.11511  -17 55 01.58614    73.1057   6   9   0.0103   0.0688   0.0514  -0.0131  -0.0517   0.0110   0.00    0.0
2021/10/20 11:40:12.000   28 35 34.11513  -17 55 01.58625    73.1095   6   9   0.0103   0.0683   0.0510  -0.0130  -0.0513   0.0109   0.00    0.0
2021/10/20 11:40:42.000   28 35 34.11514  -17 55 01.58633    73.1119   6   9   0.0102   0.0681   0.0508  -0.0129  -0.0511   0.0109   0.00    0.0
2021/10/20 11:41:12.000   28 35 34.11515  -17 55 01.58632    73.1123   6   9   0.0102   0.0680   0.0507  -0.0129  -0.0510   0.0109   0.00    0.0
2021/10/20 11:41:42.000   28 35 34.11515  -17 55 01.58627    73.1119   6   9   0.0102   0.0679   0.0506  -0.0129  -0.0509   0.0108   0.00    0.0
2021/10/20 11:42:12.000   28 35 34.11515  -17 55 01.58625    73.1118   6   9   0.0102   0.0678   0.0505  -0.0129  -0.0508   0.0108   0.00    0.0
2021/10/20 11:42:42.000   28 35 34.11515  -17 55 01.58626    73.1122   6   9   0.0102   0.0676   0.0505  -0.0128  -0.0507   0.0108   0.00    0.0
2021/10/20 11:43:12.000   28 35 34.11515  -17 55 01.58630    73.1133   6   9   0.0102   0.0675   0.0503  -0.0128  -0.0506   0.0108   0.00    0.0
2021/10/20 11:43:42.000   28 35 34.11516  -17 55 01.58638    73.1151   6   9   0.0102   0.0672   0.0501  -0.0128  -0.0503   0.0107   0.00    0.0
2021/10/20 11:44:12.000   28 35 34.11514  -17 55 01.58633    73.1149   6   9   0.0101   0.0666   0.0496  -0.0127  -0.0498   0.0106   0.00    0.0
2021/10/20 11:44:42.000   28 35 34.11514  -17 55 01.58699    73.1287   6   9   0.0098   0.0651   0.0480  -0.0125  -0.0483   0.0105   0.00    0.0
2021/10/20 11:45:12.000   28 35 34.11517  -17 55 01.58724    73.1345   6   9   0.0098   0.0646   0.0476  -0.0124  -0.0478   0.0104   0.00    0.0
2021/10/20 11:45:42.000   28 35 34.11517  -17 55 01.58728    73.1356   6   9   0.0098   0.0643   0.0474  -0.0123  -0.0476   0.0104   0.00    0.0
2021/10/20 11:46:12.000   28 35 34.11517  -17 55 01.58731    73.1362   6   9   0.0097   0.0642   0.0473  -0.0123  -0.0475   0.0104   0.00    0.0
2021/10/20 11:46:42.000   28 35 34.11516  -17 55 01.58725    73.1355   6   9   0.0097   0.0641   0.0472  -0.0123  -0.0474   0.0104   0.00    0.0
2021/10/20 11:47:12.000   28 35 34.11516  -17 55 01.58722    73.1356   6   9   0.0097   0.0640   0.0472  -0.0123  -0.0473   0.0103   0.00    0.0
2021/10/20 11:47:42.000   28 35 34.11516  -17 55 01.58726    73.1364   6   9   0.0097   0.0639   0.0471  -0.0122  -0.0472   0.0103   0.00    0.0
2021/10/20 11:48:12.000   28 35 34.11516  -17 55 01.58730    73.1376   6   9   0.0097   0.0637   0.0470  -0.0122  -0.0471   0.0103   0.00    0.0
2021/10/20 11:48:42.000   28 35 34.11517  -17 55 01.58742    73.1408   6   9   0.0097   0.0635   0.0467  -0.0121  -0.0468   0.0102   0.00    0.0
2021/10/20 11:49:12.000   28 35 34.11518  -17 55 01.58767    73.1464   6   9   0.0096   0.0628   0.0461  -0.0120  -0.0461   0.0101   0.00    0.0
2021/10/20 11:49:42.000   28 35 34.11518  -17 55 01.58828    73.1579   6   9   0.0094   0.0610   0.0444  -0.0117  -0.0444   0.0099   0.00    0.0
2021/10/20 11:50:12.000   28 35 34.11518  -17 55 01.58843    73.1621   6   9   0.0093   0.0604   0.0439  -0.0116  -0.0438   0.0098   0.00    0.0
2021/10/20 11:50:42.000   28 35 34.11518  -17 55 01.58846    73.1635   6   9   0.0093   0.0602   0.0437  -0.0115  -0.0436   0.0097   0.00    0.0
2021/10/20 11:51:12.000   28 35 34.11518  -17 55 01.58844    73.1636   6   9   0.0093   0.0601   0.0436  -0.0115  -0.0435   0.0097   0.00    0.0
2021/10/20 11:51:42.000   28 35 34.11518  -17 55 01.58841    73.1634   6   9   0.0093   0.0600   0.0436  -0.0115  -0.0434   0.0097   0.00    0.0
2021/10/20 11:52:12.000   28 35 34.11518  -17 55 01.58839    73.1632   6   9   0.0093   0.0599   0.0435  -0.0115  -0.0433   0.0097   0.00    0.0
2021/10/20 11:52:42.000   28 35 34.11518  -17 55 01.58831    73.1624   6   9   0.0093   0.0598   0.0434  -0.0114  -0.0432   0.0096   0.00    0.0
2021/10/20 11:53:12.000   28 35 34.11518  -17 55 01.58831    73.1625   6   9   0.0093   0.0596   0.0433  -0.0114  -0.0431   0.0096   0.00    0.0
2021/10/20 11:53:42.000   28 35 34.11518  -17 55 01.58836    73.1642   6   9   0.0092   0.0593   0.0431  -0.0113  -0.0428   0.0095   0.00    0.0
2021/10/20 11:54:12.000   28 35 34.11520  -17 55 01.58852    73.1685   6   9   0.0092   0.0587   0.0424  -0.0112  -0.0421   0.0094   0.00    0.0
2021/10/20 11:54:42.000   28 35 34.11519  -17 55 01.58910    73.1802   6   9   0.0090   0.0567   0.0407  -0.0108  -0.0402   0.0091   0.00    0.0
2021/10/20 11:55:12.000   28 35 34.11520  -17 55 01.58923    73.1835   6   9   0.0089   0.0562   0.0402  -0.0107  -0.0396   0.0090   0.00    0.0
2021/10/20 11:55:42.000   28 35 34.11520  -17 55 01.58929    73.1846   6   9   0.0089   0.0560   0.0400  -0.0107  -0.0394   0.0090   0.00    0.0
2021/10/20 11:56:12.000   28 35 34.11520  -17 55 01.58935    73.1853   6   9   0.0089   0.0559   0.0399  -0.0106  -0.0393   0.0089   0.00    0.0
2021/10/20 11:56:42.000   28 35 34.11519  -17 55 01.58941    73.1860   6   9   0.0089   0.0558   0.0398  -0.0106  -0.0392   0.0089   0.00    0.0
2021/10/20 11:57:12.000   28 35 34.11519  -17 55 01.58942    73.1864   6   9   0.0089   0.0557   0.0398  -0.0106  -0.0391   0.0089   0.00    0.0
2021/10/20 11:57:42.000   28 35 34.11519  -17 55 01.58941    73.1865   6   9   0.0089   0.0556   0.0397  -0.0106  -0.0390   0.0089   0.00    0.0
2021/10/20 11:58:12.000   28 35 34.11519  -17 55 01.58939    73.1866   6   9   0.0089   0.0554   0.0396  -0.0105  -0.0389   0.0088   0.00    0.0
2021/10/20 11:58:42.000   28 35 34.11519  -17 55 01.58939    73.1878   6   9   0.0088   0.0552   0.0393  -0.0105  -0.0386   0.0088   0.00    0.0
2021/10/20 11:59:12.000   28 35 34.11520  -17 55 01.58956    73.1923   6   9   0.0088   0.0545   0.0387  -0.0103  -0.0379   0.0086   0.00    0.0
2021/10/20 11:59:42.000   28 35 34.11521  -17 55 01.59020    73.2050   6   9   0.0086   0.0526   0.0370  -0.0099  -0.0360   0.0083   0.00    0.0
2021/10/20 12:00:12.000   28 35 34.11522  -17 55 01.59047    73.2093   6   9   0.0085   0.0520   0.0365  -0.0098  -0.0354   0.0082   0.00    0.0
2021/10/20 12:00:42.000   28 35 34.11523  -17 55 01.59057    73.2114   6   9   0.0085   0.0518   0.0363  -0.0097  -0.0352   0.0081   0.00    0.0
2021/10/20 12:01:12.000   28 35 34.11524  -17 55 01.59061    73.2126   6   9   0.0085   0.0517   0.0362  -0.0097  -0.0351   0.0081   0.00    0.0
2021/10/20 12:01:42.000   28 35 34.11524  -17 55 01.59054    73.2123   6   9   0.0085   0.0516   0.0361  -0.0097  -0.0350   0.0081   0.00    0.0
2021/10/20 12:02:12.000   28 35 34.11524  -17 55 01.59051    73.2121   6   9   0.0085   0.0516   0.0361  -0.0096  -0.0349   0.0081   0.00    0.0
2021/10/20 12:02:42.000   28 35 34.11524  -17 55 01.59050    73.2122   6   9   0.0085   0.0515   0.0360  -0.0096  -0.0348   0.0080   0.00    0.0
2021/10/20 12:03:12.000   28 35 34.11524  -17 55 01.59052    73.2129   6   8   0.0085   0.0514   0.0359  -0.0096  -0.0347   0.0080   0.00    0.0
2021/10/20 12:03:42.000   28 35 34.11525  -17 55 01.59058    73.2146   6   8   0.0085   0.0511   0.0358  -0.0095  -0.0345   0.0080   0.00    0.0
2021/10/20 12:04:12.000   28 35 34.11526  -17 55 01.59075    73.2184   6   8   0.0084   0.0505   0.0353  -0.0094  -0.0339   0.0079   0.00    0.0
2021/10/20 12:04:42.000   28 35 34.11526  -17 55 01.59122    73.2278   6   8   0.0083   0.0488   0.0341  -0.0090  -0.0322   0.0077   0.00    0.0
2021/10/20 12:05:12.000   28 35 34.11527  -17 55 01.59125    73.2297   6   8   0.0082   0.0483   0.0337  -0.0089  -0.0317   0.0077   0.00    0.0
2021/10/20 12:05:42.000   28 35 34.11527  -17 55 01.59130    73.2310   6   8   0.0082   0.0481   0.0336  -0.0089  -0.0316   0.0076   0.00    0.0
2021/10/20 12:06:12.000   28 35 34.11527  -17 55 01.59137    73.2325   6   8   0.0082   0.0480   0.0336  -0.0089  -0.0315   0.0076   0.00    0.0
2021/10/20 12:06:42.000   28 35 34.11528  -17 55 01.59138    73.2332   6   8   0.0082   0.0480   0.0335  -0.0089  -0.0314   0.0076   0.00    0.0
2021/10/20 12:07:12.000   28 35 34.11528  -17 55 01.59136    73.2333   6   8   0.0082   0.0479   0.0335  -0.0089  -0.0314   0.0076   0.00    0.0
2021/10/20 12:07:42.000   28 35 34.11527  -17 55 01.59134    73.2334   6   8   0.0082   0.0478   0.0334  -0.0088  -0.0313   0.0076   0.00    0.0
2021/10/20 12:08:12.000   28 35 34.11527  -17 55 01.59129    73.2331   6   8   0.0082   0.0477   0.0334  -0.0088  -0.0312   0.0076   0.00    0.0
2021/10/20 12:08:42.000   28 35 34.11527  -17 55 01.59130    73.2340   6   8   0.0082   0.0475   0.0332  -0.0088  -0.0310   0.0075   0.00    0.0
2021/10/20 12:09:12.000   28 35 34.11526  -17 55 01.59145    73.2376   6   7   0.0081   0.0470   0.0329  -0.0086  -0.0305   0.0075   0.00    0.0
2021/10/20 12:09:42.000   28 35 34.11527  -17 55 01.59208    73.2497   6   7   0.0080   0.0453   0.0318  -0.0083  -0.0288   0.0073   0.00    0.0
2021/10/20 12:10:12.000   28 35 34.11526  -17 55 01.59232    73.2538   6   7   0.0079   0.0449   0.0315  -0.0082  -0.0284   0.0072   0.00    0.0
2021/10/20 12:10:42.000   28 35 34.11526  -17 55 01.59241    73.2552   6   7   0.0079   0.0447   0.0314  -0.0081  -0.0282   0.0072   0.00    0.0
2021/10/20 12:11:12.000   28 35 34.11525  -17 55 01.59240    73.2553   6   7   0.0079   0.0446   0.0313  -0.0081  -0.0281   0.0072   0.00    0.0
2021/10/20 12:11:42.000   28 35 34.11525  -17 55 01.59238    73.2553   6   7   0.0079   0.0446   0.0313  -0.0081  -0.0281   0.0072   0.00    0.0
2021/10/20 12:12:12.000   28 35 34.11525  -17 55 01.59234    73.2551   6   7   0.0079   0.0445   0.0313  -0.0081  -0.0280   0.0072   0.00    0.0
2021/10/20 12:12:42.000   28 35 34.11525  -17 55 01.59229    73.2549   6   7   0.0079   0.0445   0.0312  -0.0080  -0.0280   0.0072   0.00    0.0
2021/10/20 12:13:12.000   28 35 34.11525  -17 55 01.59229    73.2555   6   7   0.0079   0.0444   0.0312  -0.0080  -0.0279   0.0072   0.00    0.0
2021/10/20 12:13:42.000   28 35 34.11526  -17 55 01.59234    73.2573   6   7   0.0079   0.0442   0.0311  -0.0080  -0.0277   0.0071   0.00    0.0
2021/10/20 12:14:12.000   28 35 34.11528  -17 55 01.59252    73.2622   6   7   0.0078   0.0437   0.0307  -0.0079  -0.0272   0.0071   0.00    0.0
2021/10/20 12:14:42.000   28 35 34.11529  -17 55 01.59303    73.2712   6   7   0.0077   0.0422   0.0298  -0.0075  -0.0257   0.0069   0.00    0.0
2021/10/20 12:15:12.000   28 35 34.11529  -17 55 01.59317    73.2733   6   7   0.0077   0.0418   0.0296  -0.0074  -0.0253   0.0069   0.00    0.0
2021/10/20 12:15:42.000   28 35 34.11529  -17 55 01.59323    73.2747   6   7   0.0076   0.0416   0.0295  -0.0073  -0.0251   0.0069   0.00    0.0
2021/10/20 12:16:12.000   28 35 34.11530  -17 55 01.59326    73.2754   6   7   0.0076   0.0416   0.0294  -0.0073  -0.0250   0.0068   0.00    0.0
2021/10/20 12:16:42.000   28 35 34.11530  -17 55 01.59326    73.2758   6   7   0.0076   0.0415   0.0294  -0.0073  -0.0250   0.0068   0.00    0.0
2021/10/20 12:17:12.000   28 35 34.11530  -17 55 01.59328    73.2762   6   7   0.0076   0.0415   0.0294  -0.0073  -0.0250   0.0068   0.00    0.0
2021/10/20 12:17:42.000   28 35 34.11530  -17 55 01.59330    73.2768   6   7   0.0076   0.0414   0.0294  -0.0073  -0.0249   0.0068   0.00    0.0
2021/10/20 12:18:12.000   28 35 34.11530  -17 55 01.59331    73.2772   6   7   0.0076   0.0413   0.0293  -0.0073  -0.0248   0.0068   0.00    0.0
2021/10/20 12:18:42.000   28 35 34.11531  -17 55 01.59339    73.2788   6   7   0.0076   0.0412   0.0292  -0.0072  -0.0247   0.0068   0.00    0.0
2021/10/20 12:19:12.000   28 35 34.11532  -17 55 01.59363    73.2833   6   7   0.0076   0.0407   0.0290  -0.0071  -0.0242   0.0068   0.00    0.0
2021/10/20 12:19:42.000   28 35 34.11533  -17 55 01.59397    73.2896   6   7   0.0075   0.0393   0.0282  -0.0067  -0.0228   0.0067   0.00    0.0
2021/10/20 12:20:12.000   28 35 34.11533  -17 55 01.59409    73.2920   6   7   0.0074   0.0390   0.0280  -0.0066  -0.0224   0.0066   0.00    0.0
2021/10/20 12:20:42.000   28 35 34.11533  -17 55 01.59412    73.2932   6   7   0.0074   0.0389   0.0280  -0.0066  -0.0223   0.0066   0.00    0.0
2021/10/20 12:21:12.000   28 35 34.11533  -17 55 01.59412    73.2935   6   7   0.0074   0.0388   0.0279  -0.0066  -0.0222   0.0066   0.00    0.0
2021/10/20 12:21:42.000   28 35 34.11533  -17 55 01.59411    73.2937   6   7   0.0074   0.0388   0.0279  -0.0066  -0.0221   0.0066   0.00    0.0
2021/10/20 12:22:12.000   28 35 34.11532  -17 55 01.59408    73.2936   6   7   0.0074   0.0387   0.0279  -0.0066  -0.0221   0.0066   0.00    0.0
2021/10/20 12:22:42.000   28 35 34.11532  -17 55 01.59409    73.2940   6   7   0.0074   0.0387   0.0279  -0.0066  -0.0221   0.0066   0.00    0.0
2021/10/20 12:23:12.000   28 35 34.11532  -17 55 01.59412    73.2947   6   7   0.0074   0.0386   0.0278  -0.0065  -0.0220   0.0066   0.00    0.0
2021/10/20 12:23:42.000   28 35 34.11532  -17 55 01.59419    73.2964   6   7   0.0074   0.0384   0.0278  -0.0065  -0.0218   0.0066   0.00    0.0
2021/10/20 12:24:12.000   28 35 34.11532  -17 55 01.59436    73.2998   6   7   0.0074   0.0381   0.0275  -0.0064  -0.0214   0.0065   0.00    0.0
2021/10/20 12:24:42.000   28 35 34.11533  -17 55 01.59459    73.3042   6   7   0.0073   0.0369   0.0269  -0.0060  -0.0201   0.0064   0.00    0.0
2021/10/20 12:25:12.000   28 35 34.11534  -17 55 01.59468    73.3059   6   7   0.0072   0.0365   0.0268  -0.0059  -0.0198   0.0064   0.00    0.0
2021/10/20 12:25:42.000   28 35 34.11534  -17 55 01.59470    73.3064   6   7   0.0072   0.0364   0.0267  -0.0059  -0.0197   0.0064   0.00    0.0
2021/10/20 12:26:12.000   28 35 34.11534  -17 55 01.59469    73.3067   6   7   0.0072   0.0364   0.0267  -0.0059  -0.0196   0.0064   0.00    0.0
2021/10/20 12:26:42.000   28 35 34.11535  -17 55 01.59467    73.3068   6   7   0.0072   0.0363   0.0267  -0.0058  -0.0196   0.0064   0.00    0.0
2021/10/20 12:27:12.000   28 35 34.11534  -17 55 01.59464    73.3067   6   8   0.0072   0.0363   0.0266  -0.0058  -0.0195   0.0064   0.00    0.0
2021/10/20 12:27:42.000   28 35 34.11534  -17 55 01.59461    73.3065   6   8   0.0072   0.0363   0.0266  -0.0058  -0.0195   0.0064   0.00    0.0
2021/10/20 12:28:12.000   28 35 34.11534  -17 55 01.59459    73.3063   6   8   0.0072   0.0362   0.0266  -0.0058  -0.0194   0.0064   0.00    0.0
2021/10/20 12:28:42.000   28 35 34.11534  -17 55 01.59456    73.3064   6   8   0.0072   0.0361   0.0265  -0.0058  -0.0193   0.0063   0.00    0.0
2021/10/20 12:29:12.000   28 35 34.11534  -17 55 01.59466    73.3084   6   8   0.0072   0.0357   0.0264  -0.0057  -0.0189   0.0063   0.00    0.0
2021/10/20 12:29:42.000   28 35 34.11536  -17 55 01.59497    73.3135   6   8   0.0071   0.0346   0.0258  -0.0053  -0.0177   0.0062   0.00    0.0
2021/10/20 12:30:12.000   28 35 34.11535  -17 55 01.59498    73.3140   6   8   0.0070   0.0344   0.0257  -0.0052  -0.0174   0.0061   0.00    0.0
2021/10/20 12:30:42.000   28 35 34.11535  -17 55 01.59500    73.3146   6   8   0.0070   0.0343   0.0257  -0.0052  -0.0173   0.0061   0.00    0.0
2021/10/20 12:31:12.000   28 35 34.11535  -17 55 01.59500    73.3149   6   8   0.0070   0.0342   0.0257  -0.0051  -0.0172   0.0061   0.00    0.0
2021/10/20 12:31:42.000   28 35 34.11535  -17 55 01.59500    73.3151   6   8   0.0070   0.0342   0.0256  -0.0051  -0.0172   0.0061   0.00    0.0
2021/10/20 12:32:12.000   28 35 34.11535  -17 55 01.59499    73.3153   6   8   0.0070   0.0342   0.0256  -0.0051  -0.0171   0.0061   0.00    0.0
2021/10/20 12:32:42.000   28 35 34.11536  -17 55 01.59500    73.3156   6   8   0.0070   0.0341   0.0256  -0.0051  -0.0171   0.0061   0.00    0.0
2021/10/20 12:33:12.000   28 35 34.11536  -17 55 01.59502    73.3160   6   8   0.0070   0.0341   0.0256  -0.0051  -0.0170   0.0061   0.00    0.0
2021/10/20 12:33:42.000   28 35 34.11536  -17 55 01.59505    73.3165   6   8   0.0070   0.0339   0.0255  -0.0051  -0.0169   0.0061   0.00    0.0
2021/10/20 12:34:12.000   28 35 34.11536  -17 55 01.59517    73.3186   6   8   0.0070   0.0336   0.0254  -0.0049  -0.0166   0.0061   0.00    0.0
2021/10/20 12:34:42.000   28 35 34.11538  -17 55 01.59536    73.3217   6   8   0.0069   0.0327   0.0250  -0.0046  -0.0155   0.0059   0.00    0.0
2021/10/20 12:35:12.000   28 35 34.11538  -17 55 01.59544    73.3231   6   8   0.0069   0.0325   0.0249  -0.0045  -0.0152   0.0059   0.00    0.0
2021/10/20 12:35:42.000   28 35 34.11538  -17 55 01.59548    73.3238   6   8   0.0068   0.0324   0.0248  -0.0045  -0.0151   0.0059   0.00    0.0
2021/10/20 12:36:12.000   28 35 34.11539  -17 55 01.59548    73.3240   6   8   0.0068   0.0323   0.0248  -0.0044  -0.0150   0.0059   0.00    0.0
2021/10/20 12:36:42.000   28 35 34.11539  -17 55 01.59547    73.3241   6   8   0.0068   0.0323   0.0248  -0.0044  -0.0150   0.0059   0.00    0.0
2021/10/20 12:37:12.000   28 35 34.11539  -17 55 01.59546    73.3241   6   8   0.0068   0.0323   0.0248  -0.0044  -0.0150   0.0059   0.00    0.0
2021/10/20 12:37:42.000   28 35 34.11539  -17 55 01.59545    73.3242   6   8   0.0068   0.0322   0.0248  -0.0044  -0.0149   0.0059   0.00    0.0
2021/10/20 12:38:12.000   28 35 34.11539  -17 55 01.59546    73.3246   6   8   0.0068   0.0322   0.0248  -0.0044  -0.0149   0.0059   0.00    0.0
2021/10/20 12:38:42.000   28 35 34.11540  -17 55 01.59546    73.3248   6   8   0.0068   0.0321   0.0247  -0.0044  -0.0148   0.0059   0.00    0.0
2021/10/20 12:39:12.000   28 35 34.11540  -17 55 01.59546    73.3252   6   8   0.0068   0.0318   0.0246  -0.0042  -0.0144   0.0058   0.00    0.0
2021/10/20 12:39:42.000   28 35 34.11541  -17 55 01.59562    73.3279   6   8   0.0067   0.0309   0.0243  -0.0039  -0.0134   0.0057   0.00    0.0
2021/10/20 12:40:12.000   28 35 34.11541  -17 55 01.59559    73.3279   6   8   0.0067   0.0307   0.0242  -0.0038  -0.0132   0.0057   0.00    0.0
2021/10/20 12:40:42.000   28 35 34.11540  -17 55 01.59555    73.3277   6   8   0.0067   0.0306   0.0242  -0.0038  -0.0131   0.0056   0.00    0.0
2021/10/20 12:41:12.000   28 35 34.11540  -17 55 01.59557    73.3279   6   8   0.0067   0.0306   0.0242  -0.0037  -0.0130   0.0056   0.00    0.0
2021/10/20 12:41:42.000   28 35 34.11540  -17 55 01.59554    73.3278   6   8   0.0067   0.0306   0.0242  -0.0037  -0.0130   0.0056   0.00    0.0
2021/10/20 12:42:12.000   28 35 34.11540  -17 55 01.59552    73.3277   6   8   0.0067   0.0306   0.0242  -0.0037  -0.0130   0.0056   0.00    0.0
2021/10/20 12:42:42.000   28 35 34.11540  -17 55 01.59549    73.3276   6   8   0.0066   0.0305   0.0242  -0.0037  -0.0129   0.0056   0.00    0.0
2021/10/20 12:43:12.000   28 35 34.11540  -17 55 01.59547    73.3274   6   8   0.0066   0.0305   0.0241  -0.0037  -0.0129   0.0056   0.00    0.0
2021/10/20 12:43:42.000   28 35 34.11540  -17 55 01.59547    73.3277   6   8   0.0066   0.0304   0.0241  -0.0037  -0.0128   0.0056   0.00    0.0
2021/10/20 12:44:12.000   28 35 34.11541  -17 55 01.59555    73.3288   6   8   0.0066   0.0301   0.0240  -0.0036  -0.0125   0.0056   0.00    0.0
2021/10/20 12:44:42.000   28 35 34.11542  -17 55 01.59580    73.3323   6   8   0.0065   0.0294   0.0238  -0.0032  -0.0116   0.0054   0.00    0.0
2021/10/20 12:45:12.000   28 35 34.11543  -17 55 01.59588    73.3331   6   8   0.0065   0.0292   0.0237  -0.0031  -0.0114   0.0054   0.00    0.0
2021/10/20 12:45:42.000   28 35 34.11544  -17 55 01.59589    73.3334   6   8   0.0065   0.0291   0.0237  -0.0031  -0.0113   0.0054   0.00    0.0
2021/10/20 12:46:12.000   28 35 34.11544  -17 55 01.59588    73.3335   6   8   0.0065   0.0291   0.0237  -0.0031  -0.0112   0.0054   0.00    0.0
2021/10/20 12:46:42.000   28 35 34.11544  -17 55 01.59587    73.3336   6   8   0.0065   0.0291   0.0237  -0.0031  -0.0112   0.0054   0.00    0.0
2021/10/20 12:47:12.000   28 35 34.11544  -17 55 01.59587    73.3336   6   8   0.0065   0.0290   0.0237  -0.0031  -0.0112   0.0054   0.00    0.0
2021/10/20 12:47:42.000   28 35 34.11544  -17 55 01.59585    73.3337   6   7   0.0065   0.0290   0.0236  -0.0030  -0.0112   0.0054   0.00    0.0
2021/10/20 12:48:12.000   28 35 34.11544  -17 55 01.59584    73.3337   6   7   0.0065   0.0290   0.0236  -0.0030  -0.0111   0.0054   0.00    0.0
2021/10/20 12:48:42.000   28 35 34.11544  -17 55 01.59584    73.3340   6   7   0.0065   0.0289   0.0236  -0.0030  -0.0110   0.0054   0.00    0.0
2021/10/20 12:49:12.000   28 35 34.11545  -17 55 01.59589    73.3348   6   7   0.0064   0.0287   0.0235  -0.0029  -0.0108   0.0053   0.00    0.0
2021/10/20 12:49:42.000   28 35 34.11547  -17 55 01.59605    73.3370   6   7   0.0063   0.0280   0.0233  -0.0025  -0.0100   0.0052   0.00    0.0
2021/10/20 12:50:12.000   28 35 34.11548  -17 55 01.59613    73.3379   6   7   0.0063   0.0278   0.0233  -0.0024  -0.0098   0.0051   0.00    0.0
2021/10/20 12:50:42.000   28 35 34.11548  -17 55 01.59616    73.3384   6   7   0.0063   0.0278   0.0233  -0.0024  -0.0097   0.0051   0.00    0.0
2021/10/20 12:51:12.000   28 35 34.11548  -17 55 01.59617    73.3388   6   7   0.0063   0.0277   0.0233  -0.0024  -0.0097   0.0051   0.00    0.0
2021/10/20 12:51:42.000   28 35 34.11548  -17 55 01.59618    73.3391   6   7   0.0063   0.0277   0.0233  -0.0024  -0.0097   0.0051   0.00    0.0
2021/10/20 12:52:12.000   28 35 34.11548  -17 55 01.59618    73.3392   6   7   0.0063   0.0277   0.0233  -0.0024  -0.0097   0.0051   0.00    0.0
2021/10/20 12:52:42.000   28 35 34.11548  -17 55 01.59617    73.3393   6   8   0.0063   0.0277   0.0232  -0.0024  -0.0096   0.0051   0.00    0.0
2021/10/20 12:53:12.000   28 35 34.11548  -17 55 01.59619    73.3398   6   8   0.0063   0.0276   0.0232  -0.0024  -0.0096   0.0051   0.00    0.0
2021/10/20 12:53:42.000   28 35 34.11548  -17 55 01.59621    73.3404   6   8   0.0063   0.0275   0.0232  -0.0023  -0.0095   0.0051   0.00    0.0
2021/10/20 12:54:12.000   28 35 34.11549  -17 55 01.59623    73.3407   6   8   0.0063   0.0273   0.0232  -0.0022  -0.0093   0.0051   0.00    0.0
2021/10/20 12:54:42.000   28 35 34.11550  -17 55 01.59642    73.3422   6   8   0.0062   0.0267   0.0230  -0.0019  -0.0087   0.0049   0.00    0.0
2021/10/20 12:55:12.000   28 35 34.11551  -17 55 01.59647    73.3425   6   8   0.0061   0.0266   0.0230  -0.0018  -0.0085   0.0049   0.00    0.0
2021/10/20 12:55:42.000   28 35 34.11551  -17 55 01.59649    73.3429   6   8   0.0061   0.0265   0.0229  -0.0017  -0.0084   0.0049   0.00    0.0
2021/10/20 12:56:12.000   28 35 34.11551  -17 55 01.59650    73.3432   6   8   0.0061   0.0265   0.0229  -0.0017  -0.0084   0.0049   0.00    0.0
2021/10/20 12:56:42.000   28 35 34.11551  -17 55 01.59649    73.3432   6   8   0.0061   0.0265   0.0229  -0.0017  -0.0084   0.0049   0.00    0.0
2021/10/20 12:57:12.000   28 35 34.11551  -17 55 01.59648    73.3432   6   8   0.0061   0.0264   0.0229  -0.0017  -0.0084   0.0049   0.00    0.0
2021/10/20 12:57:42.000   28 35 34.11551  -17 55 01.59648    73.3433   6   8   0.0061   0.0264   0.0229  -0.0017  -0.0084   0.0049   0.00    0.0
2021/10/20 12:58:12.000   28 35 34.11551  -17 55 01.59648    73.3434   6   8   0.0061   0.0264   0.0229  -0.0017  -0.0083   0.0048   0.00    0.0
2021/10/20 12:58:42.000   28 35 34.11551  -17 55 01.59648    73.3437   6   8   0.0061   0.0263   0.0229  -0.0016  -0.0083   0.0048   0.00    0.0
2021/10/20 12:59:12.000   28 35 34.11552  -17 55 01.59653    73.3442   6   8   0.0061   0.0261   0.0228  -0.0015  -0.0081   0.0048   0.00    0.0
2021/10/20 12:59:42.000   28 35 34.11552  -17 55 01.59670    73.3446   6   8   0.0060   0.0256   0.0227  -0.0011  -0.0076   0.0046   0.00    0.0
2021/10/20 13:00:12.000   28 35 34.11553  -17 55 01.59677    73.3448   6   8   0.0060   0.0254   0.0226  -0.0009  -0.0074   0.0046   0.00    0.0
2021/10/20 13:00:42.000   28 35 34.11553  -17 55 01.59678    73.3446   6   8   0.0060   0.0254   0.0226  -0.0009  -0.0074   0.0046   0.00    0.0
2021/10/20 13:01:12.000   28 35 34.11553  -17 55 01.59678    73.3445   6   8   0.0060   0.0253   0.0226  -0.0009  -0.0074   0.0046   0.00    0.0
2021/10/20 13:01:42.000   28 35 34.11553  -17 55 01.59677    73.3444   6   8   0.0060   0.0253   0.0226  -0.0008  -0.0074   0.0046   0.00    0.0
2021/10/20 13:02:12.000   28 35 34.11553  -17 55 01.59677    73.3443   6   8   0.0060   0.0253   0.0226  -0.0008  -0.0074   0.0046   0.00    0.0
2021/10/20 13:02:42.000   28 35 34.11553  -17 55 01.59675    73.3443   6   8   0.0060   0.0253   0.0226  -0.0008  -0.0073   0.0046   0.00    0.0
2021/10/20 13:03:12.000   28 35 34.11553  -17 55 01.59678    73.3446   6   8   0.0060   0.0252   0.0226  -0.0008  -0.0073   0.0046   0.00    0.0
2021/10/20 13:03:42.000   28 35 34.11553  -17 55 01.59680    73.3449   6   8   0.0059   0.0252   0.0226  -0.0007  -0.0073   0.0045   0.00    0.0
2021/10/20 13:04:12.000   28 35 34.11554  -17 55 01.59689    73.3456   6   8   0.0059   0.0250   0.0225  -0.0005  -0.0071   0.0045   0.00    0.0
2021/10/20 13:04:42.000   28 35 34.11554  -17 55 01.59705    73.3464   6   8   0.0058   0.0245   0.0224   0.0008  -0.0068   0.0043   0.00    0.0
2021/10/20 13:05:12.000   28 35 34.11554  -17 55 01.59708    73.3463   6   8   0.0058   0.0243   0.0223   0.0009  -0.0067   0.0043   0.00    0.0
2021/10/20 13:05:42.000   28 35 34.11555  -17 55 01.59709    73.3462   6   8   0.0058   0.0243   0.0223   0.0010  -0.0066   0.0043   0.00    0.0
2021/10/20 13:06:12.000   28 35 34.11555  -17 55 01.59709    73.3461   6   8   0.0058   0.0242   0.0223   0.0010  -0.0066   0.0043   0.00    0.0
2021/10/20 13:06:42.000   28 35 34.11555  -17 55 01.59709    73.3461   6   8   0.0058   0.0242   0.0223   0.0010  -0.0066   0.0043   0.00    0.0
2021/10/20 13:07:12.000   28 35 34.11555  -17 55 01.59709    73.3461   6   8   0.0058   0.0242   0.0223   0.0010  -0.0066   0.0043   0.00    0.0
2021/10/20 13:07:42.000   28 35 34.11555  -17 55 01.59709    73.3463   6   8   0.0058   0.0242   0.0223   0.0010  -0.0066   0.0043   0.00    0.0
2021/10/20 13:08:12.000   28 35 34.11555  -17 55 01.59710    73.3464   6   8   0.0058   0.0242   0.0223   0.0010  -0.0066   0.0043   0.00    0.0
2021/10/20 13:08:42.000   28 35 34.11555  -17 55 01.59715    73.3465   6   8   0.0058   0.0241   0.0222   0.0011  -0.0065   0.0042   0.00    0.0
2021/10/20 13:09:12.000   28 35 34.11556  -17 55 01.59729    73.3470   6   8   0.0058   0.0239   0.0222   0.0012  -0.0065   0.0042   0.00    0.0
2021/10/20 13:09:42.000   28 35 34.11556  -17 55 01.59745    73.3476   6   8   0.0057   0.0234   0.0220   0.0014  -0.0062   0.0040   0.00    0.0
2021/10/20 13:10:12.000   28 35 34.11556  -17 55 01.59748    73.3485   6   8   0.0057   0.0233   0.0219   0.0015  -0.0061   0.0040   0.00    0.0
2021/10/20 13:10:42.000   28 35 34.11555  -17 55 01.59749    73.3491   6   8   0.0056   0.0233   0.0219   0.0015  -0.0061   0.0040   0.00    0.0
2021/10/20 13:11:12.000   28 35 34.11555  -17 55 01.59749    73.3494   6   8   0.0056   0.0232   0.0219   0.0015  -0.0061   0.0040   0.00    0.0
2021/10/20 13:11:42.000   28 35 34.11555  -17 55 01.59748    73.3495   6   8   0.0056   0.0232   0.0219   0.0015  -0.0061   0.0040   0.00    0.0
2021/10/20 13:12:12.000   28 35 34.11555  -17 55 01.59747    73.3495   6   8   0.0056   0.0232   0.0219   0.0015  -0.0061   0.0040   0.00    0.0
2021/10/20 13:12:42.000   28 35 34.11555  -17 55 01.59746    73.3495   6   8   0.0056   0.0232   0.0219   0.0015  -0.0061   0.0040   0.00    0.0
2021/10/20 13:13:12.000   28 35 34.11555  -17 55 01.59746    73.3497   6   8   0.0056   0.0232   0.0219   0.0015  -0.0061   0.0040   0.00    0.0
2021/10/20 13:13:42.000   28 35 34.11555  -17 55 01.59747    73.3499   6   8   0.0056   0.0231   0.0219   0.0015  -0.0061   0.0039   0.00    0.0
2021/10/20 13:14:12.000   28 35 34.11554  -17 55 01.59753    73.3501   6   8   0.0056   0.0230   0.0218   0.0016  -0.0060   0.0039   0.00    0.0
2021/10/20 13:14:42.000   28 35 34.11554  -17 55 01.59767    73.3491   6   8   0.0055   0.0225   0.0216   0.0017  -0.0059   0.0037   0.00    0.0
2021/10/20 13:15:12.000   28 35 34.11554  -17 55 01.59769    73.3493   6   8   0.0055   0.0224   0.0215   0.0018  -0.0059   0.0037   0.00    0.0
2021/10/20 13:15:42.000   28 35 34.11554  -17 55 01.59768    73.3494   6   8   0.0055   0.0223   0.0215   0.0018  -0.0059   0.0037   0.00    0.0
2021/10/20 13:16:12.000   28 35 34.11554  -17 55 01.59769    73.3494   6   8   0.0055   0.0223   0.0215   0.0018  -0.0059   0.0037   0.00    0.0
2021/10/20 13:16:42.000   28 35 34.11554  -17 55 01.59769    73.3494   6   8   0.0055   0.0223   0.0215   0.0018  -0.0058   0.0037   0.00    0.0
2021/10/20 13:17:12.000   28 35 34.11554  -17 55 01.59769    73.3495   6   8   0.0055   0.0223   0.0215   0.0018  -0.0058   0.0037   0.00    0.0
2021/10/20 13:17:42.000   28 35 34.11554  -17 55 01.59770    73.3498   6   8   0.0055   0.0222   0.0215   0.0018  -0.0058   0.0037   0.00    0.0
2021/10/20 13:18:12.000   28 35 34.11553  -17 55 01.59772    73.3502   6   8   0.0055   0.0222   0.0215   0.0018  -0.0058   0.0037   0.00    0.0
2021/10/20 13:18:42.000   28 35 34.11553  -17 55 01.59770    73.3504   6   8   0.0055   0.0222   0.0215   0.0018  -0.0058   0.0036   0.00    0.0
2021/10/20 13:19:12.000   28 35 34.11552  -17 55 01.59767    73.3510   6   8   0.0055   0.0220   0.0214   0.0018  -0.0058   0.0036   0.00    0.0
2021/10/20 13:19:42.000   28 35 34.11553  -17 55 01.59779    73.3493   6   8   0.0054   0.0216   0.0212   0.0019  -0.0058   0.0034   0.00    0.0
2021/10/20 13:20:12.000   28 35 34.11553  -17 55 01.59787    73.3486   6   8   0.0054   0.0215   0.0211   0.0019  -0.0058   0.0034   0.00    0.0
2021/10/20 13:20:42.000   28 35 34.11554  -17 55 01.59790    73.3485   6   8   0.0054   0.0214   0.0211   0.0019  -0.0058   0.0034   0.00    0.0
2021/10/20 13:21:12.000   28 35 34.11554  -17 55 01.59793    73.3484   6   8   0.0054   0.0214   0.0211   0.0019  -0.0058   0.0034   0.00    0.0
2021/10/20 13:21:42.000   28 35 34.11554  -17 55 01.59794    73.3483   6   8   0.0054   0.0214   0.0211   0.0019  -0.0058   0.0034   0.00    0.0
2021/10/20 13:22:12.000   28 35 34.11554  -17 55 01.59795    73.3482   6   8   0.0054   0.0214   0.0210   0.0019  -0.0058   0.0034   0.00    0.0
2021/10/20 13:22:42.000   28 35 34.11554  -17 55 01.59795    73.3480   6   8   0.0054   0.0213   0.0210   0.0019  -0.0058   0.0034   0.00    0.0
2021/10/20 13:23:12.000   28 35 34.11553  -17 55 01.59796    73.3475   6   8   0.0054   0.0213   0.0210   0.0019  -0.0058   0.0034   0.00    0.0
2021/10/20 13:23:42.000   28 35 34.11553  -17 55 01.59796    73.3470   6   8   0.0053   0.0213   0.0210   0.0020  -0.0058   0.0033   0.00    0.0
2021/10/20 13:24:12.000   28 35 34.11552  -17 55 01.59796    73.3463   6   8   0.0053   0.0212   0.0209   0.0020  -0.0058   0.0033   0.00    0.0
2021/10/20 13:24:42.000   28 35 34.11553  -17 55 01.59809    73.3447   6   8   0.0052   0.0207   0.0207   0.0020  -0.0058   0.0031   0.00    0.0
2021/10/20 13:25:12.000   28 35 34.11553  -17 55 01.59810    73.3436   6   8   0.0052   0.0206   0.0206   0.0020  -0.0058   0.0031   0.00    0.0
2021/10/20 13:25:42.000   28 35 34.11553  -17 55 01.59808    73.3431   6   8   0.0052   0.0206   0.0206   0.0020  -0.0058   0.0031   0.00    0.0
2021/10/20 13:26:12.000   28 35 34.11553  -17 55 01.59807    73.3428   6   8   0.0052   0.0206   0.0206   0.0021  -0.0058   0.0031   0.00    0.0
2021/10/20 13:26:42.000   28 35 34.11553  -17 55 01.59806    73.3427   6   8   0.0052   0.0205   0.0206   0.0021  -0.0058   0.0031   0.00    0.0
2021/10/20 13:27:12.000   28 35 34.11553  -17 55 01.59807    73.3427   6   8   0.0052   0.0205   0.0206   0.0021  -0.0058   0.0031   0.00    0.0
2021/10/20 13:27:42.000   28 35 34.11553  -17 55 01.59807    73.3427   6   8   0.0052   0.0205   0.0205   0.0021  -0.0058   0.0031   0.00    0.0
2021/10/20 13:28:12.000   28 35 34.11553  -17 55 01.59808    73.3427   6   8   0.0052   0.0205   0.0205   0.0021  -0.0058   0.0031   0.00    0.0
2021/10/20 13:28:42.000   28 35 34.11553  -17 55 01.59811    73.3428   6   8   0.0052   0.0204   0.0205   0.0021  -0.0058   0.0030   0.00    0.0
2021/10/20 13:29:12.000   28 35 34.11553  -17 55 01.59818    73.3427   6   8   0.0052   0.0203   0.0204   0.0021  -0.0058   0.0030   0.00    0.0
2021/10/20 13:29:42.000   28 35 34.11554  -17 55 01.59832    73.3410   6   8   0.0051   0.0199   0.0202   0.0021  -0.0059   0.0028   0.00    0.0
2021/10/20 13:30:12.000   28 35 34.11553  -17 55 01.59839    73.3406   6   8   0.0051   0.0198   0.0201   0.0021  -0.0059   0.0028   0.00    0.0
2021/10/20 13:30:42.000   28 35 34.11553  -17 55 01.59840    73.3402   6   8   0.0051   0.0198   0.0201   0.0021  -0.0059   0.0028   0.00    0.0
2021/10/20 13:31:12.000   28 35 34.11553  -17 55 01.59839    73.3399   6   8   0.0051   0.0198   0.0200   0.0021  -0.0059   0.0028   0.00    0.0
2021/10/20 13:31:42.000   28 35 34.11553  -17 55 01.59839    73.3397   6   8   0.0051   0.0198   0.0200   0.0021  -0.0059   0.0028   0.00    0.0
2021/10/20 13:32:12.000   28 35 34.11553  -17 55 01.59838    73.3395   6   8   0.0051   0.0197   0.0200   0.0021  -0.0059   0.0028   0.00    0.0
2021/10/20 13:32:42.000   28 35 34.11553  -17 55 01.59838    73.3394   6   8   0.0051   0.0197   0.0200   0.0021  -0.0059   0.0028   0.00    0.0
2021/10/20 13:33:12.000   28 35 34.11553  -17 55 01.59835    73.3392   6   8   0.0051   0.0197   0.0200   0.0021  -0.0059   0.0028   0.00    0.0
2021/10/20 13:33:42.000   28 35 34.11553  -17 55 01.59837    73.3390   6   8   0.0051   0.0197   0.0200   0.0021  -0.0059   0.0028   0.00    0.0
2021/10/20 13:34:12.000   28 35 34.11553  -17 55 01.59842    73.3385   6   8   0.0051   0.0196   0.0199   0.0022  -0.0060   0.0027   0.00    0.0
2021/10/20 13:34:42.000   28 35 34.11553  -17 55 01.59851    73.3387   6   8   0.0050   0.0192   0.0196   0.0022  -0.0061   0.0026   0.00    0.0
2021/10/20 13:35:12.000   28 35 34.11554  -17 55 01.59848    73.3376   6   8   0.0050   0.0191   0.0195   0.0022  -0.0061   0.0025   0.00    0.0
2021/10/20 13:35:42.000   28 35 34.11554  -17 55 01.59848    73.3370   6   8   0.0050   0.0191   0.0195   0.0022  -0.0061   0.0025   0.00    0.0
2021/10/20 13:36:12.000   28 35 34.11554  -17 55 01.59848    73.3368   6   8   0.0050   0.0190   0.0195   0.0022  -0.0061   0.0025   0.00    0.0
2021/10/20 13:36:42.000   28 35 34.11554  -17 55 01.59848    73.3366   6   8   0.0050   0.0190   0.0195   0.0022  -0.0061   0.0025   0.00    0.0
2021/10/20 13:37:12.000   28 35 34.11554  -17 55 01.59847    73.3365   6   7   0.0050   0.0190   0.0195   0.0022  -0.0061   0.0025   0.00    0.0
