% program   : RTKLIB ver.2.4.2
% inp file  : C:\IPNA\data\OBS\CVBB2880.o
% inp file  : C:\IPNA\data\NAV\CVBB2880.n
% inp file  : C:\IPNA\data\SP3\CVBB2880.sp3
% inp file  : C:\IPNA\data\CLOCK\CVBB2880.clk
% obs start : 2021/10/14 23:59:42.0 UTC (week2179 432000.0s)
% obs end   : 2021/10/15 23:59:12.0 UTC (week2179 518370.0s)
% pos mode  : ppp-static
% solution  : forward
% elev mask : 15.0 deg
% dynamics  : off
% tidecorr  : on
% tropo opt : est ztd
% ephemeris : precise
% antenna1  :                       ( 0.0000  0.0000  0.0000)
%
% (lat/lon/height=WGS84/ellipsoidal,Q=1:fix,2:float,3:sbas,4:dgps,5:single,6:ppp,ns=# of satellites)
%  UTC                     latitude(d'")   longitude(d'")  height(m)   Q  ns   sdn(m)   sde(m)   sdu(m)  sdne(m)  sdeu(m)  sdue(m) age(s)  ratio
2021/10/14 23:59:42.000   28 35 34.06354  -17 55 01.58408    76.6280   6   6   1.6320   1.5103   5.0215  -0.5372   1.4300  -2.0382   0.00    0.0
2021/10/15 00:00:12.000   28 35 34.05940  -17 55 01.57854    76.8978   6   6   1.1237   1.0613   3.2803  -0.3406   0.9254  -1.3314   0.00    0.0
2021/10/15 00:00:42.000   28 35 34.06081  -17 55 01.58509    76.6464   6   6   0.9061   0.8646   2.5778  -0.2623   0.7233  -1.0454   0.00    0.0
2021/10/15 00:01:12.000   28 35 34.06606  -17 55 01.58425    76.2396   6   6   0.7788   0.7481   2.1814  -0.2183   0.6099  -0.8832   0.00    0.0
2021/10/15 00:01:42.000   28 35 34.07130  -17 55 01.58623    75.8901   6   6   0.6929   0.6690   1.9209  -0.1893   0.5356  -0.7759   0.00    0.0
2021/10/15 00:02:12.000   28 35 34.07597  -17 55 01.59158    75.4691   6   6   0.6302   0.6108   1.7339  -0.1685   0.4823  -0.6986   0.00    0.0
2021/10/15 00:02:42.000   28 35 34.08372  -17 55 01.59343    75.1715   6   6   0.5756   0.5642   1.5420  -0.1449   0.4252  -0.6200   0.00    0.0
2021/10/15 00:03:12.000   28 35 34.08978  -17 55 01.59668    74.5507   6   6   0.5232   0.5249   1.3275  -0.1153   0.3581  -0.5323   0.00    0.0
2021/10/15 00:03:42.000   28 35 34.09655  -17 55 01.60045    73.8455   6   6   0.4661   0.4902   1.0766  -0.0729   0.2743  -0.4275   0.00    0.0
2021/10/15 00:04:12.000   28 35 34.10295  -17 55 01.60140    73.2530   6   6   0.3926   0.4578   0.7973   0.0429   0.1689  -0.2982   0.00    0.0
2021/10/15 00:04:42.000   28 35 34.10371  -17 55 01.60274    73.1935   6   6   0.3118   0.4269   0.5921   0.0688   0.0565  -0.1736   0.00    0.0
2021/10/15 00:05:12.000   28 35 34.10653  -17 55 01.60499    73.0260   6   6   0.2944   0.4080   0.5621   0.0681   0.0429  -0.1566   0.00    0.0
2021/10/15 00:05:42.000   28 35 34.10610  -17 55 01.60483    73.0252   6   6   0.2849   0.3926   0.5498   0.0660   0.0460  -0.1505   0.00    0.0
2021/10/15 00:06:12.000   28 35 34.10538  -17 55 01.60416    73.0338   6   6   0.2777   0.3791   0.5420   0.0638   0.0513  -0.1469   0.00    0.0
2021/10/15 00:06:42.000   28 35 34.10523  -17 55 01.60342    73.0520   6   6   0.2716   0.3670   0.5359   0.0617   0.0564  -0.1444   0.00    0.0
2021/10/15 00:07:12.000   28 35 34.10466  -17 55 01.60276    73.1018   6   6   0.2662   0.3562   0.5309   0.0598   0.0609  -0.1424   0.00    0.0
2021/10/15 00:07:42.000   28 35 34.10406  -17 55 01.60324    73.1348   6   6   0.2601   0.3461   0.5236   0.0584   0.0626  -0.1386   0.00    0.0
2021/10/15 00:08:12.000   28 35 34.10400  -17 55 01.60320    73.1532   6   6   0.2524   0.3364   0.5120   0.0576   0.0603  -0.1314   0.00    0.0
2021/10/15 00:08:42.000   28 35 34.10416  -17 55 01.60405    73.1775   6   6   0.2408   0.3266   0.4910   0.0579   0.0498  -0.1154   0.00    0.0
2021/10/15 00:09:12.000   28 35 34.10768  -17 55 01.60555    73.0357   6   6   0.2182   0.3147   0.4498   0.0595  -0.0172  -0.0705   0.00    0.0
2021/10/15 00:09:42.000   28 35 34.10877  -17 55 01.60567    73.0614   6   6   0.1807   0.2973   0.3960   0.0569  -0.0601   0.0764   0.00    0.0
2021/10/15 00:10:12.000   28 35 34.10852  -17 55 01.60571    73.1098   6   6   0.1734   0.2891   0.3855   0.0563  -0.0607   0.0846   0.00    0.0
2021/10/15 00:10:42.000   28 35 34.10851  -17 55 01.60578    73.1244   6   6   0.1702   0.2830   0.3814   0.0556  -0.0587   0.0863   0.00    0.0
2021/10/15 00:11:12.000   28 35 34.10827  -17 55 01.60612    73.1346   6   6   0.1680   0.2776   0.3790   0.0549  -0.0562   0.0867   0.00    0.0
2021/10/15 00:11:42.000   28 35 34.10809  -17 55 01.60649    73.1431   6   6   0.1663   0.2727   0.3772   0.0542  -0.0536   0.0866   0.00    0.0
2021/10/15 00:12:12.000   28 35 34.10804  -17 55 01.60631    73.1512   6   6   0.1648   0.2681   0.3757   0.0536  -0.0509   0.0863   0.00    0.0
2021/10/15 00:12:42.000   28 35 34.10779  -17 55 01.60613    73.1501   6   6   0.1630   0.2636   0.3737   0.0530  -0.0484   0.0866   0.00    0.0
2021/10/15 00:13:12.000   28 35 34.10784  -17 55 01.60668    73.1284   6   6   0.1604   0.2590   0.3704   0.0525  -0.0465   0.0878   0.00    0.0
2021/10/15 00:13:42.000   28 35 34.10792  -17 55 01.60739    73.1096   6   6   0.1562   0.2538   0.3643   0.0522  -0.0455   0.0912   0.00    0.0
2021/10/15 00:14:12.000   28 35 34.10874  -17 55 01.60752    73.0750   6   6   0.1466   0.2461   0.3501   0.0519  -0.0462   0.0990   0.00    0.0
2021/10/15 00:14:42.000   28 35 34.11060  -17 55 01.60700    73.0844   6   6   0.1264   0.2316   0.3244   0.0479  -0.0487   0.1075   0.00    0.0
2021/10/15 00:15:12.000   28 35 34.11162  -17 55 01.60647    73.0321   6   6   0.1224   0.2263   0.3169   0.0477  -0.0469   0.1084   0.00    0.0
2021/10/15 00:15:42.000   28 35 34.11175  -17 55 01.60631    73.0177   6   6   0.1208   0.2229   0.3140   0.0474  -0.0451   0.1083   0.00    0.0
2021/10/15 00:16:12.000   28 35 34.11177  -17 55 01.60591    73.0136   6   6   0.1199   0.2200   0.3123   0.0471  -0.0434   0.1080   0.00    0.0
2021/10/15 00:16:42.000   28 35 34.11172  -17 55 01.60579    73.0111   6   6   0.1191   0.2175   0.3111   0.0468  -0.0417   0.1077   0.00    0.0
2021/10/15 00:17:12.000   28 35 34.11167  -17 55 01.60566    73.0050   6   6   0.1185   0.2151   0.3101   0.0465  -0.0400   0.1073   0.00    0.0
2021/10/15 00:17:42.000   28 35 34.11160  -17 55 01.60579    72.9879   6   6   0.1177   0.2127   0.3088   0.0463  -0.0383   0.1070   0.00    0.0
2021/10/15 00:18:12.000   28 35 34.11171  -17 55 01.60593    72.9758   6   6   0.1165   0.2100   0.3065   0.0461  -0.0363   0.1067   0.00    0.0
2021/10/15 00:18:42.000   28 35 34.11197  -17 55 01.60618    72.9441   6   7   0.1143   0.2063   0.3021   0.0461  -0.0330   0.1064   0.00    0.0
2021/10/15 00:19:12.000   28 35 34.11243  -17 55 01.60672    72.9228   6   7   0.1090   0.2002   0.2909   0.0459  -0.0281   0.1055   0.00    0.0
2021/10/15 00:19:42.000   28 35 34.11305  -17 55 01.60672    72.9978   6   7   0.0953   0.1870   0.2664   0.0424  -0.0235   0.1004   0.00    0.0
2021/10/15 00:20:12.000   28 35 34.11307  -17 55 01.60716    73.0304   6   7   0.0926   0.1828   0.2593   0.0422  -0.0189   0.0988   0.00    0.0
2021/10/15 00:20:42.000   28 35 34.11321  -17 55 01.60689    73.0367   6   7   0.0916   0.1804   0.2564   0.0422  -0.0154   0.0979   0.00    0.0
2021/10/15 00:21:12.000   28 35 34.11316  -17 55 01.60711    73.0319   6   7   0.0909   0.1786   0.2546   0.0421  -0.0119   0.0973   0.00    0.0
2021/10/15 00:21:42.000   28 35 34.11309  -17 55 01.60727    73.0291   6   7   0.0905   0.1769   0.2534   0.0420  -0.0075   0.0968   0.00    0.0
2021/10/15 00:22:12.000   28 35 34.11304  -17 55 01.60714    73.0207   6   7   0.0901   0.1754   0.2523   0.0419   0.0045   0.0964   0.00    0.0
2021/10/15 00:22:42.000   28 35 34.11282  -17 55 01.60691    73.0083   6   7   0.0896   0.1737   0.2507   0.0419   0.0096   0.0957   0.00    0.0
2021/10/15 00:23:12.000   28 35 34.11250  -17 55 01.60695    72.9957   6   7   0.0888   0.1719   0.2477   0.0417   0.0126   0.0946   0.00    0.0
2021/10/15 00:23:42.000   28 35 34.11212  -17 55 01.60683    73.0048   6   7   0.0872   0.1694   0.2419   0.0415   0.0146   0.0924   0.00    0.0
2021/10/15 00:24:12.000   28 35 34.11230  -17 55 01.60643    73.0369   6   7   0.0831   0.1647   0.2285   0.0407   0.0163   0.0875   0.00    0.0
2021/10/15 00:24:42.000   28 35 34.11297  -17 55 01.60613    73.1560   6   7   0.0727   0.1533   0.2042   0.0367   0.0140   0.0774   0.00    0.0
2021/10/15 00:25:12.000   28 35 34.11286  -17 55 01.60623    73.1686   6   7   0.0706   0.1501   0.1969   0.0363   0.0155   0.0748   0.00    0.0
2021/10/15 00:25:42.000   28 35 34.11291  -17 55 01.60593    73.1717   6   7   0.0698   0.1484   0.1940   0.0361   0.0164   0.0737   0.00    0.0
2021/10/15 00:26:12.000   28 35 34.11284  -17 55 01.60566    73.1746   6   7   0.0694   0.1473   0.1924   0.0360   0.0171   0.0731   0.00    0.0
2021/10/15 00:26:42.000   28 35 34.11279  -17 55 01.60560    73.1806   6   7   0.0691   0.1462   0.1913   0.0359   0.0178   0.0726   0.00    0.0
2021/10/15 00:27:12.000   28 35 34.11268  -17 55 01.60564    73.1805   6   7   0.0689   0.1453   0.1906   0.0358   0.0184   0.0723   0.00    0.0
2021/10/15 00:27:42.000   28 35 34.11268  -17 55 01.60546    73.1826   6   7   0.0686   0.1443   0.1895   0.0357   0.0188   0.0719   0.00    0.0
2021/10/15 00:28:12.000   28 35 34.11261  -17 55 01.60536    73.1834   6   7   0.0680   0.1431   0.1875   0.0355   0.0189   0.0711   0.00    0.0
2021/10/15 00:28:42.000   28 35 34.11254  -17 55 01.60539    73.1858   6   7   0.0670   0.1413   0.1835   0.0352   0.0187   0.0695   0.00    0.0
2021/10/15 00:29:12.000   28 35 34.11262  -17 55 01.60540    73.1807   6   7   0.0643   0.1376   0.1744   0.0342   0.0175   0.0658   0.00    0.0
2021/10/15 00:29:42.000   28 35 34.11312  -17 55 01.60497    73.2380   6   7   0.0570   0.1278   0.1576   0.0305   0.0126   0.0580   0.00    0.0
2021/10/15 00:30:12.000   28 35 34.11311  -17 55 01.60503    73.2600   6   7   0.0555   0.1252   0.1522   0.0301   0.0129   0.0560   0.00    0.0
2021/10/15 00:30:42.000   28 35 34.11311  -17 55 01.60507    73.2793   6   7   0.0550   0.1240   0.1501   0.0299   0.0132   0.0552   0.00    0.0
2021/10/15 00:31:12.000   28 35 34.11311  -17 55 01.60495    73.2917   6   7   0.0547   0.1232   0.1490   0.0298   0.0136   0.0548   0.00    0.0
2021/10/15 00:31:42.000   28 35 34.11313  -17 55 01.60483    73.2988   6   7   0.0545   0.1226   0.1483   0.0298   0.0139   0.0545   0.00    0.0
2021/10/15 00:32:12.000   28 35 34.11312  -17 55 01.60469    73.3031   6   7   0.0543   0.1220   0.1478   0.0297   0.0142   0.0543   0.00    0.0
2021/10/15 00:32:42.000   28 35 34.11310  -17 55 01.60474    73.3082   6   7   0.0541   0.1213   0.1469   0.0296   0.0144   0.0540   0.00    0.0
2021/10/15 00:33:12.000   28 35 34.11306  -17 55 01.60462    73.3130   6   7   0.0538   0.1205   0.1456   0.0295   0.0147   0.0534   0.00    0.0
2021/10/15 00:33:42.000   28 35 34.11302  -17 55 01.60449    73.3218   6   7   0.0531   0.1192   0.1428   0.0293   0.0149   0.0523   0.00    0.0
2021/10/15 00:34:12.000   28 35 34.11288  -17 55 01.60459    73.3488   6   8   0.0512   0.1161   0.1364   0.0287   0.0152   0.0497   0.00    0.0
2021/10/15 00:34:42.000   28 35 34.11337  -17 55 01.60410    73.3738   6   8   0.0459   0.1077   0.1243   0.0262   0.0139   0.0436   0.00    0.0
2021/10/15 00:35:12.000   28 35 34.11335  -17 55 01.60407    73.3801   6   8   0.0448   0.1056   0.1204   0.0258   0.0142   0.0421   0.00    0.0
2021/10/15 00:35:42.000   28 35 34.11333  -17 55 01.60404    73.3907   6   8   0.0444   0.1047   0.1189   0.0256   0.0144   0.0416   0.00    0.0
2021/10/15 00:36:12.000   28 35 34.11333  -17 55 01.60410    73.3941   6   8   0.0442   0.1041   0.1182   0.0255   0.0144   0.0413   0.00    0.0
2021/10/15 00:36:42.000   28 35 34.11332  -17 55 01.60410    73.3953   6   8   0.0441   0.1036   0.1177   0.0254   0.0145   0.0411   0.00    0.0
2021/10/15 00:37:12.000   28 35 34.11332  -17 55 01.60404    73.3943   6   8   0.0440   0.1032   0.1173   0.0253   0.0146   0.0409   0.00    0.0
2021/10/15 00:37:42.000   28 35 34.11333  -17 55 01.60399    73.3951   6   8   0.0438   0.1027   0.1167   0.0252   0.0145   0.0407   0.00    0.0
2021/10/15 00:38:12.000   28 35 34.11336  -17 55 01.60394    73.3986   6   8   0.0436   0.1021   0.1157   0.0251   0.0144   0.0403   0.00    0.0
2021/10/15 00:38:42.000   28 35 34.11341  -17 55 01.60396    73.4055   6   8   0.0431   0.1010   0.1136   0.0248   0.0139   0.0394   0.00    0.0
2021/10/15 00:39:12.000   28 35 34.11345  -17 55 01.60393    73.4299   6   8   0.0417   0.0984   0.1089   0.0241   0.0129   0.0373   0.00    0.0
2021/10/15 00:39:42.000   28 35 34.11383  -17 55 01.60363    73.4581   6   8   0.0378   0.0912   0.1002   0.0219   0.0099   0.0326   0.00    0.0
2021/10/15 00:40:12.000   28 35 34.11380  -17 55 01.60365    73.4456   6   8   0.0369   0.0895   0.0974   0.0215   0.0098   0.0315   0.00    0.0
2021/10/15 00:40:42.000   28 35 34.11383  -17 55 01.60361    73.4436   6   8   0.0366   0.0888   0.0963   0.0214   0.0098   0.0311   0.00    0.0
2021/10/15 00:41:12.000   28 35 34.11384  -17 55 01.60356    73.4443   6   8   0.0365   0.0884   0.0958   0.0213   0.0098   0.0309   0.00    0.0
2021/10/15 00:41:42.000   28 35 34.11385  -17 55 01.60358    73.4440   6   8   0.0364   0.0880   0.0954   0.0212   0.0098   0.0308   0.00    0.0
2021/10/15 00:42:12.000   28 35 34.11385  -17 55 01.60343    73.4440   6   8   0.0363   0.0877   0.0952   0.0211   0.0098   0.0307   0.00    0.0
2021/10/15 00:42:42.000   28 35 34.11385  -17 55 01.60329    73.4427   6   8   0.0362   0.0874   0.0948   0.0210   0.0097   0.0306   0.00    0.0
2021/10/15 00:43:12.000   28 35 34.11387  -17 55 01.60326    73.4419   6   8   0.0361   0.0869   0.0941   0.0209   0.0095   0.0303   0.00    0.0
2021/10/15 00:43:42.000   28 35 34.11396  -17 55 01.60322    73.4512   6   8   0.0357   0.0860   0.0927   0.0207   0.0089   0.0297   0.00    0.0
2021/10/15 00:44:12.000   28 35 34.11426  -17 55 01.60292    73.4734   6   7   0.0347   0.0840   0.0896   0.0201   0.0077   0.0284   0.00    0.0
2021/10/15 00:44:42.000   28 35 34.11445  -17 55 01.60281    73.4893   6   7   0.0319   0.0781   0.0835   0.0184   0.0018   0.0249   0.00    0.0
2021/10/15 00:45:12.000   28 35 34.11451  -17 55 01.60263    73.4866   6   7   0.0312   0.0767   0.0815   0.0180   0.0014   0.0241   0.00    0.0
2021/10/15 00:45:42.000   28 35 34.11450  -17 55 01.60253    73.4889   6   7   0.0310   0.0761   0.0807   0.0179   0.0015   0.0239   0.00    0.0
2021/10/15 00:46:12.000   28 35 34.11449  -17 55 01.60242    73.4891   6   6   0.0309   0.0758   0.0805   0.0178   0.0007   0.0238   0.00    0.0
2021/10/15 00:46:42.000   28 35 34.11448  -17 55 01.60231    73.4895   6   6   0.0309   0.0756   0.0803   0.0178  -0.0008   0.0237   0.00    0.0
2021/10/15 00:47:12.000   28 35 34.11449  -17 55 01.60222    73.4897   6   6   0.0308   0.0754   0.0803   0.0177  -0.0012   0.0236   0.00    0.0
2021/10/15 00:47:42.000   28 35 34.11450  -17 55 01.60216    73.4893   6   6   0.0307   0.0751   0.0801   0.0177  -0.0017   0.0236   0.00    0.0
2021/10/15 00:48:12.000   28 35 34.11452  -17 55 01.60215    73.4897   6   6   0.0306   0.0748   0.0798   0.0176  -0.0026   0.0234   0.00    0.0
2021/10/15 00:48:42.000   28 35 34.11453  -17 55 01.60212    73.4883   6   6   0.0304   0.0741   0.0793   0.0174  -0.0038   0.0231   0.00    0.0
2021/10/15 00:49:12.000   28 35 34.11451  -17 55 01.60208    73.4844   6   6   0.0296   0.0724   0.0779   0.0170  -0.0060   0.0222   0.00    0.0
2021/10/15 00:49:42.000   28 35 34.11459  -17 55 01.60209    73.4821   6   6   0.0274   0.0675   0.0744   0.0157  -0.0098   0.0195   0.00    0.0
2021/10/15 00:50:12.000   28 35 34.11463  -17 55 01.60192    73.4748   6   6   0.0270   0.0664   0.0734   0.0154  -0.0102   0.0189   0.00    0.0
2021/10/15 00:50:42.000   28 35 34.11463  -17 55 01.60184    73.4736   6   6   0.0268   0.0659   0.0731   0.0153  -0.0103   0.0187   0.00    0.0
2021/10/15 00:51:12.000   28 35 34.11465  -17 55 01.60172    73.4725   6   6   0.0267   0.0657   0.0729   0.0153  -0.0104   0.0186   0.00    0.0
2021/10/15 00:51:42.000   28 35 34.11465  -17 55 01.60168    73.4721   6   6   0.0267   0.0655   0.0728   0.0152  -0.0104   0.0186   0.00    0.0
2021/10/15 00:52:12.000   28 35 34.11465  -17 55 01.60164    73.4724   6   6   0.0266   0.0654   0.0728   0.0152  -0.0104   0.0185   0.00    0.0
2021/10/15 00:52:42.000   28 35 34.11465  -17 55 01.60156    73.4723   6   6   0.0266   0.0652   0.0727   0.0152  -0.0105   0.0185   0.00    0.0
2021/10/15 00:53:12.000   28 35 34.11465  -17 55 01.60155    73.4733   6   6   0.0265   0.0649   0.0725   0.0151  -0.0106   0.0183   0.00    0.0
2021/10/15 00:53:42.000   28 35 34.11461  -17 55 01.60154    73.4760   6   6   0.0263   0.0644   0.0721   0.0150  -0.0108   0.0181   0.00    0.0
2021/10/15 00:54:12.000   28 35 34.11456  -17 55 01.60159    73.4743   6   6   0.0258   0.0630   0.0711   0.0147  -0.0115   0.0173   0.00    0.0
2021/10/15 00:54:42.000   28 35 34.11465  -17 55 01.60173    73.4724   6   6   0.0241   0.0590   0.0686   0.0138  -0.0133   0.0149   0.00    0.0
2021/10/15 00:55:12.000   28 35 34.11462  -17 55 01.60172    73.4730   6   6   0.0237   0.0580   0.0679   0.0136  -0.0135   0.0144   0.00    0.0
2021/10/15 00:55:42.000   28 35 34.11457  -17 55 01.60176    73.4743   6   6   0.0236   0.0577   0.0676   0.0135  -0.0135   0.0142   0.00    0.0
2021/10/15 00:56:12.000   28 35 34.11456  -17 55 01.60171    73.4754   6   6   0.0235   0.0575   0.0675   0.0135  -0.0136   0.0141   0.00    0.0
2021/10/15 00:56:42.000   28 35 34.11455  -17 55 01.60165    73.4761   6   6   0.0235   0.0573   0.0674   0.0135  -0.0136   0.0141   0.00    0.0
2021/10/15 00:57:12.000   28 35 34.11454  -17 55 01.60163    73.4766   6   6   0.0234   0.0572   0.0674   0.0134  -0.0136   0.0140   0.00    0.0
2021/10/15 00:57:42.000   28 35 34.11453  -17 55 01.60157    73.4769   6   6   0.0234   0.0571   0.0673   0.0134  -0.0136   0.0140   0.00    0.0
2021/10/15 00:58:12.000   28 35 34.11452  -17 55 01.60158    73.4778   6   6   0.0233   0.0568   0.0672   0.0134  -0.0137   0.0139   0.00    0.0
2021/10/15 00:58:42.000   28 35 34.11453  -17 55 01.60155    73.4786   6   6   0.0232   0.0564   0.0669   0.0133  -0.0138   0.0137   0.00    0.0
2021/10/15 00:59:12.000   28 35 34.11453  -17 55 01.60158    73.4775   6   6   0.0228   0.0553   0.0663   0.0131  -0.0141   0.0130   0.00    0.0
2021/10/15 00:59:42.000   28 35 34.11455  -17 55 01.60163    73.4811   6   6   0.0214   0.0520   0.0644   0.0125  -0.0153   0.0106   0.00    0.0
2021/10/15 01:00:12.000   28 35 34.11450  -17 55 01.60173    73.4832   6   6   0.0211   0.0512   0.0640   0.0123  -0.0155   0.0100   0.00    0.0
2021/10/15 01:00:42.000   28 35 34.11448  -17 55 01.60174    73.4837   6   6   0.0210   0.0510   0.0638   0.0123  -0.0155   0.0099   0.00    0.0
2021/10/15 01:01:12.000   28 35 34.11446  -17 55 01.60176    73.4838   6   6   0.0210   0.0508   0.0637   0.0123  -0.0155   0.0098   0.00    0.0
2021/10/15 01:01:42.000   28 35 34.11445  -17 55 01.60175    73.4838   6   6   0.0210   0.0507   0.0637   0.0122  -0.0155   0.0097   0.00    0.0
2021/10/15 01:02:12.000   28 35 34.11445  -17 55 01.60171    73.4840   6   6   0.0210   0.0506   0.0636   0.0122  -0.0155   0.0097   0.00    0.0
2021/10/15 01:02:42.000   28 35 34.11444  -17 55 01.60168    73.4841   6   6   0.0209   0.0505   0.0636   0.0122  -0.0155   0.0096   0.00    0.0
2021/10/15 01:03:12.000   28 35 34.11445  -17 55 01.60162    73.4838   6   6   0.0209   0.0503   0.0635   0.0122  -0.0156   0.0095   0.00    0.0
2021/10/15 01:03:42.000   28 35 34.11446  -17 55 01.60156    73.4832   6   6   0.0207   0.0500   0.0633   0.0121  -0.0156   0.0093   0.00    0.0
2021/10/15 01:04:12.000   28 35 34.11447  -17 55 01.60150    73.4841   6   6   0.0204   0.0491   0.0628   0.0120  -0.0159   0.0085   0.00    0.0
2021/10/15 01:04:42.000   28 35 34.11444  -17 55 01.60152    73.4869   6   6   0.0193   0.0463   0.0615   0.0116  -0.0167   0.0053   0.00    0.0
2021/10/15 01:05:12.000   28 35 34.11445  -17 55 01.60145    73.4862   6   6   0.0191   0.0457   0.0612   0.0116  -0.0168   0.0044   0.00    0.0
2021/10/15 01:05:42.000   28 35 34.11447  -17 55 01.60138    73.4859   6   6   0.0190   0.0455   0.0611   0.0115  -0.0168   0.0041   0.00    0.0
2021/10/15 01:06:12.000   28 35 34.11448  -17 55 01.60133    73.4866   6   6   0.0190   0.0453   0.0610   0.0115  -0.0169   0.0039   0.00    0.0
2021/10/15 01:06:42.000   28 35 34.11449  -17 55 01.60127    73.4872   6   6   0.0190   0.0453   0.0610   0.0115  -0.0169   0.0038   0.00    0.0
2021/10/15 01:07:12.000   28 35 34.11449  -17 55 01.60122    73.4877   6   6   0.0190   0.0452   0.0609   0.0115  -0.0169   0.0037   0.00    0.0
2021/10/15 01:07:42.000   28 35 34.11449  -17 55 01.60119    73.4880   6   6   0.0189   0.0451   0.0609   0.0115  -0.0169   0.0036   0.00    0.0
2021/10/15 01:08:12.000   28 35 34.11450  -17 55 01.60118    73.4885   6   6   0.0189   0.0450   0.0608   0.0115  -0.0169   0.0034   0.00    0.0
2021/10/15 01:08:42.000   28 35 34.11453  -17 55 01.60116    73.4885   6   6   0.0188   0.0447   0.0607   0.0114  -0.0170   0.0028   0.00    0.0
2021/10/15 01:09:12.000   28 35 34.11453  -17 55 01.60116    73.4876   6   6   0.0185   0.0440   0.0604   0.0114  -0.0172  -0.0016   0.00    0.0
2021/10/15 01:09:42.000   28 35 34.11453  -17 55 01.60129    73.4882   6   6   0.0177   0.0417   0.0594   0.0111  -0.0179  -0.0061   0.00    0.0
2021/10/15 01:10:12.000   28 35 34.11453  -17 55 01.60129    73.4888   6   6   0.0175   0.0412   0.0592   0.0111  -0.0180  -0.0067   0.00    0.0
2021/10/15 01:10:42.000   28 35 34.11453  -17 55 01.60126    73.4887   6   6   0.0174   0.0410   0.0591   0.0110  -0.0180  -0.0069   0.00    0.0
2021/10/15 01:11:12.000   28 35 34.11454  -17 55 01.60124    73.4887   6   6   0.0174   0.0409   0.0591   0.0110  -0.0180  -0.0069   0.00    0.0
2021/10/15 01:11:42.000   28 35 34.11454  -17 55 01.60121    73.4885   6   6   0.0174   0.0408   0.0590   0.0110  -0.0180  -0.0070   0.00    0.0
2021/10/15 01:12:12.000   28 35 34.11454  -17 55 01.60120    73.4881   6   6   0.0174   0.0407   0.0590   0.0110  -0.0180  -0.0070   0.00    0.0
2021/10/15 01:12:42.000   28 35 34.11454  -17 55 01.60117    73.4877   6   6   0.0173   0.0407   0.0590   0.0110  -0.0181  -0.0071   0.00    0.0
2021/10/15 01:13:12.000   28 35 34.11454  -17 55 01.60113    73.4874   6   6   0.0173   0.0406   0.0589   0.0110  -0.0181  -0.0072   0.00    0.0
2021/10/15 01:13:42.000   28 35 34.11457  -17 55 01.60105    73.4868   6   6   0.0172   0.0404   0.0589   0.0110  -0.0181  -0.0074   0.00    0.0
2021/10/15 01:14:12.000   28 35 34.11461  -17 55 01.60097    73.4886   6   6   0.0170   0.0398   0.0586   0.0109  -0.0183  -0.0079   0.00    0.0
2021/10/15 01:14:42.000   28 35 34.11456  -17 55 01.60102    73.4889   6   6   0.0164   0.0379   0.0578   0.0108  -0.0189  -0.0095   0.00    0.0
2021/10/15 01:15:12.000   28 35 34.11455  -17 55 01.60100    73.4903   6   6   0.0162   0.0374   0.0576   0.0108  -0.0190  -0.0098   0.00    0.0
2021/10/15 01:15:42.000   28 35 34.11455  -17 55 01.60099    73.4905   6   6   0.0162   0.0373   0.0576   0.0108  -0.0190  -0.0099   0.00    0.0
2021/10/15 01:16:12.000   28 35 34.11454  -17 55 01.60096    73.4906   6   6   0.0161   0.0372   0.0575   0.0107  -0.0191  -0.0100   0.00    0.0
2021/10/15 01:16:42.000   28 35 34.11454  -17 55 01.60095    73.4909   6   6   0.0161   0.0371   0.0575   0.0107  -0.0191  -0.0100   0.00    0.0
2021/10/15 01:17:12.000   28 35 34.11454  -17 55 01.60093    73.4910   6   6   0.0161   0.0371   0.0575   0.0107  -0.0191  -0.0100   0.00    0.0
2021/10/15 01:17:42.000   28 35 34.11454  -17 55 01.60091    73.4914   6   6   0.0161   0.0370   0.0575   0.0107  -0.0191  -0.0101   0.00    0.0
2021/10/15 01:18:12.000   28 35 34.11455  -17 55 01.60089    73.4925   6   6   0.0161   0.0370   0.0574   0.0107  -0.0191  -0.0101   0.00    0.0
2021/10/15 01:18:42.000   28 35 34.11456  -17 55 01.60090    73.4942   6   6   0.0160   0.0368   0.0573   0.0107  -0.0191  -0.0102   0.00    0.0
2021/10/15 01:19:12.000   28 35 34.11458  -17 55 01.60092    73.4980   6   6   0.0158   0.0363   0.0571   0.0107  -0.0193  -0.0106   0.00    0.0
2021/10/15 01:19:42.000   28 35 34.11456  -17 55 01.60103    73.4978   6   6   0.0153   0.0347   0.0564   0.0106  -0.0198  -0.0116   0.00    0.0
2021/10/15 01:20:12.000   28 35 34.11456  -17 55 01.60101    73.4974   6   6   0.0152   0.0344   0.0562   0.0106  -0.0199  -0.0118   0.00    0.0
2021/10/15 01:20:42.000   28 35 34.11456  -17 55 01.60098    73.4979   6   6   0.0151   0.0342   0.0561   0.0106  -0.0199  -0.0119   0.00    0.0
2021/10/15 01:21:12.000   28 35 34.11456  -17 55 01.60094    73.4990   6   6   0.0151   0.0342   0.0560   0.0106  -0.0199  -0.0119   0.00    0.0
2021/10/15 01:21:42.000   28 35 34.11456  -17 55 01.60091    73.5002   6   6   0.0151   0.0341   0.0560   0.0106  -0.0199  -0.0119   0.00    0.0
2021/10/15 01:22:12.000   28 35 34.11456  -17 55 01.60090    73.5011   6   6   0.0151   0.0341   0.0560   0.0106  -0.0200  -0.0119   0.00    0.0
2021/10/15 01:22:42.000   28 35 34.11457  -17 55 01.60087    73.5013   6   5   0.0151   0.0341   0.0560   0.0106  -0.0200  -0.0119   0.00    0.0
2021/10/15 01:23:12.000   28 35 34.11457  -17 55 01.60083    73.5015   6   5   0.0151   0.0340   0.0559   0.0106  -0.0200  -0.0120   0.00    0.0
2021/10/15 01:23:42.000   28 35 34.11460  -17 55 01.60079    73.5024   6   5   0.0150   0.0338   0.0559   0.0106  -0.0200  -0.0120   0.00    0.0
2021/10/15 01:24:12.000   28 35 34.11466  -17 55 01.60078    73.5049   6   5   0.0149   0.0335   0.0558   0.0106  -0.0201  -0.0122   0.00    0.0
2021/10/15 01:24:42.000   28 35 34.11459  -17 55 01.60100    73.5030   6   5   0.0144   0.0322   0.0553   0.0106  -0.0207  -0.0129   0.00    0.0
2021/10/15 01:25:12.000   28 35 34.11455  -17 55 01.60106    73.5019   6   5   0.0143   0.0319   0.0552   0.0106  -0.0207  -0.0130   0.00    0.0
2021/10/15 01:25:42.000   28 35 34.11454  -17 55 01.60111    73.5016   6   5   0.0143   0.0318   0.0552   0.0106  -0.0208  -0.0131   0.00    0.0
2021/10/15 01:26:12.000   28 35 34.11453  -17 55 01.60113    73.5015   6   5   0.0143   0.0317   0.0552   0.0106  -0.0208  -0.0131   0.00    0.0
2021/10/15 01:26:42.000   28 35 34.11453  -17 55 01.60112    73.5013   6   5   0.0143   0.0317   0.0552   0.0106  -0.0208  -0.0131   0.00    0.0
2021/10/15 01:27:12.000   28 35 34.11453  -17 55 01.60112    73.5013   6   5   0.0143   0.0317   0.0552   0.0106  -0.0208  -0.0131   0.00    0.0
2021/10/15 01:27:42.000   28 35 34.11453  -17 55 01.60111    73.5015   6   5   0.0142   0.0316   0.0551   0.0106  -0.0208  -0.0131   0.00    0.0
2021/10/15 01:28:12.000   28 35 34.11453  -17 55 01.60110    73.5018   6   5   0.0142   0.0316   0.0551   0.0106  -0.0208  -0.0131   0.00    0.0
2021/10/15 01:28:42.000   28 35 34.11453  -17 55 01.60112    73.5029   6   5   0.0142   0.0314   0.0551   0.0106  -0.0208  -0.0132   0.00    0.0
2021/10/15 01:29:12.000   28 35 34.11454  -17 55 01.60114    73.5037   6   5   0.0141   0.0311   0.0550   0.0106  -0.0210  -0.0133   0.00    0.0
2021/10/15 01:29:42.000   28 35 34.11451  -17 55 01.60123    73.5021   6   5   0.0137   0.0301   0.0546   0.0106  -0.0215  -0.0138   0.00    0.0
2021/10/15 01:30:12.000   28 35 34.11450  -17 55 01.60128    73.5021   6   5   0.0136   0.0298   0.0545   0.0106  -0.0216  -0.0140   0.00    0.0
2021/10/15 01:30:42.000   28 35 34.11450  -17 55 01.60128    73.5025   6   5   0.0136   0.0297   0.0545   0.0106  -0.0216  -0.0140   0.00    0.0
2021/10/15 01:31:12.000   28 35 34.11450  -17 55 01.60128    73.5027   6   5   0.0136   0.0297   0.0545   0.0106  -0.0216  -0.0140   0.00    0.0
2021/10/15 01:31:42.000   28 35 34.11449  -17 55 01.60127    73.5026   6   5   0.0136   0.0297   0.0544   0.0106  -0.0216  -0.0140   0.00    0.0
2021/10/15 01:32:12.000   28 35 34.11449  -17 55 01.60126    73.5028   6   5   0.0136   0.0297   0.0544   0.0106  -0.0216  -0.0140   0.00    0.0
2021/10/15 01:32:42.000   28 35 34.11449  -17 55 01.60125    73.5030   6   5   0.0136   0.0296   0.0544   0.0106  -0.0216  -0.0140   0.00    0.0
2021/10/15 01:33:12.000   28 35 34.11450  -17 55 01.60125    73.5032   6   5   0.0135   0.0296   0.0544   0.0106  -0.0216  -0.0140   0.00    0.0
2021/10/15 01:33:42.000   28 35 34.11450  -17 55 01.60126    73.5035   6   5   0.0135   0.0295   0.0544   0.0106  -0.0217  -0.0141   0.00    0.0
2021/10/15 01:34:12.000   28 35 34.11451  -17 55 01.60131    73.5041   6   5   0.0134   0.0292   0.0543   0.0106  -0.0218  -0.0142   0.00    0.0
2021/10/15 01:34:42.000   28 35 34.11449  -17 55 01.60148    73.5017   6   5   0.0131   0.0284   0.0539   0.0106  -0.0223  -0.0146   0.00    0.0
2021/10/15 01:35:12.000   28 35 34.11450  -17 55 01.60153    73.5020   6   5   0.0130   0.0282   0.0538   0.0106  -0.0223  -0.0147   0.00    0.0
2021/10/15 01:35:42.000   28 35 34.11450  -17 55 01.60153    73.5025   6   5   0.0130   0.0281   0.0538   0.0106  -0.0224  -0.0147   0.00    0.0
2021/10/15 01:36:12.000   28 35 34.11451  -17 55 01.60152    73.5025   6   5   0.0130   0.0281   0.0537   0.0106  -0.0224  -0.0147   0.00    0.0
2021/10/15 01:36:42.000   28 35 34.11450  -17 55 01.60151    73.5023   6   5   0.0130   0.0281   0.0537   0.0106  -0.0224  -0.0147   0.00    0.0
2021/10/15 01:37:12.000   28 35 34.11450  -17 55 01.60150    73.5023   6   5   0.0130   0.0280   0.0537   0.0106  -0.0224  -0.0147   0.00    0.0
2021/10/15 01:37:42.000   28 35 34.11450  -17 55 01.60148    73.5020   6   5   0.0130   0.0280   0.0537   0.0106  -0.0224  -0.0147   0.00    0.0
2021/10/15 01:38:12.000   28 35 34.11450  -17 55 01.60147    73.5017   6   5   0.0130   0.0280   0.0537   0.0106  -0.0224  -0.0148   0.00    0.0
2021/10/15 01:38:42.000   28 35 34.11450  -17 55 01.60148    73.5014   6   5   0.0129   0.0279   0.0537   0.0106  -0.0225  -0.0148   0.00    0.0
2021/10/15 01:39:12.000   28 35 34.11448  -17 55 01.60155    73.5004   6   5   0.0129   0.0277   0.0535   0.0106  -0.0226  -0.0149   0.00    0.0
2021/10/15 01:39:42.000   28 35 34.11447  -17 55 01.60168    73.4966   6   5   0.0126   0.0270   0.0531   0.0107  -0.0230  -0.0152   0.00    0.0
2021/10/15 01:40:12.000   28 35 34.11447  -17 55 01.60160    73.4955   6   5   0.0125   0.0269   0.0530   0.0107  -0.0231  -0.0153   0.00    0.0
2021/10/15 01:40:42.000   28 35 34.11447  -17 55 01.60158    73.4951   6   5   0.0125   0.0268   0.0530   0.0107  -0.0231  -0.0153   0.00    0.0
2021/10/15 01:41:12.000   28 35 34.11446  -17 55 01.60157    73.4944   6   5   0.0125   0.0268   0.0530   0.0107  -0.0231  -0.0153   0.00    0.0
2021/10/15 01:41:42.000   28 35 34.11446  -17 55 01.60156    73.4939   6   5   0.0125   0.0267   0.0530   0.0107  -0.0231  -0.0153   0.00    0.0
2021/10/15 01:42:12.000   28 35 34.11446  -17 55 01.60155    73.4938   6   5   0.0125   0.0267   0.0530   0.0107  -0.0231  -0.0153   0.00    0.0
2021/10/15 01:42:42.000   28 35 34.11445  -17 55 01.60154    73.4935   6   5   0.0125   0.0267   0.0530   0.0107  -0.0231  -0.0153   0.00    0.0
2021/10/15 01:43:12.000   28 35 34.11445  -17 55 01.60153    73.4933   6   5   0.0125   0.0267   0.0529   0.0107  -0.0231  -0.0153   0.00    0.0
2021/10/15 01:43:42.000   28 35 34.11444  -17 55 01.60153    73.4929   6   5   0.0125   0.0266   0.0529   0.0107  -0.0232  -0.0153   0.00    0.0
2021/10/15 01:44:12.000   28 35 34.11444  -17 55 01.60150    73.4935   6   5   0.0124   0.0265   0.0528   0.0107  -0.0233  -0.0154   0.00    0.0
2021/10/15 01:44:42.000   28 35 34.11443  -17 55 01.60162    73.4883   6   5   0.0122   0.0259   0.0523   0.0108  -0.0237  -0.0156   0.00    0.0
2021/10/15 01:45:12.000   28 35 34.11442  -17 55 01.60162    73.4869   6   5   0.0121   0.0258   0.0522   0.0108  -0.0237  -0.0157   0.00    0.0
2021/10/15 01:45:42.000   28 35 34.11442  -17 55 01.60162    73.4860   6   5   0.0121   0.0258   0.0522   0.0108  -0.0238  -0.0157   0.00    0.0
2021/10/15 01:46:12.000   28 35 34.11442  -17 55 01.60161    73.4858   6   5   0.0121   0.0257   0.0522   0.0108  -0.0238  -0.0157   0.00    0.0
2021/10/15 01:46:42.000   28 35 34.11442  -17 55 01.60160    73.4856   6   5   0.0121   0.0257   0.0521   0.0108  -0.0238  -0.0157   0.00    0.0
2021/10/15 01:47:12.000   28 35 34.11442  -17 55 01.60159    73.4854   6   5   0.0121   0.0257   0.0521   0.0108  -0.0238  -0.0157   0.00    0.0
2021/10/15 01:47:42.000   28 35 34.11442  -17 55 01.60159    73.4849   6   5   0.0121   0.0257   0.0521   0.0108  -0.0238  -0.0157   0.00    0.0
2021/10/15 01:48:12.000   28 35 34.11442  -17 55 01.60159    73.4845   6   5   0.0121   0.0257   0.0521   0.0108  -0.0238  -0.0157   0.00    0.0
2021/10/15 01:48:42.000   28 35 34.11441  -17 55 01.60160    73.4832   6   5   0.0120   0.0256   0.0521   0.0109  -0.0238  -0.0157   0.00    0.0
2021/10/15 01:49:12.000   28 35 34.11440  -17 55 01.60162    73.4807   6   5   0.0120   0.0255   0.0519   0.0109  -0.0239  -0.0158   0.00    0.0
2021/10/15 01:49:42.000   28 35 34.11440  -17 55 01.60172    73.4751   6   5   0.0118   0.0251   0.0514   0.0110  -0.0242  -0.0159   0.00    0.0
2021/10/15 01:50:12.000   28 35 34.11440  -17 55 01.60175    73.4735   6   5   0.0117   0.0250   0.0513   0.0110  -0.0243  -0.0160   0.00    0.0
2021/10/15 01:50:42.000   28 35 34.11440  -17 55 01.60177    73.4734   6   5   0.0117   0.0250   0.0512   0.0110  -0.0243  -0.0160   0.00    0.0
2021/10/15 01:51:12.000   28 35 34.11440  -17 55 01.60178    73.4735   6   5   0.0117   0.0249   0.0512   0.0110  -0.0243  -0.0160   0.00    0.0
2021/10/15 01:51:42.000   28 35 34.11440  -17 55 01.60178    73.4732   6   5   0.0117   0.0249   0.0512   0.0110  -0.0243  -0.0160   0.00    0.0
2021/10/15 01:52:12.000   28 35 34.11440  -17 55 01.60177    73.4728   6   5   0.0117   0.0249   0.0512   0.0110  -0.0243  -0.0160   0.00    0.0
2021/10/15 01:52:42.000   28 35 34.11440  -17 55 01.60177    73.4722   6   5   0.0117   0.0249   0.0512   0.0110  -0.0243  -0.0160   0.00    0.0
2021/10/15 01:53:12.000   28 35 34.11439  -17 55 01.60177    73.4710   6   5   0.0117   0.0249   0.0512   0.0110  -0.0244  -0.0160   0.00    0.0
2021/10/15 01:53:42.000   28 35 34.11439  -17 55 01.60177    73.4694   6   5   0.0117   0.0248   0.0511   0.0110  -0.0244  -0.0160   0.00    0.0
2021/10/15 01:54:12.000   28 35 34.11438  -17 55 01.60180    73.4656   6   5   0.0116   0.0248   0.0510   0.0110  -0.0244  -0.0160   0.00    0.0
2021/10/15 01:54:42.000   28 35 34.11439  -17 55 01.60191    73.4590   6   5   0.0115   0.0244   0.0504   0.0111  -0.0247  -0.0161   0.00    0.0
2021/10/15 01:55:12.000   28 35 34.11440  -17 55 01.60191    73.4582   6   5   0.0114   0.0244   0.0503   0.0111  -0.0248  -0.0161   0.00    0.0
2021/10/15 01:55:42.000   28 35 34.11440  -17 55 01.60190    73.4577   6   5   0.0114   0.0243   0.0502   0.0111  -0.0248  -0.0161   0.00    0.0
2021/10/15 01:56:12.000   28 35 34.11440  -17 55 01.60190    73.4575   6   5   0.0114   0.0243   0.0502   0.0111  -0.0248  -0.0161   0.00    0.0
2021/10/15 01:56:42.000   28 35 34.11440  -17 55 01.60190    73.4573   6   5   0.0114   0.0243   0.0502   0.0111  -0.0248  -0.0161   0.00    0.0
2021/10/15 01:57:12.000   28 35 34.11440  -17 55 01.60190    73.4573   6   5   0.0114   0.0243   0.0502   0.0111  -0.0248  -0.0161   0.00    0.0
2021/10/15 01:57:42.000   28 35 34.11441  -17 55 01.60189    73.4574   6   5   0.0114   0.0243   0.0502   0.0111  -0.0248  -0.0161   0.00    0.0
2021/10/15 01:58:12.000   28 35 34.11442  -17 55 01.60188    73.4575   6   5   0.0114   0.0243   0.0501   0.0111  -0.0248  -0.0161   0.00    0.0
2021/10/15 01:58:42.000   28 35 34.11441  -17 55 01.60189    73.4561   6   5   0.0114   0.0243   0.0501   0.0111  -0.0248  -0.0161   0.00    0.0
2021/10/15 01:59:12.000   28 35 34.11440  -17 55 01.60193    73.4521   6   5   0.0113   0.0242   0.0499   0.0111  -0.0249  -0.0161   0.00    0.0
2021/10/15 01:59:42.000   28 35 34.11441  -17 55 01.60198    73.4478   6   5   0.0112   0.0240   0.0493   0.0112  -0.0251  -0.0162   0.00    0.0
2021/10/15 02:00:12.000   28 35 34.11441  -17 55 01.60202    73.4461   6   5   0.0111   0.0239   0.0492   0.0112  -0.0251  -0.0162   0.00    0.0
2021/10/15 02:00:42.000   28 35 34.11441  -17 55 01.60201    73.4457   6   5   0.0111   0.0239   0.0491   0.0112  -0.0251  -0.0162   0.00    0.0
2021/10/15 02:01:12.000   28 35 34.11441  -17 55 01.60200    73.4451   6   5   0.0111   0.0239   0.0491   0.0112  -0.0251  -0.0162   0.00    0.0
2021/10/15 02:01:42.000   28 35 34.11442  -17 55 01.60199    73.4449   6   5   0.0111   0.0239   0.0491   0.0112  -0.0251  -0.0162   0.00    0.0
2021/10/15 02:02:12.000   28 35 34.11442  -17 55 01.60198    73.4449   6   6   0.0111   0.0238   0.0491   0.0112  -0.0251  -0.0162   0.00    0.0
2021/10/15 02:02:42.000   28 35 34.11442  -17 55 01.60198    73.4450   6   6   0.0111   0.0238   0.0490   0.0112  -0.0251  -0.0162   0.00    0.0
2021/10/15 02:03:12.000   28 35 34.11443  -17 55 01.60197    73.4449   6   6   0.0111   0.0238   0.0490   0.0112  -0.0251  -0.0162   0.00    0.0
2021/10/15 02:03:42.000   28 35 34.11443  -17 55 01.60196    73.4436   6   6   0.0111   0.0238   0.0489   0.0112  -0.0251  -0.0162   0.00    0.0
2021/10/15 02:04:12.000   28 35 34.11443  -17 55 01.60199    73.4426   6   6   0.0110   0.0238   0.0488   0.0113  -0.0252  -0.0162   0.00    0.0
2021/10/15 02:04:42.000   28 35 34.11444  -17 55 01.60201    73.4384   6   6   0.0109   0.0236   0.0481   0.0113  -0.0253  -0.0162   0.00    0.0
2021/10/15 02:05:12.000   28 35 34.11444  -17 55 01.60201    73.4372   6   6   0.0109   0.0235   0.0480   0.0113  -0.0254  -0.0162   0.00    0.0
2021/10/15 02:05:42.000   28 35 34.11445  -17 55 01.60200    73.4376   6   6   0.0109   0.0235   0.0479   0.0113  -0.0254  -0.0162   0.00    0.0
2021/10/15 02:06:12.000   28 35 34.11445  -17 55 01.60200    73.4379   6   6   0.0109   0.0235   0.0479   0.0113  -0.0254  -0.0162   0.00    0.0
2021/10/15 02:06:42.000   28 35 34.11445  -17 55 01.60199    73.4373   6   6   0.0108   0.0235   0.0479   0.0113  -0.0254  -0.0162   0.00    0.0
2021/10/15 02:07:12.000   28 35 34.11445  -17 55 01.60198    73.4368   6   6   0.0108   0.0235   0.0479   0.0113  -0.0254  -0.0162   0.00    0.0
2021/10/15 02:07:42.000   28 35 34.11446  -17 55 01.60198    73.4360   6   6   0.0108   0.0235   0.0479   0.0113  -0.0254  -0.0161   0.00    0.0
2021/10/15 02:08:12.000   28 35 34.11446  -17 55 01.60197    73.4351   6   6   0.0108   0.0235   0.0478   0.0113  -0.0254  -0.0161   0.00    0.0
2021/10/15 02:08:42.000   28 35 34.11447  -17 55 01.60195    73.4334   6   6   0.0108   0.0235   0.0478   0.0113  -0.0254  -0.0161   0.00    0.0
2021/10/15 02:09:12.000   28 35 34.11448  -17 55 01.60196    73.4313   6   6   0.0108   0.0234   0.0476   0.0113  -0.0254  -0.0161   0.00    0.0
2021/10/15 02:09:42.000   28 35 34.11450  -17 55 01.60196    73.4273   6   6   0.0107   0.0233   0.0469   0.0114  -0.0255  -0.0161   0.00    0.0
2021/10/15 02:10:12.000   28 35 34.11450  -17 55 01.60197    73.4263   6   6   0.0106   0.0233   0.0468   0.0114  -0.0255  -0.0160   0.00    0.0
2021/10/15 02:10:42.000   28 35 34.11450  -17 55 01.60195    73.4265   6   6   0.0106   0.0233   0.0467   0.0114  -0.0255  -0.0160   0.00    0.0
2021/10/15 02:11:12.000   28 35 34.11450  -17 55 01.60195    73.4266   6   6   0.0106   0.0233   0.0467   0.0114  -0.0255  -0.0160   0.00    0.0
2021/10/15 02:11:42.000   28 35 34.11451  -17 55 01.60194    73.4266   6   6   0.0106   0.0232   0.0467   0.0114  -0.0255  -0.0160   0.00    0.0
2021/10/15 02:12:12.000   28 35 34.11451  -17 55 01.60194    73.4264   6   7   0.0106   0.0232   0.0466   0.0114  -0.0255  -0.0160   0.00    0.0
2021/10/15 02:12:42.000   28 35 34.11451  -17 55 01.60193    73.4262   6   7   0.0106   0.0232   0.0466   0.0114  -0.0255  -0.0160   0.00    0.0
2021/10/15 02:13:12.000   28 35 34.11452  -17 55 01.60192    73.4258   6   7   0.0106   0.0232   0.0466   0.0114  -0.0255  -0.0160   0.00    0.0
2021/10/15 02:13:42.000   28 35 34.11453  -17 55 01.60191    73.4259   6   7   0.0106   0.0232   0.0465   0.0114  -0.0255  -0.0160   0.00    0.0
2021/10/15 02:14:12.000   28 35 34.11456  -17 55 01.60187    73.4298   6   7   0.0105   0.0232   0.0463   0.0114  -0.0255  -0.0160   0.00    0.0
2021/10/15 02:14:42.000   28 35 34.11455  -17 55 01.60187    73.4236   6   7   0.0104   0.0231   0.0457   0.0115  -0.0255  -0.0159   0.00    0.0
2021/10/15 02:15:12.000   28 35 34.11454  -17 55 01.60189    73.4202   6   7   0.0104   0.0231   0.0455   0.0115  -0.0255  -0.0159   0.00    0.0
2021/10/15 02:15:42.000   28 35 34.11454  -17 55 01.60189    73.4192   6   7   0.0104   0.0231   0.0454   0.0115  -0.0255  -0.0159   0.00    0.0
2021/10/15 02:16:12.000   28 35 34.11454  -17 55 01.60189    73.4188   6   7   0.0104   0.0230   0.0454   0.0115  -0.0255  -0.0158   0.00    0.0
2021/10/15 02:16:42.000   28 35 34.11455  -17 55 01.60188    73.4182   6   7   0.0104   0.0230   0.0454   0.0115  -0.0255  -0.0158   0.00    0.0
2021/10/15 02:17:12.000   28 35 34.11455  -17 55 01.60187    73.4180   6   7   0.0104   0.0230   0.0454   0.0115  -0.0255  -0.0158   0.00    0.0
2021/10/15 02:17:42.000   28 35 34.11455  -17 55 01.60186    73.4177   6   7   0.0104   0.0230   0.0454   0.0115  -0.0255  -0.0158   0.00    0.0
2021/10/15 02:18:12.000   28 35 34.11456  -17 55 01.60186    73.4176   6   7   0.0104   0.0230   0.0453   0.0115  -0.0255  -0.0158   0.00    0.0
2021/10/15 02:18:42.000   28 35 34.11456  -17 55 01.60186    73.4163   6   7   0.0103   0.0230   0.0452   0.0115  -0.0255  -0.0158   0.00    0.0
2021/10/15 02:19:12.000   28 35 34.11455  -17 55 01.60186    73.4144   6   7   0.0103   0.0230   0.0450   0.0115  -0.0255  -0.0158   0.00    0.0
2021/10/15 02:19:42.000   28 35 34.11455  -17 55 01.60186    73.4099   6   7   0.0102   0.0229   0.0444   0.0115  -0.0255  -0.0157   0.00    0.0
2021/10/15 02:20:12.000   28 35 34.11454  -17 55 01.60186    73.4102   6   7   0.0102   0.0229   0.0442   0.0115  -0.0255  -0.0156   0.00    0.0
2021/10/15 02:20:42.000   28 35 34.11454  -17 55 01.60186    73.4101   6   7   0.0101   0.0229   0.0442   0.0115  -0.0255  -0.0156   0.00    0.0
2021/10/15 02:21:12.000   28 35 34.11454  -17 55 01.60186    73.4097   6   7   0.0101   0.0229   0.0442   0.0115  -0.0255  -0.0156   0.00    0.0
2021/10/15 02:21:42.000   28 35 34.11454  -17 55 01.60186    73.4095   6   7   0.0101   0.0229   0.0441   0.0115  -0.0255  -0.0156   0.00    0.0
2021/10/15 02:22:12.000   28 35 34.11454  -17 55 01.60185    73.4089   6   7   0.0101   0.0229   0.0441   0.0115  -0.0255  -0.0156   0.00    0.0
2021/10/15 02:22:42.000   28 35 34.11454  -17 55 01.60184    73.4081   6   7   0.0101   0.0229   0.0441   0.0115  -0.0255  -0.0156   0.00    0.0
2021/10/15 02:23:12.000   28 35 34.11454  -17 55 01.60183    73.4070   6   7   0.0101   0.0229   0.0441   0.0115  -0.0255  -0.0156   0.00    0.0
2021/10/15 02:23:42.000   28 35 34.11455  -17 55 01.60183    73.4051   6   7   0.0101   0.0229   0.0440   0.0115  -0.0254  -0.0156   0.00    0.0
2021/10/15 02:24:12.000   28 35 34.11456  -17 55 01.60183    73.4004   6   7   0.0101   0.0228   0.0438   0.0115  -0.0254  -0.0155   0.00    0.0
2021/10/15 02:24:42.000   28 35 34.11458  -17 55 01.60182    73.3957   6   7   0.0100   0.0228   0.0432   0.0115  -0.0254  -0.0154   0.00    0.0
2021/10/15 02:25:12.000   28 35 34.11458  -17 55 01.60182    73.3933   6   7   0.0099   0.0228   0.0430   0.0115  -0.0254  -0.0153   0.00    0.0
2021/10/15 02:25:42.000   28 35 34.11457  -17 55 01.60182    73.3921   6   7   0.0099   0.0228   0.0430   0.0115  -0.0254  -0.0153   0.00    0.0
2021/10/15 02:26:12.000   28 35 34.11457  -17 55 01.60181    73.3911   6   7   0.0099   0.0228   0.0430   0.0115  -0.0254  -0.0153   0.00    0.0
2021/10/15 02:26:42.000   28 35 34.11457  -17 55 01.60181    73.3904   6   7   0.0099   0.0228   0.0429   0.0115  -0.0254  -0.0153   0.00    0.0
2021/10/15 02:27:12.000   28 35 34.11457  -17 55 01.60180    73.3896   6   8   0.0099   0.0228   0.0429   0.0115  -0.0254  -0.0153   0.00    0.0
2021/10/15 02:27:42.000   28 35 34.11457  -17 55 01.60180    73.3891   6   8   0.0099   0.0228   0.0429   0.0115  -0.0254  -0.0153   0.00    0.0
2021/10/15 02:28:12.000   28 35 34.11457  -17 55 01.60179    73.3888   6   8   0.0099   0.0228   0.0429   0.0115  -0.0254  -0.0153   0.00    0.0
2021/10/15 02:28:42.000   28 35 34.11458  -17 55 01.60178    73.3875   6   8   0.0099   0.0227   0.0428   0.0115  -0.0254  -0.0153   0.00    0.0
2021/10/15 02:29:12.000   28 35 34.11458  -17 55 01.60179    73.3874   6   8   0.0098   0.0227   0.0426   0.0115  -0.0253  -0.0152   0.00    0.0
2021/10/15 02:29:42.000   28 35 34.11459  -17 55 01.60179    73.3862   6   8   0.0097   0.0227   0.0421   0.0115  -0.0253  -0.0151   0.00    0.0
2021/10/15 02:30:12.000   28 35 34.11460  -17 55 01.60178    73.3860   6   8   0.0097   0.0227   0.0419   0.0115  -0.0253  -0.0151   0.00    0.0
2021/10/15 02:30:42.000   28 35 34.11461  -17 55 01.60177    73.3853   6   8   0.0097   0.0227   0.0419   0.0115  -0.0253  -0.0150   0.00    0.0
2021/10/15 02:31:12.000   28 35 34.11461  -17 55 01.60177    73.3847   6   8   0.0097   0.0227   0.0419   0.0115  -0.0253  -0.0150   0.00    0.0
2021/10/15 02:31:42.000   28 35 34.11461  -17 55 01.60176    73.3844   6   8   0.0097   0.0227   0.0418   0.0115  -0.0253  -0.0150   0.00    0.0
2021/10/15 02:32:12.000   28 35 34.11461  -17 55 01.60175    73.3843   6   8   0.0097   0.0227   0.0418   0.0114  -0.0253  -0.0150   0.00    0.0
2021/10/15 02:32:42.000   28 35 34.11461  -17 55 01.60175    73.3844   6   8   0.0097   0.0227   0.0418   0.0114  -0.0253  -0.0150   0.00    0.0
2021/10/15 02:33:12.000   28 35 34.11461  -17 55 01.60174    73.3847   6   8   0.0097   0.0227   0.0418   0.0114  -0.0253  -0.0150   0.00    0.0
2021/10/15 02:33:42.000   28 35 34.11461  -17 55 01.60174    73.3854   6   8   0.0097   0.0227   0.0417   0.0114  -0.0252  -0.0150   0.00    0.0
2021/10/15 02:34:12.000   28 35 34.11462  -17 55 01.60172    73.3854   6   8   0.0096   0.0226   0.0415   0.0114  -0.0252  -0.0149   0.00    0.0
2021/10/15 02:34:42.000   28 35 34.11465  -17 55 01.60170    73.3811   6   8   0.0095   0.0226   0.0410   0.0114  -0.0252  -0.0148   0.00    0.0
2021/10/15 02:35:12.000   28 35 34.11465  -17 55 01.60169    73.3776   6   8   0.0095   0.0226   0.0409   0.0114  -0.0252  -0.0148   0.00    0.0
2021/10/15 02:35:42.000   28 35 34.11465  -17 55 01.60168    73.3766   6   8   0.0095   0.0226   0.0409   0.0114  -0.0251  -0.0147   0.00    0.0
2021/10/15 02:36:12.000   28 35 34.11466  -17 55 01.60167    73.3761   6   8   0.0095   0.0226   0.0408   0.0114  -0.0251  -0.0147   0.00    0.0
2021/10/15 02:36:42.000   28 35 34.11466  -17 55 01.60166    73.3756   6   8   0.0095   0.0226   0.0408   0.0114  -0.0251  -0.0147   0.00    0.0
2021/10/15 02:37:12.000   28 35 34.11467  -17 55 01.60165    73.3753   6   8   0.0095   0.0226   0.0408   0.0114  -0.0251  -0.0147   0.00    0.0
2021/10/15 02:37:42.000   28 35 34.11467  -17 55 01.60164    73.3750   6   8   0.0095   0.0226   0.0408   0.0114  -0.0251  -0.0147   0.00    0.0
2021/10/15 02:38:12.000   28 35 34.11467  -17 55 01.60163    73.3746   6   8   0.0095   0.0226   0.0408   0.0114  -0.0251  -0.0147   0.00    0.0
2021/10/15 02:38:42.000   28 35 34.11468  -17 55 01.60162    73.3743   6   8   0.0095   0.0226   0.0407   0.0114  -0.0251  -0.0147   0.00    0.0
2021/10/15 02:39:12.000   28 35 34.11469  -17 55 01.60161    73.3745   6   8   0.0094   0.0226   0.0405   0.0114  -0.0251  -0.0146   0.00    0.0
2021/10/15 02:39:42.000   28 35 34.11472  -17 55 01.60158    73.3713   6   8   0.0093   0.0225   0.0401   0.0114  -0.0250  -0.0145   0.00    0.0
2021/10/15 02:40:12.000   28 35 34.11473  -17 55 01.60157    73.3677   6   8   0.0093   0.0225   0.0400   0.0114  -0.0250  -0.0145   0.00    0.0
2021/10/15 02:40:42.000   28 35 34.11474  -17 55 01.60156    73.3660   6   8   0.0093   0.0225   0.0399   0.0114  -0.0250  -0.0144   0.00    0.0
2021/10/15 02:41:12.000   28 35 34.11475  -17 55 01.60155    73.3654   6   8   0.0093   0.0225   0.0399   0.0114  -0.0250  -0.0144   0.00    0.0
2021/10/15 02:41:42.000   28 35 34.11475  -17 55 01.60154    73.3652   6   8   0.0093   0.0225   0.0399   0.0113  -0.0250  -0.0144   0.00    0.0
2021/10/15 02:42:12.000   28 35 34.11475  -17 55 01.60153    73.3649   6   8   0.0093   0.0225   0.0399   0.0113  -0.0250  -0.0144   0.00    0.0
2021/10/15 02:42:42.000   28 35 34.11475  -17 55 01.60153    73.3651   6   8   0.0093   0.0225   0.0399   0.0113  -0.0250  -0.0144   0.00    0.0
2021/10/15 02:43:12.000   28 35 34.11475  -17 55 01.60153    73.3651   6   8   0.0093   0.0225   0.0399   0.0113  -0.0250  -0.0144   0.00    0.0
2021/10/15 02:43:42.000   28 35 34.11475  -17 55 01.60153    73.3652   6   8   0.0093   0.0225   0.0398   0.0113  -0.0249  -0.0144   0.00    0.0
2021/10/15 02:44:12.000   28 35 34.11474  -17 55 01.60154    73.3688   6   8   0.0092   0.0225   0.0397   0.0113  -0.0249  -0.0143   0.00    0.0
2021/10/15 02:44:42.000   28 35 34.11476  -17 55 01.60152    73.3674   6   8   0.0091   0.0225   0.0393   0.0113  -0.0249  -0.0142   0.00    0.0
2021/10/15 02:45:12.000   28 35 34.11477  -17 55 01.60150    73.3661   6   8   0.0091   0.0225   0.0392   0.0113  -0.0249  -0.0142   0.00    0.0
2021/10/15 02:45:42.000   28 35 34.11478  -17 55 01.60149    73.3654   6   8   0.0091   0.0225   0.0391   0.0113  -0.0248  -0.0142   0.00    0.0
2021/10/15 02:46:12.000   28 35 34.11478  -17 55 01.60148    73.3652   6   8   0.0091   0.0225   0.0391   0.0113  -0.0248  -0.0141   0.00    0.0
2021/10/15 02:46:42.000   28 35 34.11478  -17 55 01.60148    73.3651   6   8   0.0091   0.0224   0.0391   0.0113  -0.0248  -0.0141   0.00    0.0
2021/10/15 02:47:12.000   28 35 34.11478  -17 55 01.60148    73.3648   6   8   0.0091   0.0224   0.0391   0.0113  -0.0248  -0.0141   0.00    0.0
2021/10/15 02:47:42.000   28 35 34.11478  -17 55 01.60146    73.3643   6   8   0.0091   0.0224   0.0391   0.0113  -0.0248  -0.0141   0.00    0.0
2021/10/15 02:48:12.000   28 35 34.11479  -17 55 01.60145    73.3638   6   8   0.0091   0.0224   0.0391   0.0113  -0.0248  -0.0141   0.00    0.0
2021/10/15 02:48:42.000   28 35 34.11479  -17 55 01.60144    73.3632   6   8   0.0091   0.0224   0.0390   0.0113  -0.0248  -0.0141   0.00    0.0
2021/10/15 02:49:12.000   28 35 34.11480  -17 55 01.60144    73.3632   6   8   0.0090   0.0224   0.0389   0.0112  -0.0248  -0.0141   0.00    0.0
2021/10/15 02:49:42.000   28 35 34.11481  -17 55 01.60143    73.3635   6   8   0.0089   0.0224   0.0386   0.0112  -0.0247  -0.0139   0.00    0.0
2021/10/15 02:50:12.000   28 35 34.11482  -17 55 01.60143    73.3624   6   8   0.0089   0.0224   0.0385   0.0112  -0.0247  -0.0139   0.00    0.0
2021/10/15 02:50:42.000   28 35 34.11482  -17 55 01.60142    73.3620   6   8   0.0089   0.0224   0.0384   0.0112  -0.0247  -0.0139   0.00    0.0
2021/10/15 02:51:12.000   28 35 34.11483  -17 55 01.60142    73.3618   6   8   0.0089   0.0224   0.0384   0.0112  -0.0247  -0.0139   0.00    0.0
2021/10/15 02:51:42.000   28 35 34.11483  -17 55 01.60142    73.3616   6   8   0.0089   0.0224   0.0384   0.0112  -0.0247  -0.0139   0.00    0.0
2021/10/15 02:52:12.000   28 35 34.11483  -17 55 01.60141    73.3616   6   8   0.0089   0.0224   0.0384   0.0112  -0.0247  -0.0139   0.00    0.0
2021/10/15 02:52:42.000   28 35 34.11483  -17 55 01.60141    73.3614   6   8   0.0089   0.0224   0.0384   0.0112  -0.0247  -0.0139   0.00    0.0
2021/10/15 02:53:12.000   28 35 34.11483  -17 55 01.60140    73.3610   6   8   0.0089   0.0223   0.0384   0.0112  -0.0247  -0.0138   0.00    0.0
2021/10/15 02:53:42.000   28 35 34.11484  -17 55 01.60139    73.3598   6   8   0.0089   0.0223   0.0383   0.0112  -0.0246  -0.0138   0.00    0.0
2021/10/15 02:54:12.000   28 35 34.11485  -17 55 01.60137    73.3574   6   8   0.0088   0.0223   0.0382   0.0111  -0.0246  -0.0138   0.00    0.0
2021/10/15 02:54:42.000   28 35 34.11484  -17 55 01.60137    73.3577   6   8   0.0087   0.0223   0.0379   0.0111  -0.0246  -0.0137   0.00    0.0
2021/10/15 02:55:12.000   28 35 34.11482  -17 55 01.60139    73.3614   6   8   0.0087   0.0223   0.0378   0.0111  -0.0245  -0.0136   0.00    0.0
2021/10/15 02:55:42.000   28 35 34.11482  -17 55 01.60139    73.3621   6   8   0.0087   0.0223   0.0378   0.0111  -0.0245  -0.0136   0.00    0.0
2021/10/15 02:56:12.000   28 35 34.11482  -17 55 01.60139    73.3620   6   8   0.0087   0.0223   0.0378   0.0111  -0.0245  -0.0136   0.00    0.0
2021/10/15 02:56:42.000   28 35 34.11482  -17 55 01.60138    73.3618   6   8   0.0087   0.0223   0.0378   0.0111  -0.0245  -0.0136   0.00    0.0
2021/10/15 02:57:12.000   28 35 34.11482  -17 55 01.60137    73.3617   6   8   0.0087   0.0223   0.0378   0.0111  -0.0245  -0.0136   0.00    0.0
2021/10/15 02:57:42.000   28 35 34.11482  -17 55 01.60137    73.3615   6   8   0.0087   0.0222   0.0378   0.0111  -0.0245  -0.0136   0.00    0.0
2021/10/15 02:58:12.000   28 35 34.11481  -17 55 01.60138    73.3624   6   8   0.0087   0.0222   0.0377   0.0111  -0.0245  -0.0136   0.00    0.0
2021/10/15 02:58:42.000   28 35 34.11479  -17 55 01.60139    73.3646   6   8   0.0087   0.0222   0.0377   0.0110  -0.0245  -0.0136   0.00    0.0
2021/10/15 02:59:12.000   28 35 34.11476  -17 55 01.60142    73.3688   6   8   0.0086   0.0222   0.0376   0.0110  -0.0245  -0.0135   0.00    0.0
2021/10/15 02:59:42.000   28 35 34.11476  -17 55 01.60142    73.3690   6   8   0.0085   0.0222   0.0373   0.0110  -0.0244  -0.0134   0.00    0.0
2021/10/15 03:00:12.000   28 35 34.11477  -17 55 01.60141    73.3669   6   8   0.0085   0.0222   0.0373   0.0109  -0.0244  -0.0133   0.00    0.0
2021/10/15 03:00:42.000   28 35 34.11477  -17 55 01.60140    73.3673   6   8   0.0085   0.0221   0.0372   0.0109  -0.0244  -0.0133   0.00    0.0
2021/10/15 03:01:12.000   28 35 34.11477  -17 55 01.60140    73.3678   6   8   0.0085   0.0221   0.0372   0.0109  -0.0243  -0.0133   0.00    0.0
2021/10/15 03:01:42.000   28 35 34.11477  -17 55 01.60139    73.3680   6   8   0.0085   0.0221   0.0372   0.0109  -0.0243  -0.0133   0.00    0.0
2021/10/15 03:02:12.000   28 35 34.11477  -17 55 01.60139    73.3679   6   8   0.0085   0.0221   0.0372   0.0109  -0.0243  -0.0133   0.00    0.0
2021/10/15 03:02:42.000   28 35 34.11477  -17 55 01.60138    73.3678   6   8   0.0085   0.0221   0.0372   0.0109  -0.0243  -0.0133   0.00    0.0
2021/10/15 03:03:12.000   28 35 34.11477  -17 55 01.60137    73.3675   6   8   0.0085   0.0221   0.0372   0.0109  -0.0243  -0.0133   0.00    0.0
2021/10/15 03:03:42.000   28 35 34.11477  -17 55 01.60136    73.3675   6   9   0.0085   0.0221   0.0371   0.0109  -0.0243  -0.0133   0.00    0.0
2021/10/15 03:04:12.000   28 35 34.11478  -17 55 01.60135    73.3682   6   9   0.0085   0.0221   0.0370   0.0109  -0.0243  -0.0132   0.00    0.0
2021/10/15 03:04:42.000   28 35 34.11479  -17 55 01.60134    73.3679   6   9   0.0084   0.0220   0.0368   0.0108  -0.0242  -0.0131   0.00    0.0
2021/10/15 03:05:12.000   28 35 34.11480  -17 55 01.60133    73.3663   6   9   0.0083   0.0220   0.0367   0.0108  -0.0241  -0.0131   0.00    0.0
2021/10/15 03:05:42.000   28 35 34.11480  -17 55 01.60132    73.3671   6   9   0.0083   0.0220   0.0366   0.0108  -0.0241  -0.0130   0.00    0.0
2021/10/15 03:06:12.000   28 35 34.11480  -17 55 01.60131    73.3669   6   9   0.0083   0.0220   0.0366   0.0108  -0.0241  -0.0130   0.00    0.0
2021/10/15 03:06:42.000   28 35 34.11480  -17 55 01.60131    73.3668   6   9   0.0083   0.0220   0.0366   0.0108  -0.0241  -0.0130   0.00    0.0
2021/10/15 03:07:12.000   28 35 34.11480  -17 55 01.60131    73.3667   6   9   0.0083   0.0220   0.0366   0.0108  -0.0241  -0.0130   0.00    0.0
2021/10/15 03:07:42.000   28 35 34.11480  -17 55 01.60131    73.3666   6   9   0.0083   0.0219   0.0366   0.0108  -0.0241  -0.0130   0.00    0.0
2021/10/15 03:08:12.000   28 35 34.11481  -17 55 01.60129    73.3657   6   9   0.0083   0.0219   0.0365   0.0108  -0.0241  -0.0130   0.00    0.0
2021/10/15 03:08:42.000   28 35 34.11482  -17 55 01.60127    73.3640   6   9   0.0083   0.0219   0.0365   0.0107  -0.0241  -0.0130   0.00    0.0
2021/10/15 03:09:12.000   28 35 34.11483  -17 55 01.60124    73.3629   6   9   0.0083   0.0219   0.0364   0.0107  -0.0240  -0.0129   0.00    0.0
2021/10/15 03:09:42.000   28 35 34.11483  -17 55 01.60123    73.3619   6   9   0.0082   0.0218   0.0360   0.0106  -0.0239  -0.0128   0.00    0.0
2021/10/15 03:10:12.000   28 35 34.11483  -17 55 01.60121    73.3608   6   9   0.0081   0.0218   0.0359   0.0106  -0.0238  -0.0127   0.00    0.0
2021/10/15 03:10:42.000   28 35 34.11484  -17 55 01.60119    73.3601   6   9   0.0081   0.0217   0.0359   0.0106  -0.0238  -0.0127   0.00    0.0
2021/10/15 03:11:12.000   28 35 34.11484  -17 55 01.60119    73.3598   6   9   0.0081   0.0217   0.0358   0.0106  -0.0238  -0.0127   0.00    0.0
2021/10/15 03:11:42.000   28 35 34.11484  -17 55 01.60118    73.3597   6   9   0.0081   0.0217   0.0358   0.0106  -0.0238  -0.0127   0.00    0.0
2021/10/15 03:12:12.000   28 35 34.11484  -17 55 01.60117    73.3596   6   9   0.0081   0.0217   0.0358   0.0106  -0.0238  -0.0127   0.00    0.0
2021/10/15 03:12:42.000   28 35 34.11483  -17 55 01.60118    73.3596   6   9   0.0081   0.0217   0.0358   0.0106  -0.0238  -0.0127   0.00    0.0
2021/10/15 03:13:12.000   28 35 34.11483  -17 55 01.60117    73.3591   6   9   0.0081   0.0217   0.0358   0.0106  -0.0238  -0.0127   0.00    0.0
2021/10/15 03:13:42.000   28 35 34.11483  -17 55 01.60116    73.3585   6   9   0.0081   0.0217   0.0357   0.0105  -0.0237  -0.0126   0.00    0.0
2021/10/15 03:14:12.000   28 35 34.11483  -17 55 01.60115    73.3580   6   9   0.0081   0.0216   0.0355   0.0105  -0.0237  -0.0126   0.00    0.0
2021/10/15 03:14:42.000   28 35 34.11483  -17 55 01.60112    73.3546   6   9   0.0080   0.0215   0.0351   0.0104  -0.0235  -0.0124   0.00    0.0
2021/10/15 03:15:12.000   28 35 34.11481  -17 55 01.60113    73.3560   6   9   0.0079   0.0215   0.0350   0.0104  -0.0234  -0.0123   0.00    0.0
2021/10/15 03:15:42.000   28 35 34.11480  -17 55 01.60114    73.3574   6   9   0.0079   0.0215   0.0349   0.0104  -0.0234  -0.0123   0.00    0.0
2021/10/15 03:16:12.000   28 35 34.11479  -17 55 01.60113    73.3576   6   9   0.0079   0.0215   0.0349   0.0104  -0.0234  -0.0123   0.00    0.0
2021/10/15 03:16:42.000   28 35 34.11480  -17 55 01.60112    73.3573   6   9   0.0079   0.0214   0.0349   0.0104  -0.0234  -0.0123   0.00    0.0
2021/10/15 03:17:12.000   28 35 34.11480  -17 55 01.60112    73.3572   6   9   0.0079   0.0214   0.0349   0.0103  -0.0234  -0.0123   0.00    0.0
2021/10/15 03:17:42.000   28 35 34.11480  -17 55 01.60111    73.3569   6   9   0.0079   0.0214   0.0349   0.0103  -0.0234  -0.0123   0.00    0.0
2021/10/15 03:18:12.000   28 35 34.11480  -17 55 01.60110    73.3562   6   9   0.0079   0.0214   0.0348   0.0103  -0.0233  -0.0123   0.00    0.0
2021/10/15 03:18:42.000   28 35 34.11480  -17 55 01.60109    73.3566   6   9   0.0079   0.0214   0.0347   0.0103  -0.0233  -0.0122   0.00    0.0
2021/10/15 03:19:12.000   28 35 34.11480  -17 55 01.60108    73.3582   6   9   0.0079   0.0213   0.0345   0.0103  -0.0232  -0.0122   0.00    0.0
2021/10/15 03:19:42.000   28 35 34.11481  -17 55 01.60105    73.3578   6   9   0.0078   0.0212   0.0341   0.0102  -0.0230  -0.0120   0.00    0.0
2021/10/15 03:20:12.000   28 35 34.11482  -17 55 01.60103    73.3562   6   9   0.0077   0.0211   0.0339   0.0101  -0.0229  -0.0119   0.00    0.0
2021/10/15 03:20:42.000   28 35 34.11483  -17 55 01.60100    73.3540   6   9   0.0077   0.0211   0.0339   0.0101  -0.0229  -0.0119   0.00    0.0
2021/10/15 03:21:12.000   28 35 34.11483  -17 55 01.60099    73.3535   6   8   0.0077   0.0211   0.0339   0.0101  -0.0229  -0.0119   0.00    0.0
2021/10/15 03:21:42.000   28 35 34.11484  -17 55 01.60098    73.3532   6   8   0.0077   0.0211   0.0338   0.0101  -0.0229  -0.0119   0.00    0.0
2021/10/15 03:22:12.000   28 35 34.11484  -17 55 01.60096    73.3528   6   8   0.0077   0.0211   0.0338   0.0101  -0.0229  -0.0119   0.00    0.0
2021/10/15 03:22:42.000   28 35 34.11484  -17 55 01.60096    73.3528   6   8   0.0077   0.0211   0.0338   0.0101  -0.0229  -0.0119   0.00    0.0
2021/10/15 03:23:12.000   28 35 34.11484  -17 55 01.60096    73.3529   6   8   0.0077   0.0211   0.0338   0.0101  -0.0229  -0.0119   0.00    0.0
