% program   : RTKLIB ver.2.4.2
% inp file  : C:\IPNA\data\OBS\CVBB2940.o
% inp file  : C:\IPNA\data\NAV\CVBB2940.n
% inp file  : C:\IPNA\data\SP3\CVBB2940.sp3
% inp file  : C:\IPNA\data\CLOCK\CVBB2940.clk
% obs start : 2021/10/20 23:59:42.0 UTC (week2180 345600.0s)
% obs end   : 2021/10/21 23:59:12.0 UTC (week2180 431970.0s)
% pos mode  : ppp-static
% solution  : forward
% elev mask : 15.0 deg
% dynamics  : off
% tidecorr  : on
% tropo opt : est ztd
% ephemeris : precise
% antenna1  :                       ( 0.0000  0.0000  0.0000)
%
% (lat/lon/height=WGS84/ellipsoidal,Q=1:fix,2:float,3:sbas,4:dgps,5:single,6:ppp,ns=# of satellites)
%  UTC                     latitude(d'")   longitude(d'")  height(m)   Q  ns   sdn(m)   sde(m)   sdu(m)  sdne(m)  sdeu(m)  sdue(m) age(s)  ratio
2021/10/20 23:59:42.000   28 35 34.05627  -17 55 01.59876    75.0142   6   7   1.5841   1.4534   3.2939   0.5929   0.6127  -0.9248   0.00    0.0
2021/10/21 00:00:12.000   28 35 34.06485  -17 55 01.60426    75.1275   6   7   1.1071   1.0269   2.2671   0.4175   0.4162  -0.6442   0.00    0.0
2021/10/21 00:00:42.000   28 35 34.07621  -17 55 01.61056    74.3914   6   7   0.8987   0.8385   1.8288   0.3411   0.3344  -0.5200   0.00    0.0
2021/10/21 00:01:12.000   28 35 34.08483  -17 55 01.60243    74.0621   6   7   0.7757   0.7265   1.5753   0.2963   0.2882  -0.4450   0.00    0.0
2021/10/21 00:01:42.000   28 35 34.08443  -17 55 01.60237    74.0194   6   7   0.6924   0.6503   1.4064   0.2661   0.2580  -0.3929   0.00    0.0
2021/10/21 00:02:12.000   28 35 34.08602  -17 55 01.60489    74.0752   6   7   0.6314   0.5941   1.2844   0.2441   0.2365  -0.3538   0.00    0.0
2021/10/21 00:02:42.000   28 35 34.08420  -17 55 01.60653    73.9653   6   7   0.5800   0.5499   1.1752   0.2258   0.2158  -0.3225   0.00    0.0
2021/10/21 00:03:12.000   28 35 34.08500  -17 55 01.60320    73.8039   6   7   0.5318   0.5134   1.0667   0.2088   0.1933  -0.2946   0.00    0.0
2021/10/21 00:03:42.000   28 35 34.08655  -17 55 01.60087    73.6264   6   7   0.4791   0.4813   0.9453   0.1907   0.1662  -0.2620   0.00    0.0
2021/10/21 00:04:12.000   28 35 34.09154  -17 55 01.60086    73.4218   6   7   0.4086   0.4493   0.7953   0.1671   0.1306  -0.2064   0.00    0.0
2021/10/21 00:04:42.000   28 35 34.09085  -17 55 01.60267    73.4114   6   7   0.3265   0.4134   0.6452   0.1380   0.0895  -0.1283   0.00    0.0
2021/10/21 00:05:12.000   28 35 34.08967  -17 55 01.60325    73.5149   6   7   0.3079   0.3948   0.6154   0.1316   0.0882  -0.1110   0.00    0.0
2021/10/21 00:05:42.000   28 35 34.08954  -17 55 01.60281    73.5488   6   7   0.2980   0.3802   0.6008   0.1281   0.0898  -0.1016   0.00    0.0
2021/10/21 00:06:12.000   28 35 34.08941  -17 55 01.60252    73.5667   6   7   0.2906   0.3675   0.5904   0.1253   0.0915  -0.0944   0.00    0.0
2021/10/21 00:06:42.000   28 35 34.09004  -17 55 01.60292    73.5727   6   7   0.2844   0.3562   0.5820   0.1230   0.0930  -0.0880   0.00    0.0
2021/10/21 00:07:12.000   28 35 34.09050  -17 55 01.60381    73.5623   6   7   0.2790   0.3461   0.5745   0.1210   0.0943  -0.0821   0.00    0.0
2021/10/21 00:07:42.000   28 35 34.09098  -17 55 01.60509    73.5428   6   7   0.2727   0.3365   0.5653   0.1187   0.0950  -0.0749   0.00    0.0
2021/10/21 00:08:12.000   28 35 34.09167  -17 55 01.60410    73.5058   6   7   0.2646   0.3270   0.5523   0.1160   0.0946  -0.0649   0.00    0.0
2021/10/21 00:08:42.000   28 35 34.09328  -17 55 01.60279    73.4400   6   7   0.2518   0.3170   0.5305   0.1117   0.0923  -0.0479   0.00    0.0
2021/10/21 00:09:12.000   28 35 34.09689  -17 55 01.60224    73.3595   6   8   0.2263   0.3023   0.4852   0.1016   0.0815   0.0191   0.00    0.0
2021/10/21 00:09:42.000   28 35 34.10286  -17 55 01.60032    73.3254   6   8   0.1840   0.2780   0.4099   0.0838   0.0533   0.0478   0.00    0.0
2021/10/21 00:10:12.000   28 35 34.10421  -17 55 01.60002    73.3872   6   8   0.1752   0.2690   0.3926   0.0801   0.0504   0.0510   0.00    0.0
2021/10/21 00:10:42.000   28 35 34.10455  -17 55 01.59992    73.4512   6   8   0.1715   0.2628   0.3854   0.0781   0.0495   0.0520   0.00    0.0
2021/10/21 00:11:12.000   28 35 34.10468  -17 55 01.59996    73.4662   6   8   0.1692   0.2575   0.3809   0.0767   0.0488   0.0525   0.00    0.0
2021/10/21 00:11:42.000   28 35 34.10486  -17 55 01.59909    73.4837   6   8   0.1673   0.2527   0.3776   0.0754   0.0482   0.0529   0.00    0.0
2021/10/21 00:12:12.000   28 35 34.10495  -17 55 01.59906    73.4926   6   8   0.1658   0.2483   0.3748   0.0743   0.0476   0.0532   0.00    0.0
2021/10/21 00:12:42.000   28 35 34.10490  -17 55 01.59940    73.4961   6   8   0.1638   0.2438   0.3710   0.0730   0.0463   0.0533   0.00    0.0
2021/10/21 00:13:12.000   28 35 34.10485  -17 55 01.59931    73.4971   6   8   0.1608   0.2390   0.3648   0.0713   0.0437   0.0529   0.00    0.0
2021/10/21 00:13:42.000   28 35 34.10572  -17 55 01.59964    73.4189   6   8   0.1556   0.2331   0.3536   0.0687   0.0379   0.0516   0.00    0.0
2021/10/21 00:14:12.000   28 35 34.10798  -17 55 01.59923    73.3413   6   8   0.1436   0.2233   0.3286   0.0635   0.0216   0.0474   0.00    0.0
2021/10/21 00:14:42.000   28 35 34.11213  -17 55 01.59959    73.3777   6   8   0.1201   0.2040   0.2828   0.0532  -0.0349   0.0371   0.00    0.0
2021/10/21 00:15:12.000   28 35 34.11348  -17 55 01.59903    73.3979   6   8   0.1151   0.1981   0.2713   0.0510  -0.0360   0.0357   0.00    0.0
2021/10/21 00:15:42.000   28 35 34.11393  -17 55 01.59902    73.3751   6   8   0.1132   0.1948   0.2668   0.0500  -0.0360   0.0353   0.00    0.0
2021/10/21 00:16:12.000   28 35 34.11406  -17 55 01.59889    73.3674   6   8   0.1120   0.1921   0.2643   0.0493  -0.0358   0.0352   0.00    0.0
2021/10/21 00:16:42.000   28 35 34.11410  -17 55 01.59882    73.3683   6   8   0.1113   0.1899   0.2625   0.0488  -0.0356   0.0351   0.00    0.0
2021/10/21 00:17:12.000   28 35 34.11421  -17 55 01.59855    73.3598   6   8   0.1106   0.1878   0.2611   0.0483  -0.0354   0.0352   0.00    0.0
2021/10/21 00:17:42.000   28 35 34.11440  -17 55 01.59817    73.3332   6   8   0.1097   0.1855   0.2591   0.0477  -0.0355   0.0350   0.00    0.0
2021/10/21 00:18:12.000   28 35 34.11478  -17 55 01.59787    73.3035   6   8   0.1083   0.1829   0.2558   0.0469  -0.0360   0.0344   0.00    0.0
2021/10/21 00:18:42.000   28 35 34.11521  -17 55 01.59763    73.3006   6   8   0.1057   0.1792   0.2496   0.0456  -0.0373   0.0329   0.00    0.0
2021/10/21 00:19:12.000   28 35 34.11635  -17 55 01.59799    73.2584   6   8   0.0992   0.1721   0.2354   0.0428  -0.0401   0.0286   0.00    0.0
2021/10/21 00:19:42.000   28 35 34.11736  -17 55 01.59828    73.2566   6   8   0.0852   0.1564   0.2075   0.0373  -0.0454   0.0163   0.00    0.0
2021/10/21 00:20:12.000   28 35 34.11807  -17 55 01.59786    73.2474   6   7   0.0823   0.1522   0.2007   0.0361  -0.0443   0.0168   0.00    0.0
2021/10/21 00:20:42.000   28 35 34.11845  -17 55 01.59766    73.2542   6   7   0.0812   0.1501   0.1981   0.0356  -0.0436   0.0174   0.00    0.0
2021/10/21 00:21:12.000   28 35 34.11852  -17 55 01.59716    73.2637   6   7   0.0806   0.1487   0.1967   0.0353  -0.0431   0.0178   0.00    0.0
2021/10/21 00:21:42.000   28 35 34.11854  -17 55 01.59697    73.2604   6   7   0.0802   0.1474   0.1958   0.0350  -0.0427   0.0182   0.00    0.0
2021/10/21 00:22:12.000   28 35 34.11857  -17 55 01.59646    73.2566   6   7   0.0799   0.1464   0.1951   0.0349  -0.0424   0.0185   0.00    0.0
2021/10/21 00:22:42.000   28 35 34.11859  -17 55 01.59587    73.2578   6   6   0.0795   0.1452   0.1942   0.0347  -0.0423   0.0185   0.00    0.0
2021/10/21 00:23:12.000   28 35 34.11865  -17 55 01.59565    73.2587   6   6   0.0788   0.1438   0.1927   0.0345  -0.0423   0.0183   0.00    0.0
2021/10/21 00:23:42.000   28 35 34.11892  -17 55 01.59554    73.2464   6   6   0.0775   0.1415   0.1898   0.0341  -0.0424   0.0174   0.00    0.0
2021/10/21 00:24:12.000   28 35 34.11954  -17 55 01.59558    73.2272   6   6   0.0740   0.1365   0.1829   0.0330  -0.0432   0.0141   0.00    0.0
2021/10/21 00:24:42.000   28 35 34.11925  -17 55 01.59629    73.2269   6   6   0.0653   0.1245   0.1673   0.0303  -0.0457  -0.0103   0.00    0.0
2021/10/21 00:25:12.000   28 35 34.11912  -17 55 01.59644    73.1963   6   6   0.0634   0.1214   0.1633   0.0297  -0.0455  -0.0115   0.00    0.0
2021/10/21 00:25:42.000   28 35 34.11903  -17 55 01.59635    73.1918   6   6   0.0628   0.1201   0.1618   0.0295  -0.0452  -0.0117   0.00    0.0
2021/10/21 00:26:12.000   28 35 34.11900  -17 55 01.59630    73.1888   6   6   0.0624   0.1192   0.1610   0.0294  -0.0450  -0.0117   0.00    0.0
2021/10/21 00:26:42.000   28 35 34.11891  -17 55 01.59606    73.1934   6   6   0.0622   0.1185   0.1605   0.0293  -0.0449  -0.0116   0.00    0.0
2021/10/21 00:27:12.000   28 35 34.11886  -17 55 01.59592    73.1945   6   6   0.0620   0.1180   0.1601   0.0292  -0.0448  -0.0115   0.00    0.0
2021/10/21 00:27:42.000   28 35 34.11874  -17 55 01.59571    73.1968   6   6   0.0617   0.1173   0.1596   0.0291  -0.0447  -0.0115   0.00    0.0
2021/10/21 00:28:12.000   28 35 34.11859  -17 55 01.59566    73.1972   6   6   0.0613   0.1163   0.1587   0.0289  -0.0445  -0.0117   0.00    0.0
2021/10/21 00:28:42.000   28 35 34.11851  -17 55 01.59558    73.1955   6   6   0.0604   0.1147   0.1570   0.0287  -0.0443  -0.0123   0.00    0.0
2021/10/21 00:29:12.000   28 35 34.11851  -17 55 01.59591    73.1883   6   6   0.0581   0.1110   0.1528   0.0280  -0.0443  -0.0144   0.00    0.0
2021/10/21 00:29:42.000   28 35 34.11811  -17 55 01.59698    73.1929   6   6   0.0522   0.1016   0.1431   0.0264  -0.0454  -0.0199   0.00    0.0
2021/10/21 00:30:12.000   28 35 34.11779  -17 55 01.59724    73.1954   6   6   0.0508   0.0993   0.1405   0.0260  -0.0450  -0.0203   0.00    0.0
2021/10/21 00:30:42.000   28 35 34.11763  -17 55 01.59727    73.1975   6   6   0.0503   0.0983   0.1395   0.0258  -0.0448  -0.0203   0.00    0.0
2021/10/21 00:31:12.000   28 35 34.11752  -17 55 01.59736    73.2011   6   6   0.0501   0.0978   0.1390   0.0257  -0.0446  -0.0203   0.00    0.0
2021/10/21 00:31:42.000   28 35 34.11744  -17 55 01.59729    73.2045   6   6   0.0499   0.0973   0.1387   0.0256  -0.0445  -0.0203   0.00    0.0
2021/10/21 00:32:12.000   28 35 34.11739  -17 55 01.59735    73.2069   6   6   0.0498   0.0969   0.1384   0.0256  -0.0444  -0.0203   0.00    0.0
2021/10/21 00:32:42.000   28 35 34.11738  -17 55 01.59728    73.2069   6   6   0.0497   0.0965   0.1381   0.0255  -0.0443  -0.0202   0.00    0.0
2021/10/21 00:33:12.000   28 35 34.11745  -17 55 01.59713    73.2049   6   6   0.0494   0.0958   0.1375   0.0254  -0.0442  -0.0203   0.00    0.0
2021/10/21 00:33:42.000   28 35 34.11759  -17 55 01.59711    73.2040   6   6   0.0488   0.0947   0.1365   0.0252  -0.0440  -0.0205   0.00    0.0
2021/10/21 00:34:12.000   28 35 34.11770  -17 55 01.59726    73.2092   6   6   0.0472   0.0919   0.1339   0.0249  -0.0438  -0.0214   0.00    0.0
2021/10/21 00:34:42.000   28 35 34.11739  -17 55 01.59775    73.2275   6   6   0.0429   0.0846   0.1279   0.0241  -0.0442  -0.0245   0.00    0.0
2021/10/21 00:35:12.000   28 35 34.11714  -17 55 01.59788    73.2403   6   6   0.0420   0.0828   0.1262   0.0238  -0.0440  -0.0247   0.00    0.0
2021/10/21 00:35:42.000   28 35 34.11710  -17 55 01.59776    73.2363   6   6   0.0416   0.0822   0.1255   0.0237  -0.0438  -0.0247   0.00    0.0
2021/10/21 00:36:12.000   28 35 34.11707  -17 55 01.59769    73.2363   6   6   0.0415   0.0818   0.1252   0.0236  -0.0437  -0.0247   0.00    0.0
2021/10/21 00:36:42.000   28 35 34.11703  -17 55 01.59769    73.2366   6   6   0.0414   0.0815   0.1250   0.0235  -0.0436  -0.0247   0.00    0.0
2021/10/21 00:37:12.000   28 35 34.11701  -17 55 01.59768    73.2379   6   6   0.0413   0.0812   0.1249   0.0235  -0.0436  -0.0247   0.00    0.0
2021/10/21 00:37:42.000   28 35 34.11698  -17 55 01.59755    73.2391   6   6   0.0412   0.0809   0.1247   0.0234  -0.0435  -0.0247   0.00    0.0
2021/10/21 00:38:12.000   28 35 34.11695  -17 55 01.59744    73.2407   6   6   0.0410   0.0804   0.1243   0.0233  -0.0434  -0.0247   0.00    0.0
2021/10/21 00:38:42.000   28 35 34.11685  -17 55 01.59750    73.2482   6   6   0.0405   0.0796   0.1237   0.0232  -0.0433  -0.0248   0.00    0.0
2021/10/21 00:39:12.000   28 35 34.11647  -17 55 01.59791    73.2615   6   6   0.0394   0.0776   0.1222   0.0230  -0.0433  -0.0254   0.00    0.0
2021/10/21 00:39:42.000   28 35 34.11625  -17 55 01.59818    73.2695   6   6   0.0364   0.0720   0.1185   0.0225  -0.0439  -0.0273   0.00    0.0
2021/10/21 00:40:12.000   28 35 34.11621  -17 55 01.59820    73.2709   6   6   0.0357   0.0706   0.1175   0.0223  -0.0438  -0.0275   0.00    0.0
2021/10/21 00:40:42.000   28 35 34.11621  -17 55 01.59820    73.2728   6   6   0.0355   0.0701   0.1171   0.0222  -0.0437  -0.0275   0.00    0.0
2021/10/21 00:41:12.000   28 35 34.11619  -17 55 01.59819    73.2744   6   6   0.0354   0.0698   0.1169   0.0221  -0.0437  -0.0276   0.00    0.0
2021/10/21 00:41:42.000   28 35 34.11620  -17 55 01.59812    73.2753   6   6   0.0353   0.0696   0.1168   0.0221  -0.0436  -0.0275   0.00    0.0
2021/10/21 00:42:12.000   28 35 34.11620  -17 55 01.59807    73.2767   6   6   0.0352   0.0694   0.1167   0.0220  -0.0436  -0.0275   0.00    0.0
2021/10/21 00:42:42.000   28 35 34.11619  -17 55 01.59804    73.2788   6   6   0.0351   0.0692   0.1166   0.0220  -0.0436  -0.0275   0.00    0.0
2021/10/21 00:43:12.000   28 35 34.11620  -17 55 01.59795    73.2795   6   6   0.0350   0.0689   0.1164   0.0219  -0.0435  -0.0276   0.00    0.0
2021/10/21 00:43:42.000   28 35 34.11620  -17 55 01.59791    73.2816   6   6   0.0347   0.0683   0.1160   0.0219  -0.0435  -0.0277   0.00    0.0
2021/10/21 00:44:12.000   28 35 34.11622  -17 55 01.59791    73.2785   6   6   0.0339   0.0668   0.1152   0.0217  -0.0436  -0.0281   0.00    0.0
2021/10/21 00:44:42.000   28 35 34.11618  -17 55 01.59824    73.2776   6   6   0.0318   0.0625   0.1130   0.0214  -0.0443  -0.0296   0.00    0.0
2021/10/21 00:45:12.000   28 35 34.11615  -17 55 01.59829    73.2806   6   6   0.0313   0.0615   0.1125   0.0213  -0.0443  -0.0298   0.00    0.0
2021/10/21 00:45:42.000   28 35 34.11620  -17 55 01.59824    73.2827   6   6   0.0311   0.0611   0.1122   0.0213  -0.0443  -0.0299   0.00    0.0
2021/10/21 00:46:12.000   28 35 34.11621  -17 55 01.59822    73.2857   6   6   0.0310   0.0609   0.1121   0.0212  -0.0443  -0.0299   0.00    0.0
2021/10/21 00:46:42.000   28 35 34.11620  -17 55 01.59821    73.2872   6   6   0.0309   0.0607   0.1121   0.0212  -0.0443  -0.0299   0.00    0.0
2021/10/21 00:47:12.000   28 35 34.11618  -17 55 01.59817    73.2875   6   6   0.0309   0.0606   0.1120   0.0212  -0.0442  -0.0299   0.00    0.0
2021/10/21 00:47:42.000   28 35 34.11618  -17 55 01.59814    73.2876   6   6   0.0308   0.0605   0.1119   0.0211  -0.0442  -0.0299   0.00    0.0
2021/10/21 00:48:12.000   28 35 34.11617  -17 55 01.59815    73.2870   6   6   0.0307   0.0602   0.1118   0.0211  -0.0442  -0.0300   0.00    0.0
2021/10/21 00:48:42.000   28 35 34.11613  -17 55 01.59813    73.2856   6   6   0.0305   0.0598   0.1116   0.0211  -0.0442  -0.0301   0.00    0.0
2021/10/21 00:49:12.000   28 35 34.11598  -17 55 01.59822    73.2802   6   6   0.0300   0.0587   0.1112   0.0210  -0.0444  -0.0305   0.00    0.0
2021/10/21 00:49:42.000   28 35 34.11596  -17 55 01.59832    73.2773   6   6   0.0283   0.0554   0.1098   0.0209  -0.0453  -0.0318   0.00    0.0
2021/10/21 00:50:12.000   28 35 34.11593  -17 55 01.59827    73.2758   6   6   0.0280   0.0546   0.1095   0.0208  -0.0453  -0.0320   0.00    0.0
2021/10/21 00:50:42.000   28 35 34.11592  -17 55 01.59823    73.2753   6   6   0.0278   0.0543   0.1094   0.0208  -0.0453  -0.0321   0.00    0.0
2021/10/21 00:51:12.000   28 35 34.11591  -17 55 01.59817    73.2748   6   6   0.0278   0.0542   0.1093   0.0208  -0.0453  -0.0321   0.00    0.0
2021/10/21 00:51:42.000   28 35 34.11590  -17 55 01.59810    73.2759   6   6   0.0277   0.0541   0.1092   0.0208  -0.0453  -0.0321   0.00    0.0
2021/10/21 00:52:12.000   28 35 34.11589  -17 55 01.59803    73.2767   6   6   0.0277   0.0540   0.1092   0.0208  -0.0453  -0.0321   0.00    0.0
2021/10/21 00:52:42.000   28 35 34.11589  -17 55 01.59800    73.2775   6   6   0.0277   0.0539   0.1091   0.0207  -0.0453  -0.0321   0.00    0.0
2021/10/21 00:53:12.000   28 35 34.11590  -17 55 01.59799    73.2781   6   6   0.0276   0.0537   0.1091   0.0207  -0.0453  -0.0322   0.00    0.0
2021/10/21 00:53:42.000   28 35 34.11591  -17 55 01.59800    73.2795   6   6   0.0275   0.0534   0.1089   0.0207  -0.0453  -0.0323   0.00    0.0
2021/10/21 00:54:12.000   28 35 34.11595  -17 55 01.59807    73.2856   6   6   0.0271   0.0525   0.1085   0.0207  -0.0455  -0.0326   0.00    0.0
2021/10/21 00:54:42.000   28 35 34.11595  -17 55 01.59824    73.2890   6   6   0.0259   0.0501   0.1073   0.0208  -0.0463  -0.0336   0.00    0.0
2021/10/21 00:55:12.000   28 35 34.11593  -17 55 01.59826    73.2891   6   6   0.0257   0.0495   0.1070   0.0208  -0.0464  -0.0337   0.00    0.0
2021/10/21 00:55:42.000   28 35 34.11594  -17 55 01.59825    73.2893   6   6   0.0256   0.0493   0.1069   0.0208  -0.0464  -0.0338   0.00    0.0
2021/10/21 00:56:12.000   28 35 34.11593  -17 55 01.59823    73.2884   6   6   0.0255   0.0492   0.1068   0.0207  -0.0464  -0.0338   0.00    0.0
2021/10/21 00:56:42.000   28 35 34.11593  -17 55 01.59821    73.2890   6   6   0.0255   0.0491   0.1068   0.0207  -0.0463  -0.0338   0.00    0.0
2021/10/21 00:57:12.000   28 35 34.11592  -17 55 01.59817    73.2902   6   6   0.0255   0.0490   0.1067   0.0207  -0.0463  -0.0338   0.00    0.0
2021/10/21 00:57:42.000   28 35 34.11593  -17 55 01.59810    73.2910   6   5   0.0254   0.0490   0.1067   0.0207  -0.0463  -0.0338   0.00    0.0
2021/10/21 00:58:12.000   28 35 34.11595  -17 55 01.59803    73.2919   6   5   0.0254   0.0488   0.1066   0.0207  -0.0463  -0.0339   0.00    0.0
2021/10/21 00:58:42.000   28 35 34.11599  -17 55 01.59795    73.2929   6   5   0.0253   0.0486   0.1065   0.0207  -0.0464  -0.0339   0.00    0.0
2021/10/21 00:59:12.000   28 35 34.11603  -17 55 01.59799    73.2958   6   5   0.0250   0.0480   0.1061   0.0207  -0.0465  -0.0341   0.00    0.0
2021/10/21 00:59:42.000   28 35 34.11602  -17 55 01.59826    73.2963   6   5   0.0242   0.0462   0.1050   0.0209  -0.0472  -0.0347   0.00    0.0
2021/10/21 01:00:12.000   28 35 34.11604  -17 55 01.59829    73.3004   6   5   0.0240   0.0457   0.1047   0.0209  -0.0473  -0.0348   0.00    0.0
2021/10/21 01:00:42.000   28 35 34.11605  -17 55 01.59830    73.3041   6   5   0.0239   0.0456   0.1046   0.0209  -0.0473  -0.0348   0.00    0.0
2021/10/21 01:01:12.000   28 35 34.11605  -17 55 01.59830    73.3054   6   5   0.0239   0.0455   0.1045   0.0209  -0.0473  -0.0348   0.00    0.0
2021/10/21 01:01:42.000   28 35 34.11604  -17 55 01.59832    73.3067   6   5   0.0238   0.0454   0.1045   0.0208  -0.0473  -0.0348   0.00    0.0
2021/10/21 01:02:12.000   28 35 34.11603  -17 55 01.59834    73.3071   6   5   0.0238   0.0454   0.1045   0.0208  -0.0473  -0.0348   0.00    0.0
2021/10/21 01:02:42.000   28 35 34.11602  -17 55 01.59836    73.3072   6   5   0.0238   0.0453   0.1044   0.0208  -0.0473  -0.0348   0.00    0.0
2021/10/21 01:03:12.000   28 35 34.11601  -17 55 01.59837    73.3073   6   5   0.0238   0.0452   0.1043   0.0208  -0.0473  -0.0349   0.00    0.0
2021/10/21 01:03:42.000   28 35 34.11600  -17 55 01.59836    73.3056   6   5   0.0237   0.0451   0.1042   0.0208  -0.0473  -0.0349   0.00    0.0
2021/10/21 01:04:12.000   28 35 34.11600  -17 55 01.59839    73.3032   6   5   0.0235   0.0446   0.1038   0.0209  -0.0475  -0.0350   0.00    0.0
2021/10/21 01:04:42.000   28 35 34.11599  -17 55 01.59856    73.2980   6   5   0.0228   0.0433   0.1024   0.0210  -0.0480  -0.0353   0.00    0.0
2021/10/21 01:05:12.000   28 35 34.11593  -17 55 01.59869    73.2924   6   5   0.0227   0.0429   0.1021   0.0210  -0.0481  -0.0354   0.00    0.0
2021/10/21 01:05:42.000   28 35 34.11590  -17 55 01.59869    73.2905   6   5   0.0226   0.0428   0.1020   0.0210  -0.0481  -0.0354   0.00    0.0
2021/10/21 01:06:12.000   28 35 34.11589  -17 55 01.59867    73.2900   6   5   0.0226   0.0428   0.1019   0.0210  -0.0481  -0.0354   0.00    0.0
2021/10/21 01:06:42.000   28 35 34.11589  -17 55 01.59867    73.2897   6   5   0.0226   0.0427   0.1019   0.0210  -0.0481  -0.0354   0.00    0.0
2021/10/21 01:07:12.000   28 35 34.11587  -17 55 01.59868    73.2899   6   5   0.0225   0.0427   0.1018   0.0210  -0.0480  -0.0354   0.00    0.0
2021/10/21 01:07:42.000   28 35 34.11586  -17 55 01.59867    73.2898   6   5   0.0225   0.0426   0.1018   0.0210  -0.0480  -0.0354   0.00    0.0
2021/10/21 01:08:12.000   28 35 34.11585  -17 55 01.59868    73.2900   6   5   0.0225   0.0426   0.1017   0.0210  -0.0480  -0.0354   0.00    0.0
2021/10/21 01:08:42.000   28 35 34.11585  -17 55 01.59866    73.2895   6   5   0.0224   0.0424   0.1015   0.0210  -0.0480  -0.0354   0.00    0.0
2021/10/21 01:09:12.000   28 35 34.11587  -17 55 01.59861    73.2911   6   5   0.0223   0.0421   0.1010   0.0210  -0.0481  -0.0354   0.00    0.0
2021/10/21 01:09:42.000   28 35 34.11587  -17 55 01.59873    73.2869   6   5   0.0217   0.0411   0.0994   0.0212  -0.0485  -0.0355   0.00    0.0
2021/10/21 01:10:12.000   28 35 34.11587  -17 55 01.59872    73.2860   6   5   0.0216   0.0409   0.0990   0.0212  -0.0485  -0.0355   0.00    0.0
2021/10/21 01:10:42.000   28 35 34.11587  -17 55 01.59874    73.2856   6   5   0.0215   0.0408   0.0988   0.0212  -0.0485  -0.0354   0.00    0.0
2021/10/21 01:11:12.000   28 35 34.11587  -17 55 01.59873    73.2852   6   5   0.0215   0.0407   0.0987   0.0212  -0.0485  -0.0354   0.00    0.0
2021/10/21 01:11:42.000   28 35 34.11587  -17 55 01.59870    73.2842   6   5   0.0215   0.0407   0.0987   0.0211  -0.0485  -0.0354   0.00    0.0
2021/10/21 01:12:12.000   28 35 34.11587  -17 55 01.59868    73.2837   6   5   0.0215   0.0407   0.0986   0.0211  -0.0484  -0.0354   0.00    0.0
2021/10/21 01:12:42.000   28 35 34.11587  -17 55 01.59866    73.2837   6   5   0.0215   0.0406   0.0986   0.0211  -0.0484  -0.0354   0.00    0.0
2021/10/21 01:13:12.000   28 35 34.11587  -17 55 01.59863    73.2834   6   5   0.0214   0.0406   0.0985   0.0211  -0.0484  -0.0354   0.00    0.0
2021/10/21 01:13:42.000   28 35 34.11586  -17 55 01.59862    73.2824   6   5   0.0214   0.0405   0.0983   0.0211  -0.0484  -0.0354   0.00    0.0
2021/10/21 01:14:12.000   28 35 34.11584  -17 55 01.59865    73.2825   6   5   0.0212   0.0402   0.0977   0.0211  -0.0484  -0.0353   0.00    0.0
2021/10/21 01:14:42.000   28 35 34.11580  -17 55 01.59879    73.2797   6   5   0.0208   0.0395   0.0958   0.0212  -0.0485  -0.0351   0.00    0.0
2021/10/21 01:15:12.000   28 35 34.11579  -17 55 01.59883    73.2736   6   5   0.0206   0.0393   0.0953   0.0212  -0.0485  -0.0351   0.00    0.0
2021/10/21 01:15:42.000   28 35 34.11579  -17 55 01.59883    73.2723   6   5   0.0206   0.0392   0.0951   0.0212  -0.0485  -0.0350   0.00    0.0
2021/10/21 01:16:12.000   28 35 34.11580  -17 55 01.59882    73.2732   6   5   0.0206   0.0392   0.0951   0.0212  -0.0484  -0.0350   0.00    0.0
2021/10/21 01:16:42.000   28 35 34.11580  -17 55 01.59881    73.2734   6   5   0.0206   0.0392   0.0950   0.0212  -0.0484  -0.0350   0.00    0.0
2021/10/21 01:17:12.000   28 35 34.11580  -17 55 01.59880    73.2735   6   5   0.0206   0.0391   0.0949   0.0212  -0.0484  -0.0350   0.00    0.0
2021/10/21 01:17:42.000   28 35 34.11580  -17 55 01.59880    73.2737   6   5   0.0205   0.0391   0.0949   0.0212  -0.0484  -0.0350   0.00    0.0
2021/10/21 01:18:12.000   28 35 34.11580  -17 55 01.59879    73.2743   6   5   0.0205   0.0391   0.0948   0.0212  -0.0484  -0.0350   0.00    0.0
2021/10/21 01:18:42.000   28 35 34.11580  -17 55 01.59879    73.2754   6   5   0.0205   0.0390   0.0945   0.0212  -0.0483  -0.0349   0.00    0.0
2021/10/21 01:19:12.000   28 35 34.11580  -17 55 01.59879    73.2773   6   5   0.0203   0.0388   0.0939   0.0212  -0.0483  -0.0348   0.00    0.0
2021/10/21 01:19:42.000   28 35 34.11581  -17 55 01.59894    73.2776   6   5   0.0199   0.0382   0.0917   0.0212  -0.0482  -0.0344   0.00    0.0
2021/10/21 01:20:12.000   28 35 34.11581  -17 55 01.59897    73.2789   6   5   0.0198   0.0381   0.0911   0.0212  -0.0481  -0.0343   0.00    0.0
2021/10/21 01:20:42.000   28 35 34.11581  -17 55 01.59898    73.2801   6   5   0.0198   0.0380   0.0910   0.0212  -0.0481  -0.0343   0.00    0.0
2021/10/21 01:21:12.000   28 35 34.11581  -17 55 01.59899    73.2816   6   5   0.0197   0.0380   0.0908   0.0212  -0.0480  -0.0343   0.00    0.0
2021/10/21 01:21:42.000   28 35 34.11582  -17 55 01.59899    73.2824   6   5   0.0197   0.0380   0.0908   0.0211  -0.0480  -0.0342   0.00    0.0
2021/10/21 01:22:12.000   28 35 34.11582  -17 55 01.59898    73.2832   6   5   0.0197   0.0380   0.0907   0.0211  -0.0480  -0.0342   0.00    0.0
2021/10/21 01:22:42.000   28 35 34.11582  -17 55 01.59895    73.2837   6   5   0.0197   0.0379   0.0907   0.0211  -0.0480  -0.0342   0.00    0.0
2021/10/21 01:23:12.000   28 35 34.11583  -17 55 01.59894    73.2839   6   5   0.0197   0.0379   0.0905   0.0211  -0.0479  -0.0342   0.00    0.0
2021/10/21 01:23:42.000   28 35 34.11583  -17 55 01.59894    73.2830   6   5   0.0196   0.0378   0.0903   0.0211  -0.0479  -0.0341   0.00    0.0
2021/10/21 01:24:12.000   28 35 34.11583  -17 55 01.59897    73.2817   6   5   0.0195   0.0377   0.0896   0.0211  -0.0478  -0.0340   0.00    0.0
2021/10/21 01:24:42.000   28 35 34.11580  -17 55 01.59906    73.2811   6   5   0.0191   0.0372   0.0872   0.0210  -0.0475  -0.0334   0.00    0.0
2021/10/21 01:25:12.000   28 35 34.11579  -17 55 01.59908    73.2816   6   5   0.0190   0.0371   0.0866   0.0210  -0.0474  -0.0333   0.00    0.0
2021/10/21 01:25:42.000   28 35 34.11579  -17 55 01.59910    73.2820   6   5   0.0189   0.0370   0.0864   0.0210  -0.0473  -0.0332   0.00    0.0
2021/10/21 01:26:12.000   28 35 34.11579  -17 55 01.59910    73.2815   6   5   0.0189   0.0370   0.0863   0.0210  -0.0473  -0.0332   0.00    0.0
2021/10/21 01:26:42.000   28 35 34.11578  -17 55 01.59911    73.2817   6   5   0.0189   0.0370   0.0863   0.0210  -0.0473  -0.0332   0.00    0.0
2021/10/21 01:27:12.000   28 35 34.11578  -17 55 01.59911    73.2821   6   5   0.0189   0.0370   0.0862   0.0210  -0.0472  -0.0332   0.00    0.0
2021/10/21 01:27:42.000   28 35 34.11578  -17 55 01.59909    73.2821   6   5   0.0189   0.0369   0.0861   0.0210  -0.0472  -0.0331   0.00    0.0
2021/10/21 01:28:12.000   28 35 34.11579  -17 55 01.59907    73.2828   6   5   0.0189   0.0369   0.0860   0.0210  -0.0472  -0.0331   0.00    0.0
2021/10/21 01:28:42.000   28 35 34.11580  -17 55 01.59905    73.2838   6   5   0.0188   0.0368   0.0857   0.0209  -0.0471  -0.0330   0.00    0.0
2021/10/21 01:29:12.000   28 35 34.11581  -17 55 01.59904    73.2868   6   5   0.0187   0.0367   0.0850   0.0209  -0.0469  -0.0328   0.00    0.0
2021/10/21 01:29:42.000   28 35 34.11582  -17 55 01.59907    73.2815   6   5   0.0183   0.0363   0.0826   0.0208  -0.0465  -0.0322   0.00    0.0
2021/10/21 01:30:12.000   28 35 34.11581  -17 55 01.59907    73.2785   6   5   0.0182   0.0362   0.0820   0.0208  -0.0463  -0.0320   0.00    0.0
2021/10/21 01:30:42.000   28 35 34.11581  -17 55 01.59906    73.2786   6   5   0.0182   0.0361   0.0818   0.0207  -0.0463  -0.0320   0.00    0.0
2021/10/21 01:31:12.000   28 35 34.11580  -17 55 01.59907    73.2788   6   5   0.0181   0.0361   0.0817   0.0207  -0.0462  -0.0320   0.00    0.0
2021/10/21 01:31:42.000   28 35 34.11580  -17 55 01.59906    73.2787   6   5   0.0181   0.0361   0.0816   0.0207  -0.0462  -0.0319   0.00    0.0
2021/10/21 01:32:12.000   28 35 34.11580  -17 55 01.59905    73.2783   6   5   0.0181   0.0361   0.0816   0.0207  -0.0462  -0.0319   0.00    0.0
2021/10/21 01:32:42.000   28 35 34.11580  -17 55 01.59904    73.2778   6   5   0.0181   0.0361   0.0815   0.0207  -0.0462  -0.0319   0.00    0.0
2021/10/21 01:33:12.000   28 35 34.11580  -17 55 01.59905    73.2783   6   5   0.0181   0.0360   0.0814   0.0207  -0.0461  -0.0318   0.00    0.0
2021/10/21 01:33:42.000   28 35 34.11580  -17 55 01.59906    73.2791   6   5   0.0180   0.0360   0.0811   0.0207  -0.0461  -0.0318   0.00    0.0
2021/10/21 01:34:12.000   28 35 34.11581  -17 55 01.59908    73.2799   6   5   0.0179   0.0359   0.0804   0.0206  -0.0459  -0.0316   0.00    0.0
2021/10/21 01:34:42.000   28 35 34.11580  -17 55 01.59917    73.2818   6   5   0.0175   0.0355   0.0780   0.0205  -0.0453  -0.0309   0.00    0.0
2021/10/21 01:35:12.000   28 35 34.11581  -17 55 01.59919    73.2839   6   5   0.0174   0.0354   0.0775   0.0204  -0.0452  -0.0307   0.00    0.0
2021/10/21 01:35:42.000   28 35 34.11582  -17 55 01.59919    73.2852   6   5   0.0174   0.0354   0.0773   0.0204  -0.0451  -0.0306   0.00    0.0
2021/10/21 01:36:12.000   28 35 34.11583  -17 55 01.59918    73.2849   6   5   0.0174   0.0353   0.0772   0.0204  -0.0451  -0.0306   0.00    0.0
2021/10/21 01:36:42.000   28 35 34.11583  -17 55 01.59917    73.2843   6   5   0.0174   0.0353   0.0771   0.0204  -0.0450  -0.0306   0.00    0.0
2021/10/21 01:37:12.000   28 35 34.11584  -17 55 01.59915    73.2837   6   5   0.0174   0.0353   0.0771   0.0204  -0.0450  -0.0306   0.00    0.0
2021/10/21 01:37:42.000   28 35 34.11584  -17 55 01.59914    73.2829   6   6   0.0173   0.0353   0.0770   0.0204  -0.0450  -0.0305   0.00    0.0
2021/10/21 01:38:12.000   28 35 34.11585  -17 55 01.59913    73.2807   6   6   0.0173   0.0353   0.0769   0.0203  -0.0449  -0.0305   0.00    0.0
2021/10/21 01:38:42.000   28 35 34.11585  -17 55 01.59913    73.2767   6   6   0.0173   0.0352   0.0766   0.0203  -0.0449  -0.0304   0.00    0.0
2021/10/21 01:39:12.000   28 35 34.11587  -17 55 01.59916    73.2678   6   6   0.0172   0.0351   0.0759   0.0203  -0.0447  -0.0302   0.00    0.0
2021/10/21 01:39:42.000   28 35 34.11586  -17 55 01.59917    73.2699   6   6   0.0168   0.0348   0.0737   0.0201  -0.0441  -0.0295   0.00    0.0
2021/10/21 01:40:12.000   28 35 34.11586  -17 55 01.59920    73.2748   6   6   0.0167   0.0347   0.0732   0.0201  -0.0439  -0.0294   0.00    0.0
2021/10/21 01:40:42.000   28 35 34.11587  -17 55 01.59920    73.2753   6   6   0.0167   0.0347   0.0730   0.0200  -0.0439  -0.0293   0.00    0.0
2021/10/21 01:41:12.000   28 35 34.11587  -17 55 01.59920    73.2755   6   6   0.0167   0.0346   0.0729   0.0200  -0.0438  -0.0293   0.00    0.0
2021/10/21 01:41:42.000   28 35 34.11586  -17 55 01.59921    73.2760   6   6   0.0166   0.0346   0.0729   0.0200  -0.0438  -0.0292   0.00    0.0
2021/10/21 01:42:12.000   28 35 34.11587  -17 55 01.59918    73.2750   6   6   0.0166   0.0346   0.0728   0.0200  -0.0438  -0.0292   0.00    0.0
2021/10/21 01:42:42.000   28 35 34.11587  -17 55 01.59918    73.2747   6   6   0.0166   0.0346   0.0727   0.0200  -0.0438  -0.0292   0.00    0.0
2021/10/21 01:43:12.000   28 35 34.11588  -17 55 01.59918    73.2749   6   6   0.0166   0.0346   0.0726   0.0200  -0.0437  -0.0292   0.00    0.0
2021/10/21 01:43:42.000   28 35 34.11588  -17 55 01.59919    73.2754   6   6   0.0166   0.0345   0.0724   0.0199  -0.0436  -0.0291   0.00    0.0
2021/10/21 11:12:11.993   28 35 34.11589  -17 55 01.59917    73.2743   6   8   0.0166   0.0345   0.0724   0.0199  -0.0436  -0.0291   0.00    0.0
2021/10/21 11:12:42.000   28 35 34.11590  -17 55 01.59915    73.2732   6   7   0.0166   0.0345   0.0724   0.0199  -0.0436  -0.0291   0.00    0.0
2021/10/21 11:13:12.000   28 35 34.11590  -17 55 01.59912    73.2721   6   7   0.0165   0.0345   0.0723   0.0199  -0.0436  -0.0291   0.00    0.0
2021/10/21 11:13:42.000   28 35 34.11591  -17 55 01.59911    73.2714   6   7   0.0165   0.0345   0.0723   0.0199  -0.0436  -0.0290   0.00    0.0
2021/10/21 11:14:12.000   28 35 34.11592  -17 55 01.59908    73.2702   6   8   0.0165   0.0345   0.0723   0.0199  -0.0435  -0.0290   0.00    0.0
2021/10/21 11:14:42.000   28 35 34.11592  -17 55 01.59907    73.2701   6   8   0.0165   0.0344   0.0723   0.0199  -0.0435  -0.0290   0.00    0.0
2021/10/21 11:15:12.000   28 35 34.11593  -17 55 01.59905    73.2692   6   9   0.0165   0.0344   0.0723   0.0199  -0.0435  -0.0290   0.00    0.0
2021/10/21 11:15:42.000   28 35 34.11593  -17 55 01.59904    73.2686   6   9   0.0165   0.0344   0.0722   0.0199  -0.0435  -0.0290   0.00    0.0
2021/10/21 11:16:12.000   28 35 34.11593  -17 55 01.59903    73.2688   6   9   0.0165   0.0344   0.0722   0.0199  -0.0435  -0.0290   0.00    0.0
2021/10/21 11:16:42.000   28 35 34.11594  -17 55 01.59902    73.2687   6   9   0.0165   0.0344   0.0722   0.0199  -0.0435  -0.0290   0.00    0.0
2021/10/21 11:17:12.000   28 35 34.11594  -17 55 01.59900    73.2682   6   9   0.0165   0.0344   0.0722   0.0198  -0.0434  -0.0290   0.00    0.0
2021/10/21 11:17:42.000   28 35 34.11595  -17 55 01.59899    73.2680   6   9   0.0165   0.0344   0.0721   0.0198  -0.0434  -0.0289   0.00    0.0
2021/10/21 11:18:12.000   28 35 34.11595  -17 55 01.59898    73.2679   6   7   0.0165   0.0344   0.0721   0.0198  -0.0434  -0.0289   0.00    0.0
2021/10/21 11:18:42.000   28 35 34.11595  -17 55 01.59899    73.2688   6   9   0.0165   0.0343   0.0721   0.0198  -0.0434  -0.0289   0.00    0.0
2021/10/21 11:19:12.000   28 35 34.11596  -17 55 01.59895    73.2670   6   9   0.0165   0.0343   0.0720   0.0198  -0.0433  -0.0289   0.00    0.0
2021/10/21 11:19:42.000   28 35 34.11596  -17 55 01.59895    73.2670   6   9   0.0164   0.0342   0.0717   0.0197  -0.0431  -0.0287   0.00    0.0
2021/10/21 11:20:12.000   28 35 34.11596  -17 55 01.59896    73.2681   6   9   0.0164   0.0342   0.0716   0.0197  -0.0431  -0.0287   0.00    0.0
2021/10/21 11:20:42.000   28 35 34.11596  -17 55 01.59895    73.2681   6   9   0.0164   0.0342   0.0716   0.0197  -0.0430  -0.0287   0.00    0.0
2021/10/21 11:21:12.000   28 35 34.11596  -17 55 01.59893    73.2677   6   9   0.0164   0.0341   0.0715   0.0196  -0.0430  -0.0286   0.00    0.0
2021/10/21 11:21:42.000   28 35 34.11596  -17 55 01.59892    73.2673   6   9   0.0164   0.0341   0.0715   0.0196  -0.0430  -0.0286   0.00    0.0
2021/10/21 11:22:12.000   28 35 34.11597  -17 55 01.59889    73.2665   6   9   0.0164   0.0341   0.0715   0.0196  -0.0430  -0.0286   0.00    0.0
2021/10/21 11:22:42.000   28 35 34.11598  -17 55 01.59887    73.2656   6   9   0.0164   0.0341   0.0714   0.0196  -0.0429  -0.0286   0.00    0.0
2021/10/21 11:23:12.000   28 35 34.11598  -17 55 01.59885    73.2655   6   9   0.0164   0.0341   0.0714   0.0196  -0.0429  -0.0286   0.00    0.0
2021/10/21 11:23:42.000   28 35 34.11598  -17 55 01.59887    73.2670   6   9   0.0163   0.0340   0.0713   0.0196  -0.0428  -0.0285   0.00    0.0
2021/10/21 11:24:12.000   28 35 34.11596  -17 55 01.59890    73.2692   6   9   0.0163   0.0340   0.0711   0.0195  -0.0427  -0.0284   0.00    0.0
2021/10/21 11:24:42.000   28 35 34.11596  -17 55 01.59890    73.2698   6   9   0.0162   0.0337   0.0703   0.0193  -0.0422  -0.0280   0.00    0.0
2021/10/21 11:25:12.000   28 35 34.11597  -17 55 01.59888    73.2685   6   9   0.0161   0.0337   0.0701   0.0192  -0.0421  -0.0280   0.00    0.0
2021/10/21 11:25:42.000   28 35 34.11597  -17 55 01.59888    73.2682   6   9   0.0161   0.0337   0.0701   0.0192  -0.0420  -0.0279   0.00    0.0
2021/10/21 11:26:12.000   28 35 34.11597  -17 55 01.59886    73.2676   6   8   0.0161   0.0336   0.0700   0.0192  -0.0420  -0.0279   0.00    0.0
2021/10/21 11:26:42.000   28 35 34.11597  -17 55 01.59886    73.2680   6   9   0.0161   0.0336   0.0700   0.0192  -0.0420  -0.0279   0.00    0.0
2021/10/21 11:27:12.000   28 35 34.11597  -17 55 01.59887    73.2686   6   9   0.0161   0.0336   0.0699   0.0192  -0.0420  -0.0278   0.00    0.0
2021/10/21 11:27:42.000   28 35 34.11597  -17 55 01.59886    73.2682   6   9   0.0161   0.0336   0.0699   0.0192  -0.0419  -0.0278   0.00    0.0
2021/10/21 11:28:12.000   28 35 34.11598  -17 55 01.59886    73.2687   6   9   0.0161   0.0335   0.0698   0.0191  -0.0419  -0.0278   0.00    0.0
2021/10/21 11:28:42.000   28 35 34.11597  -17 55 01.59886    73.2699   6   9   0.0160   0.0335   0.0697   0.0191  -0.0418  -0.0277   0.00    0.0
2021/10/21 11:29:12.000   28 35 34.11596  -17 55 01.59889    73.2735   6   9   0.0160   0.0334   0.0693   0.0190  -0.0415  -0.0275   0.00    0.0
2021/10/21 11:29:42.000   28 35 34.11593  -17 55 01.59898    73.2795   6   9   0.0157   0.0330   0.0680   0.0186  -0.0407  -0.0269   0.00    0.0
2021/10/21 11:30:12.000   28 35 34.11591  -17 55 01.59902    73.2825   6   9   0.0157   0.0329   0.0676   0.0185  -0.0405  -0.0267   0.00    0.0
2021/10/21 11:30:42.000   28 35 34.11590  -17 55 01.59902    73.2832   6   9   0.0157   0.0328   0.0675   0.0185  -0.0404  -0.0266   0.00    0.0
2021/10/21 11:31:12.000   28 35 34.11590  -17 55 01.59900    73.2832   6   9   0.0156   0.0328   0.0674   0.0184  -0.0403  -0.0266   0.00    0.0
2021/10/21 11:31:42.000   28 35 34.11590  -17 55 01.59899    73.2830   6   9   0.0156   0.0328   0.0674   0.0184  -0.0403  -0.0266   0.00    0.0
2021/10/21 11:32:12.000   28 35 34.11591  -17 55 01.59897    73.2827   6   9   0.0156   0.0327   0.0673   0.0184  -0.0403  -0.0266   0.00    0.0
2021/10/21 11:32:42.000   28 35 34.11591  -17 55 01.59896    73.2824   6   9   0.0156   0.0327   0.0673   0.0184  -0.0402  -0.0265   0.00    0.0
2021/10/21 11:33:12.000   28 35 34.11591  -17 55 01.59895    73.2823   6   9   0.0156   0.0327   0.0672   0.0184  -0.0402  -0.0265   0.00    0.0
2021/10/21 11:33:42.000   28 35 34.11591  -17 55 01.59895    73.2832   6   9   0.0156   0.0326   0.0670   0.0183  -0.0400  -0.0264   0.00    0.0
2021/10/21 11:34:12.000   28 35 34.11590  -17 55 01.59899    73.2869   6   9   0.0155   0.0324   0.0664   0.0181  -0.0397  -0.0261   0.00    0.0
2021/10/21 11:34:42.000   28 35 34.11590  -17 55 01.59898    73.2867   6   9   0.0151   0.0319   0.0646   0.0176  -0.0385  -0.0252   0.00    0.0
2021/10/21 11:35:12.000   28 35 34.11592  -17 55 01.59895    73.2848   6   9   0.0151   0.0317   0.0642   0.0175  -0.0382  -0.0250   0.00    0.0
2021/10/21 11:35:42.000   28 35 34.11592  -17 55 01.59895    73.2851   6   9   0.0150   0.0317   0.0640   0.0174  -0.0381  -0.0249   0.00    0.0
2021/10/21 11:36:12.000   28 35 34.11592  -17 55 01.59895    73.2855   6   9   0.0150   0.0317   0.0639   0.0174  -0.0380  -0.0248   0.00    0.0
2021/10/21 11:36:42.000   28 35 34.11592  -17 55 01.59893    73.2855   6   9   0.0150   0.0316   0.0639   0.0174  -0.0380  -0.0248   0.00    0.0
2021/10/21 11:37:12.000   28 35 34.11592  -17 55 01.59893    73.2857   6   9   0.0150   0.0316   0.0638   0.0174  -0.0380  -0.0248   0.00    0.0
2021/10/21 11:37:42.000   28 35 34.11593  -17 55 01.59891    73.2849   6   9   0.0150   0.0316   0.0638   0.0174  -0.0379  -0.0248   0.00    0.0
2021/10/21 11:38:12.000   28 35 34.11593  -17 55 01.59890    73.2849   6   9   0.0150   0.0316   0.0637   0.0173  -0.0378  -0.0247   0.00    0.0
2021/10/21 11:38:42.000   28 35 34.11593  -17 55 01.59888    73.2839   6   9   0.0149   0.0315   0.0634   0.0173  -0.0377  -0.0246   0.00    0.0
2021/10/21 11:39:12.000   28 35 34.11594  -17 55 01.59886    73.2819   6   9   0.0148   0.0313   0.0627   0.0171  -0.0372  -0.0242   0.00    0.0
2021/10/21 11:39:42.000   28 35 34.11595  -17 55 01.59885    73.2814   6   9   0.0144   0.0306   0.0605   0.0164  -0.0358  -0.0231   0.00    0.0
2021/10/21 11:40:12.000   28 35 34.11595  -17 55 01.59885    73.2827   6   9   0.0143   0.0304   0.0600   0.0163  -0.0354  -0.0229   0.00    0.0
2021/10/21 11:40:42.000   28 35 34.11595  -17 55 01.59885    73.2838   6   9   0.0143   0.0304   0.0598   0.0162  -0.0353  -0.0228   0.00    0.0
2021/10/21 11:41:12.000   28 35 34.11595  -17 55 01.59886    73.2858   6   9   0.0143   0.0303   0.0597   0.0162  -0.0353  -0.0227   0.00    0.0
2021/10/21 11:41:42.000   28 35 34.11594  -17 55 01.59887    73.2867   6   9   0.0143   0.0303   0.0596   0.0162  -0.0352  -0.0227   0.00    0.0
2021/10/21 11:42:12.000   28 35 34.11595  -17 55 01.59886    73.2869   6   9   0.0142   0.0303   0.0596   0.0162  -0.0352  -0.0227   0.00    0.0
2021/10/21 11:42:42.000   28 35 34.11595  -17 55 01.59886    73.2877   6   9   0.0142   0.0303   0.0595   0.0161  -0.0351  -0.0226   0.00    0.0
2021/10/21 11:43:12.000   28 35 34.11595  -17 55 01.59887    73.2890   6   9   0.0142   0.0302   0.0594   0.0161  -0.0350  -0.0226   0.00    0.0
2021/10/21 11:43:42.000   28 35 34.11595  -17 55 01.59888    73.2905   6   9   0.0142   0.0301   0.0591   0.0160  -0.0349  -0.0224   0.00    0.0
2021/10/21 11:44:12.000   28 35 34.11594  -17 55 01.59892    73.2940   6   9   0.0140   0.0299   0.0584   0.0158  -0.0344  -0.0221   0.00    0.0
2021/10/21 11:44:42.000   28 35 34.11591  -17 55 01.59896    73.2958   6   9   0.0136   0.0292   0.0560   0.0151  -0.0328  -0.0208   0.00    0.0
2021/10/21 11:45:12.000   28 35 34.11592  -17 55 01.59892    73.2945   6   9   0.0135   0.0290   0.0554   0.0150  -0.0324  -0.0206   0.00    0.0
2021/10/21 11:45:42.000   28 35 34.11593  -17 55 01.59890    73.2935   6   9   0.0135   0.0290   0.0552   0.0149  -0.0323  -0.0205   0.00    0.0
2021/10/21 11:46:12.000   28 35 34.11593  -17 55 01.59888    73.2931   6   9   0.0135   0.0289   0.0551   0.0149  -0.0322  -0.0204   0.00    0.0
2021/10/21 11:46:42.000   28 35 34.11593  -17 55 01.59888    73.2936   6   9   0.0135   0.0289   0.0550   0.0149  -0.0322  -0.0204   0.00    0.0
2021/10/21 11:47:12.000   28 35 34.11593  -17 55 01.59888    73.2940   6   9   0.0135   0.0289   0.0550   0.0149  -0.0321  -0.0204   0.00    0.0
2021/10/21 11:47:42.000   28 35 34.11594  -17 55 01.59886    73.2935   6   9   0.0135   0.0289   0.0549   0.0148  -0.0321  -0.0203   0.00    0.0
2021/10/21 11:48:12.000   28 35 34.11594  -17 55 01.59885    73.2931   6   9   0.0134   0.0288   0.0548   0.0148  -0.0320  -0.0203   0.00    0.0
2021/10/21 11:48:42.000   28 35 34.11593  -17 55 01.59884    73.2935   6   9   0.0134   0.0287   0.0545   0.0147  -0.0318  -0.0201   0.00    0.0
2021/10/21 11:49:12.000   28 35 34.11591  -17 55 01.59890    73.2982   6   9   0.0133   0.0285   0.0537   0.0145  -0.0313  -0.0197   0.00    0.0
2021/10/21 11:49:42.000   28 35 34.11589  -17 55 01.59894    73.3012   6   9   0.0129   0.0278   0.0513   0.0138  -0.0296  -0.0185   0.00    0.0
2021/10/21 11:50:12.000   28 35 34.11589  -17 55 01.59894    73.3023   6   9   0.0128   0.0276   0.0507   0.0136  -0.0293  -0.0182   0.00    0.0
2021/10/21 11:50:42.000   28 35 34.11589  -17 55 01.59894    73.3038   6   9   0.0127   0.0275   0.0505   0.0136  -0.0291  -0.0181   0.00    0.0
2021/10/21 11:51:12.000   28 35 34.11589  -17 55 01.59893    73.3049   6   9   0.0127   0.0275   0.0504   0.0136  -0.0290  -0.0181   0.00    0.0
2021/10/21 11:51:42.000   28 35 34.11589  -17 55 01.59893    73.3057   6   9   0.0127   0.0275   0.0503   0.0135  -0.0290  -0.0180   0.00    0.0
2021/10/21 11:52:12.000   28 35 34.11590  -17 55 01.59893    73.3062   6   9   0.0127   0.0275   0.0503   0.0135  -0.0290  -0.0180   0.00    0.0
2021/10/21 11:52:42.000   28 35 34.11590  -17 55 01.59894    73.3072   6   9   0.0127   0.0275   0.0502   0.0135  -0.0289  -0.0180   0.00    0.0
2021/10/21 11:53:12.000   28 35 34.11589  -17 55 01.59895    73.3086   6   9   0.0127   0.0274   0.0501   0.0135  -0.0288  -0.0179   0.00    0.0
2021/10/21 11:53:42.000   28 35 34.11589  -17 55 01.59895    73.3097   6   9   0.0126   0.0273   0.0498   0.0134  -0.0287  -0.0178   0.00    0.0
2021/10/21 11:54:12.000   28 35 34.11589  -17 55 01.59895    73.3112   6   9   0.0125   0.0271   0.0490   0.0132  -0.0281  -0.0174   0.00    0.0
2021/10/21 11:54:42.000   28 35 34.11585  -17 55 01.59901    73.3153   6   9   0.0121   0.0264   0.0466   0.0125  -0.0265  -0.0162   0.00    0.0
2021/10/21 11:55:12.000   28 35 34.11582  -17 55 01.59909    73.3207   6   9   0.0121   0.0263   0.0461   0.0124  -0.0261  -0.0159   0.00    0.0
2021/10/21 11:55:42.000   28 35 34.11581  -17 55 01.59912    73.3225   6   9   0.0120   0.0262   0.0459   0.0123  -0.0260  -0.0158   0.00    0.0
2021/10/21 11:56:12.000   28 35 34.11580  -17 55 01.59913    73.3234   6   9   0.0120   0.0262   0.0457   0.0123  -0.0259  -0.0158   0.00    0.0
2021/10/21 11:56:42.000   28 35 34.11580  -17 55 01.59913    73.3236   6   9   0.0120   0.0262   0.0457   0.0123  -0.0259  -0.0157   0.00    0.0
2021/10/21 11:57:12.000   28 35 34.11580  -17 55 01.59911    73.3235   6   9   0.0120   0.0261   0.0456   0.0123  -0.0258  -0.0157   0.00    0.0
2021/10/21 11:57:42.000   28 35 34.11580  -17 55 01.59911    73.3239   6   9   0.0120   0.0261   0.0456   0.0122  -0.0258  -0.0157   0.00    0.0
2021/10/21 11:58:12.000   28 35 34.11580  -17 55 01.59910    73.3239   6   9   0.0120   0.0261   0.0454   0.0122  -0.0257  -0.0156   0.00    0.0
2021/10/21 11:58:42.000   28 35 34.11579  -17 55 01.59909    73.3229   6   9   0.0119   0.0260   0.0452   0.0121  -0.0255  -0.0155   0.00    0.0
2021/10/21 11:59:12.000   28 35 34.11578  -17 55 01.59910    73.3223   6   8   0.0118   0.0258   0.0445   0.0120  -0.0251  -0.0152   0.00    0.0
2021/10/21 11:59:42.000   28 35 34.11575  -17 55 01.59913    73.3248   6   8   0.0115   0.0253   0.0426   0.0114  -0.0237  -0.0141   0.00    0.0
2021/10/21 12:00:12.000   28 35 34.11573  -17 55 01.59912    73.3236   6   8   0.0114   0.0251   0.0422   0.0112  -0.0233  -0.0139   0.00    0.0
2021/10/21 12:00:42.000   28 35 34.11572  -17 55 01.59912    73.3241   6   8   0.0114   0.0251   0.0420   0.0112  -0.0232  -0.0138   0.00    0.0
2021/10/21 12:01:12.000   28 35 34.11572  -17 55 01.59910    73.3239   6   8   0.0114   0.0250   0.0420   0.0112  -0.0232  -0.0137   0.00    0.0
2021/10/21 12:01:42.000   28 35 34.11572  -17 55 01.59909    73.3237   6   8   0.0114   0.0250   0.0419   0.0112  -0.0231  -0.0137   0.00    0.0
2021/10/21 12:02:12.000   28 35 34.11572  -17 55 01.59908    73.3236   6   8   0.0114   0.0250   0.0419   0.0111  -0.0231  -0.0137   0.00    0.0
2021/10/21 12:02:42.000   28 35 34.11572  -17 55 01.59906    73.3232   6   8   0.0113   0.0250   0.0418   0.0111  -0.0231  -0.0137   0.00    0.0
2021/10/21 12:03:12.000   28 35 34.11573  -17 55 01.59904    73.3226   6   8   0.0113   0.0250   0.0418   0.0111  -0.0230  -0.0136   0.00    0.0
2021/10/21 12:03:42.000   28 35 34.11573  -17 55 01.59901    73.3216   6   8   0.0113   0.0249   0.0416   0.0111  -0.0229  -0.0135   0.00    0.0
2021/10/21 12:04:12.000   28 35 34.11572  -17 55 01.59900    73.3219   6   8   0.0112   0.0248   0.0411   0.0109  -0.0225  -0.0132   0.00    0.0
2021/10/21 12:04:42.000   28 35 34.11570  -17 55 01.59903    73.3234   6   7   0.0109   0.0243   0.0395   0.0104  -0.0212  -0.0123   0.00    0.0
2021/10/21 12:05:12.000   28 35 34.11568  -17 55 01.59906    73.3251   6   7   0.0108   0.0241   0.0391   0.0102  -0.0209  -0.0121   0.00    0.0
2021/10/21 12:05:42.000   28 35 34.11568  -17 55 01.59906    73.3253   6   7   0.0108   0.0241   0.0390   0.0102  -0.0208  -0.0120   0.00    0.0
2021/10/21 12:06:12.000   28 35 34.11568  -17 55 01.59905    73.3256   6   7   0.0108   0.0241   0.0389   0.0102  -0.0208  -0.0120   0.00    0.0
2021/10/21 12:06:42.000   28 35 34.11568  -17 55 01.59904    73.3258   6   7   0.0108   0.0241   0.0389   0.0102  -0.0207  -0.0119   0.00    0.0
2021/10/21 12:07:12.000   28 35 34.11569  -17 55 01.59903    73.3257   6   7   0.0108   0.0240   0.0389   0.0102  -0.0207  -0.0119   0.00    0.0
2021/10/21 12:07:42.000   28 35 34.11569  -17 55 01.59902    73.3257   6   7   0.0108   0.0240   0.0388   0.0102  -0.0207  -0.0119   0.00    0.0
2021/10/21 12:08:12.000   28 35 34.11569  -17 55 01.59901    73.3258   6   7   0.0108   0.0240   0.0388   0.0101  -0.0206  -0.0119   0.00    0.0
2021/10/21 12:08:42.000   28 35 34.11569  -17 55 01.59901    73.3267   6   7   0.0107   0.0240   0.0386   0.0101  -0.0205  -0.0118   0.00    0.0
2021/10/21 12:09:12.000   28 35 34.11566  -17 55 01.59908    73.3304   6   7   0.0107   0.0238   0.0382   0.0099  -0.0202  -0.0115   0.00    0.0
2021/10/21 12:09:42.000   28 35 34.11561  -17 55 01.59916    73.3348   6   7   0.0104   0.0234   0.0369   0.0095  -0.0190  -0.0107   0.00    0.0
2021/10/21 12:10:12.000   28 35 34.11558  -17 55 01.59918    73.3369   6   7   0.0103   0.0233   0.0366   0.0094  -0.0188  -0.0105   0.00    0.0
2021/10/21 12:10:42.000   28 35 34.11557  -17 55 01.59920    73.3385   6   7   0.0103   0.0232   0.0365   0.0093  -0.0187  -0.0104   0.00    0.0
2021/10/21 12:11:12.000   28 35 34.11556  -17 55 01.59920    73.3394   6   7   0.0103   0.0232   0.0364   0.0093  -0.0186  -0.0104   0.00    0.0
2021/10/21 12:11:42.000   28 35 34.11556  -17 55 01.59920    73.3396   6   7   0.0103   0.0232   0.0364   0.0093  -0.0186  -0.0104   0.00    0.0
2021/10/21 12:12:12.000   28 35 34.11556  -17 55 01.59920    73.3400   6   7   0.0103   0.0232   0.0364   0.0093  -0.0186  -0.0104   0.00    0.0
2021/10/21 12:12:42.000   28 35 34.11555  -17 55 01.59920    73.3406   6   7   0.0103   0.0232   0.0363   0.0093  -0.0186  -0.0103   0.00    0.0
2021/10/21 12:13:12.000   28 35 34.11554  -17 55 01.59921    73.3411   6   7   0.0103   0.0232   0.0363   0.0093  -0.0185  -0.0103   0.00    0.0
2021/10/21 12:13:42.000   28 35 34.11552  -17 55 01.59922    73.3421   6   7   0.0102   0.0231   0.0362   0.0092  -0.0184  -0.0102   0.00    0.0
2021/10/21 12:14:12.000   28 35 34.11550  -17 55 01.59923    73.3431   6   7   0.0102   0.0230   0.0358   0.0091  -0.0181  -0.0100   0.00    0.0
2021/10/21 12:14:42.000   28 35 34.11549  -17 55 01.59918    73.3412   6   7   0.0099   0.0226   0.0348   0.0087  -0.0171  -0.0092   0.00    0.0
2021/10/21 12:15:12.000   28 35 34.11549  -17 55 01.59923    73.3440   6   7   0.0099   0.0225   0.0345   0.0086  -0.0168  -0.0090   0.00    0.0
2021/10/21 12:15:42.000   28 35 34.11549  -17 55 01.59924    73.3450   6   7   0.0099   0.0225   0.0345   0.0086  -0.0168  -0.0090   0.00    0.0
2021/10/21 12:16:12.000   28 35 34.11549  -17 55 01.59925    73.3455   6   7   0.0098   0.0225   0.0344   0.0086  -0.0167  -0.0090   0.00    0.0
2021/10/21 12:16:42.000   28 35 34.11549  -17 55 01.59924    73.3459   6   7   0.0098   0.0225   0.0344   0.0086  -0.0167  -0.0089   0.00    0.0
2021/10/21 12:17:12.000   28 35 34.11549  -17 55 01.59923    73.3460   6   7   0.0098   0.0225   0.0344   0.0086  -0.0167  -0.0089   0.00    0.0
2021/10/21 12:17:42.000   28 35 34.11549  -17 55 01.59922    73.3460   6   7   0.0098   0.0224   0.0343   0.0086  -0.0166  -0.0089   0.00    0.0
2021/10/21 12:18:12.000   28 35 34.11550  -17 55 01.59920    73.3456   6   7   0.0098   0.0224   0.0343   0.0085  -0.0166  -0.0089   0.00    0.0
2021/10/21 12:18:42.000   28 35 34.11551  -17 55 01.59919    73.3449   6   7   0.0098   0.0224   0.0342   0.0085  -0.0165  -0.0088   0.00    0.0
2021/10/21 12:19:12.000   28 35 34.11552  -17 55 01.59918    73.3443   6   7   0.0097   0.0223   0.0339   0.0084  -0.0162  -0.0086   0.00    0.0
2021/10/21 12:19:42.000   28 35 34.11552  -17 55 01.59919    73.3449   6   7   0.0095   0.0220   0.0331   0.0081  -0.0153  -0.0080   0.00    0.0
2021/10/21 12:20:12.000   28 35 34.11553  -17 55 01.59917    73.3445   6   7   0.0095   0.0219   0.0328   0.0080  -0.0151  -0.0078   0.00    0.0
2021/10/21 12:20:42.000   28 35 34.11553  -17 55 01.59915    73.3440   6   7   0.0095   0.0218   0.0328   0.0080  -0.0150  -0.0078   0.00    0.0
2021/10/21 12:21:12.000   28 35 34.11553  -17 55 01.59914    73.3439   6   7   0.0095   0.0218   0.0327   0.0080  -0.0150  -0.0077   0.00    0.0
2021/10/21 12:21:42.000   28 35 34.11554  -17 55 01.59913    73.3439   6   7   0.0095   0.0218   0.0327   0.0079  -0.0149  -0.0077   0.00    0.0
2021/10/21 12:22:12.000   28 35 34.11554  -17 55 01.59912    73.3438   6   7   0.0095   0.0218   0.0327   0.0079  -0.0149  -0.0077   0.00    0.0
2021/10/21 12:22:42.000   28 35 34.11554  -17 55 01.59911    73.3437   6   7   0.0094   0.0218   0.0327   0.0079  -0.0149  -0.0077   0.00    0.0
2021/10/21 12:23:12.000   28 35 34.11554  -17 55 01.59910    73.3440   6   8   0.0094   0.0218   0.0327   0.0079  -0.0149  -0.0077   0.00    0.0
2021/10/21 12:23:42.000   28 35 34.11554  -17 55 01.59910    73.3444   6   8   0.0094   0.0218   0.0326   0.0079  -0.0148  -0.0076   0.00    0.0
2021/10/21 12:24:12.000   28 35 34.11555  -17 55 01.59907    73.3434   6   8   0.0094   0.0217   0.0323   0.0078  -0.0145  -0.0074   0.00    0.0
2021/10/21 12:24:42.000   28 35 34.11554  -17 55 01.59911    73.3451   6   8   0.0092   0.0214   0.0316   0.0075  -0.0137  -0.0069   0.00    0.0
2021/10/21 12:25:12.000   28 35 34.11554  -17 55 01.59909    73.3446   6   8   0.0091   0.0213   0.0314   0.0075  -0.0135  -0.0068   0.00    0.0
2021/10/21 12:25:42.000   28 35 34.11554  -17 55 01.59906    73.3438   6   8   0.0091   0.0213   0.0314   0.0074  -0.0134  -0.0067   0.00    0.0
2021/10/21 12:26:12.000   28 35 34.11554  -17 55 01.59904    73.3435   6   8   0.0091   0.0213   0.0314   0.0074  -0.0134  -0.0067   0.00    0.0
2021/10/21 12:26:42.000   28 35 34.11554  -17 55 01.59903    73.3436   6   8   0.0091   0.0212   0.0313   0.0074  -0.0134  -0.0067   0.00    0.0
2021/10/21 12:27:12.000   28 35 34.11554  -17 55 01.59902    73.3436   6   8   0.0091   0.0212   0.0313   0.0074  -0.0134  -0.0067   0.00    0.0
2021/10/21 12:27:42.000   28 35 34.11554  -17 55 01.59900    73.3434   6   8   0.0091   0.0212   0.0313   0.0074  -0.0133  -0.0067   0.00    0.0
2021/10/21 12:28:12.000   28 35 34.11554  -17 55 01.59898    73.3432   6   8   0.0091   0.0212   0.0313   0.0074  -0.0133  -0.0066   0.00    0.0
2021/10/21 12:28:42.000   28 35 34.11553  -17 55 01.59897    73.3431   6   8   0.0091   0.0212   0.0312   0.0074  -0.0132  -0.0066   0.00    0.0
2021/10/21 12:29:12.000   28 35 34.11554  -17 55 01.59893    73.3413   6   8   0.0090   0.0211   0.0310   0.0073  -0.0130  -0.0064   0.00    0.0
2021/10/21 12:29:42.000   28 35 34.11554  -17 55 01.59894    73.3416   6   8   0.0088   0.0208   0.0304   0.0070  -0.0122  -0.0060   0.00    0.0
2021/10/21 12:30:12.000   28 35 34.11552  -17 55 01.59895    73.3427   6   8   0.0088   0.0208   0.0303   0.0070  -0.0120  -0.0059   0.00    0.0
2021/10/21 12:30:42.000   28 35 34.11552  -17 55 01.59896    73.3433   6   8   0.0088   0.0207   0.0302   0.0070  -0.0120  -0.0058   0.00    0.0
2021/10/21 12:31:12.000   28 35 34.11551  -17 55 01.59896    73.3438   6   8   0.0088   0.0207   0.0302   0.0070  -0.0120  -0.0058   0.00    0.0
2021/10/21 12:31:42.000   28 35 34.11551  -17 55 01.59896    73.3441   6   8   0.0088   0.0207   0.0302   0.0070  -0.0119  -0.0058   0.00    0.0
2021/10/21 12:32:12.000   28 35 34.11550  -17 55 01.59895    73.3442   6   8   0.0088   0.0207   0.0302   0.0070  -0.0119  -0.0058   0.00    0.0
2021/10/21 12:32:42.000   28 35 34.11550  -17 55 01.59895    73.3445   6   8   0.0088   0.0207   0.0302   0.0069  -0.0119  -0.0058   0.00    0.0
2021/10/21 12:33:12.000   28 35 34.11550  -17 55 01.59895    73.3451   6   8   0.0088   0.0207   0.0301   0.0069  -0.0119  -0.0058   0.00    0.0
2021/10/21 12:33:42.000   28 35 34.11549  -17 55 01.59898    73.3457   6   8   0.0087   0.0207   0.0301   0.0069  -0.0118  -0.0057   0.00    0.0
2021/10/21 12:34:12.000   28 35 34.11550  -17 55 01.59900    73.3461   6   8   0.0087   0.0206   0.0299   0.0068  -0.0116  -0.0056   0.00    0.0
2021/10/21 12:34:42.000   28 35 34.11551  -17 55 01.59902    73.3470   6   8   0.0085   0.0203   0.0294   0.0066  -0.0109  -0.0053   0.00    0.0
2021/10/21 12:35:12.000   28 35 34.11550  -17 55 01.59905    73.3483   6   8   0.0085   0.0203   0.0293   0.0066  -0.0107  -0.0052   0.00    0.0
2021/10/21 12:35:42.000   28 35 34.11550  -17 55 01.59905    73.3489   6   8   0.0085   0.0202   0.0293   0.0066  -0.0107  -0.0052   0.00    0.0
2021/10/21 12:36:12.000   28 35 34.11550  -17 55 01.59905    73.3492   6   8   0.0085   0.0202   0.0293   0.0066  -0.0106  -0.0051   0.00    0.0
2021/10/21 12:36:42.000   28 35 34.11550  -17 55 01.59906    73.3495   6   8   0.0085   0.0202   0.0293   0.0066  -0.0106  -0.0051   0.00    0.0
2021/10/21 12:37:12.000   28 35 34.11550  -17 55 01.59906    73.3497   6   8   0.0085   0.0202   0.0292   0.0065  -0.0106  -0.0051   0.00    0.0
2021/10/21 12:37:42.000   28 35 34.11549  -17 55 01.59906    73.3499   6   8   0.0084   0.0202   0.0292   0.0065  -0.0106  -0.0051   0.00    0.0
2021/10/21 12:38:12.000   28 35 34.11549  -17 55 01.59905    73.3502   6   8   0.0084   0.0202   0.0292   0.0065  -0.0106  -0.0051   0.00    0.0
2021/10/21 12:38:42.000   28 35 34.11549  -17 55 01.59903    73.3501   6   8   0.0084   0.0202   0.0292   0.0065  -0.0105  -0.0051   0.00    0.0
2021/10/21 12:39:12.000   28 35 34.11550  -17 55 01.59900    73.3500   6   8   0.0084   0.0201   0.0290   0.0065  -0.0103  -0.0050   0.00    0.0
2021/10/21 12:39:42.000   28 35 34.11551  -17 55 01.59906    73.3514   6   8   0.0082   0.0199   0.0286   0.0063  -0.0097  -0.0048   0.00    0.0
2021/10/21 12:40:12.000   28 35 34.11551  -17 55 01.59905    73.3513   6   8   0.0082   0.0198   0.0285   0.0062  -0.0096  -0.0047   0.00    0.0
2021/10/21 12:40:42.000   28 35 34.11551  -17 55 01.59905    73.3515   6   8   0.0082   0.0198   0.0285   0.0062  -0.0095  -0.0047   0.00    0.0
2021/10/21 12:41:12.000   28 35 34.11551  -17 55 01.59904    73.3515   6   8   0.0082   0.0198   0.0285   0.0062  -0.0095  -0.0047   0.00    0.0
2021/10/21 12:41:42.000   28 35 34.11551  -17 55 01.59903    73.3515   6   8   0.0082   0.0198   0.0285   0.0062  -0.0095  -0.0047   0.00    0.0
2021/10/21 12:42:12.000   28 35 34.11551  -17 55 01.59902    73.3514   6   8   0.0082   0.0197   0.0285   0.0062  -0.0095  -0.0047   0.00    0.0
2021/10/21 12:42:42.000   28 35 34.11551  -17 55 01.59902    73.3512   6   8   0.0082   0.0197   0.0285   0.0062  -0.0094  -0.0046   0.00    0.0
2021/10/21 12:43:12.000   28 35 34.11551  -17 55 01.59900    73.3507   6   8   0.0081   0.0197   0.0285   0.0062  -0.0094  -0.0046   0.00    0.0
2021/10/21 12:43:42.000   28 35 34.11551  -17 55 01.59898    73.3504   6   7   0.0081   0.0197   0.0284   0.0062  -0.0094  -0.0046   0.00    0.0
2021/10/21 12:44:12.000   28 35 34.11551  -17 55 01.59897    73.3497   6   7   0.0081   0.0196   0.0283   0.0061  -0.0092  -0.0046   0.00    0.0
2021/10/21 12:44:42.000   28 35 34.11551  -17 55 01.59895    73.3489   6   7   0.0079   0.0194   0.0280   0.0060  -0.0087  -0.0044   0.00    0.0
2021/10/21 12:45:12.000   28 35 34.11551  -17 55 01.59898    73.3488   6   7   0.0079   0.0194   0.0279   0.0059  -0.0086  -0.0044   0.00    0.0
2021/10/21 12:45:42.000   28 35 34.11551  -17 55 01.59897    73.3483   6   7   0.0079   0.0193   0.0279   0.0059  -0.0085  -0.0044   0.00    0.0
2021/10/21 12:46:12.000   28 35 34.11551  -17 55 01.59896    73.3483   6   7   0.0079   0.0193   0.0279   0.0059  -0.0085  -0.0044   0.00    0.0
2021/10/21 12:46:42.000   28 35 34.11552  -17 55 01.59895    73.3483   6   7   0.0079   0.0193   0.0279   0.0059  -0.0085  -0.0044   0.00    0.0
2021/10/21 12:47:12.000   28 35 34.11552  -17 55 01.59894    73.3483   6   7   0.0079   0.0193   0.0279   0.0059  -0.0085  -0.0044   0.00    0.0
2021/10/21 12:47:42.000   28 35 34.11552  -17 55 01.59894    73.3484   6   7   0.0079   0.0193   0.0279   0.0059  -0.0085  -0.0044   0.00    0.0
2021/10/21 12:48:12.000   28 35 34.11552  -17 55 01.59894    73.3483   6   7   0.0079   0.0193   0.0279   0.0059  -0.0085  -0.0044   0.00    0.0
2021/10/21 12:48:42.000   28 35 34.11553  -17 55 01.59894    73.3481   6   8   0.0079   0.0193   0.0278   0.0059  -0.0084  -0.0043   0.00    0.0
2021/10/21 12:49:12.000   28 35 34.11553  -17 55 01.59893    73.3476   6   8   0.0078   0.0192   0.0277   0.0058  -0.0083  -0.0043   0.00    0.0
2021/10/21 12:49:42.000   28 35 34.11553  -17 55 01.59896    73.3475   6   8   0.0077   0.0190   0.0275   0.0057  -0.0079  -0.0042   0.00    0.0
2021/10/21 12:50:12.000   28 35 34.11553  -17 55 01.59896    73.3479   6   8   0.0076   0.0189   0.0274   0.0057  -0.0078  -0.0042   0.00    0.0
2021/10/21 12:50:42.000   28 35 34.11553  -17 55 01.59897    73.3481   6   8   0.0076   0.0189   0.0274   0.0057  -0.0077  -0.0042   0.00    0.0
2021/10/21 12:51:12.000   28 35 34.11554  -17 55 01.59896    73.3479   6   8   0.0076   0.0189   0.0274   0.0056  -0.0077  -0.0042   0.00    0.0
