% program   : RTKLIB ver.2.4.2
% inp file  : C:\IPNA\data\OBS\CVBB2870.o
% inp file  : C:\IPNA\data\NAV\CVBB2870.n
% inp file  : C:\IPNA\data\SP3\CVBB2870.sp3
% inp file  : C:\IPNA\data\CLOCK\CVBB2870.clk
% obs start : 2021/10/14 11:04:12.0 UTC (week2179 385470.0s)
% obs end   : 2021/10/14 23:59:12.0 UTC (week2179 431970.0s)
% pos mode  : ppp-static
% solution  : forward
% elev mask : 15.0 deg
% dynamics  : off
% tidecorr  : on
% tropo opt : est ztd
% ephemeris : precise
% antenna1  :                       ( 0.0000  0.0000  0.0000)
%
% (lat/lon/height=WGS84/ellipsoidal,Q=1:fix,2:float,3:sbas,4:dgps,5:single,6:ppp,ns=# of satellites)
%  UTC                     latitude(d'")   longitude(d'")  height(m)   Q  ns   sdn(m)   sde(m)   sdu(m)  sdne(m)  sdeu(m)  sdue(m) age(s)  ratio
2021/10/14 11:04:11.989   28 35 34.12522  -17 55 01.58470    72.4945   6   7   1.5020   1.7796   3.9792  -0.5386   1.7350  -0.8647   0.00    0.0
2021/10/14 11:04:42.000   28 35 34.12261  -17 55 01.58770    71.2937   6   7   1.0375   1.2418   2.6944  -0.3765   1.1505  -0.5897   0.00    0.0
2021/10/14 11:05:12.000   28 35 34.12462  -17 55 01.59436    70.7698   6   8   0.8247   0.9966   2.0843  -0.3345   0.9349  -0.3999   0.00    0.0
2021/10/14 11:05:42.000   28 35 34.12320  -17 55 01.59158    70.5748   6   8   0.7054   0.8566   1.7662  -0.3008   0.8041  -0.3202   0.00    0.0
2021/10/14 11:06:12.000   28 35 34.12353  -17 55 01.59424    70.8683   6   8   0.6263   0.7633   1.5637  -0.2757   0.7152  -0.2755   0.00    0.0
2021/10/14 11:06:42.000   28 35 34.12486  -17 55 01.59262    70.9698   6   8   0.5689   0.6955   1.4210  -0.2565   0.6501  -0.2465   0.00    0.0
2021/10/14 11:07:12.000   28 35 34.12455  -17 55 01.59276    71.0702   6   8   0.5249   0.6436   1.3139  -0.2412   0.6000  -0.2260   0.00    0.0
2021/10/14 11:07:42.000   28 35 34.12630  -17 55 01.59183    71.2583   6   8   0.4850   0.5974   1.2070  -0.2267   0.5444  -0.2075   0.00    0.0
2021/10/14 11:08:12.000   28 35 34.12512  -17 55 01.59007    71.4509   6   8   0.4443   0.5528   1.0874  -0.2107   0.4754  -0.1866   0.00    0.0
2021/10/14 11:08:42.000   28 35 34.12247  -17 55 01.58587    71.6618   6   8   0.3948   0.5058   0.9382  -0.1891   0.3787  -0.1557   0.00    0.0
2021/10/14 11:09:12.000   28 35 34.11803  -17 55 01.58091    72.0479   6   8   0.3194   0.4538   0.7403  -0.1547   0.2259  -0.1023   0.00    0.0
2021/10/14 11:09:42.000   28 35 34.11858  -17 55 01.57609    72.5336   6   8   0.2263   0.4082   0.5461  -0.1150  -0.1132  -0.0424   0.00    0.0
2021/10/14 11:10:12.000   28 35 34.11828  -17 55 01.57720    72.5655   6   8   0.2137   0.3910   0.5210  -0.1097  -0.1215  -0.0305   0.00    0.0
2021/10/14 11:10:42.000   28 35 34.11801  -17 55 01.57790    72.5507   6   7   0.2080   0.3790   0.5103  -0.1083  -0.1184  -0.0221   0.00    0.0
2021/10/14 11:11:12.000   28 35 34.11780  -17 55 01.57826    72.5564   6   7   0.2040   0.3686   0.5032  -0.1075  -0.1127  -0.0147   0.00    0.0
2021/10/14 11:11:42.000   28 35 34.11817  -17 55 01.57896    72.5482   6   7   0.2008   0.3593   0.4975  -0.1068  -0.1061  -0.0053   0.00    0.0
2021/10/14 11:12:12.000   28 35 34.11841  -17 55 01.57868    72.5446   6   7   0.1980   0.3508   0.4926  -0.1062  -0.0994   0.0103   0.00    0.0
2021/10/14 11:12:42.000   28 35 34.11847  -17 55 01.57772    72.5343   6   7   0.1944   0.3426   0.4860  -0.1052  -0.0956   0.0169   0.00    0.0
2021/10/14 11:13:12.000   28 35 34.11845  -17 55 01.57696    72.5374   6   7   0.1893   0.3344   0.4756  -0.1034  -0.0972   0.0240   0.00    0.0
2021/10/14 11:13:42.000   28 35 34.11921  -17 55 01.57661    72.6223   6   7   0.1805   0.3254   0.4561  -0.0998  -0.1088   0.0333   0.00    0.0
2021/10/14 11:14:12.000   28 35 34.12041  -17 55 01.57605    72.7823   6   7   0.1606   0.3136   0.4116  -0.0912  -0.1369   0.0444   0.00    0.0
2021/10/14 11:14:42.000   28 35 34.11864  -17 55 01.57597    72.8444   6   7   0.1224   0.2973   0.3324  -0.0753  -0.1689   0.0467   0.00    0.0
2021/10/14 11:15:12.000   28 35 34.11806  -17 55 01.57588    72.8054   6   7   0.1170   0.2905   0.3197  -0.0730  -0.1685   0.0472   0.00    0.0
2021/10/14 11:15:42.000   28 35 34.11823  -17 55 01.57551    72.7992   6   7   0.1149   0.2851   0.3145  -0.0721  -0.1658   0.0472   0.00    0.0
2021/10/14 11:16:12.000   28 35 34.11831  -17 55 01.57484    72.7899   6   7   0.1137   0.2803   0.3112  -0.0715  -0.1628   0.0471   0.00    0.0
2021/10/14 11:16:42.000   28 35 34.11845  -17 55 01.57419    72.7814   6   7   0.1128   0.2759   0.3087  -0.0710  -0.1598   0.0468   0.00    0.0
2021/10/14 11:17:12.000   28 35 34.11860  -17 55 01.57404    72.7754   6   7   0.1121   0.2717   0.3065  -0.0706  -0.1568   0.0466   0.00    0.0
2021/10/14 11:17:42.000   28 35 34.11872  -17 55 01.57244    72.7499   6   7   0.1111   0.2677   0.3037  -0.0701  -0.1542   0.0463   0.00    0.0
2021/10/14 11:18:12.000   28 35 34.11869  -17 55 01.57231    72.7445   6   7   0.1095   0.2636   0.2993  -0.0694  -0.1522   0.0463   0.00    0.0
2021/10/14 11:18:42.000   28 35 34.11856  -17 55 01.57173    72.7475   6   7   0.1064   0.2593   0.2911  -0.0681  -0.1516   0.0464   0.00    0.0
2021/10/14 11:19:12.000   28 35 34.11795  -17 55 01.57078    72.7760   6   7   0.0984   0.2537   0.2716  -0.0648  -0.1541   0.0465   0.00    0.0
2021/10/14 11:19:42.000   28 35 34.11695  -17 55 01.57047    72.8309   6   7   0.0799   0.2445   0.2324  -0.0575  -0.1591   0.0435   0.00    0.0
2021/10/14 11:20:12.000   28 35 34.11690  -17 55 01.57014    72.8347   6   7   0.0770   0.2405   0.2247  -0.0563  -0.1577   0.0430   0.00    0.0
2021/10/14 11:20:42.000   28 35 34.11687  -17 55 01.57029    72.8383   6   7   0.0760   0.2374   0.2215  -0.0557  -0.1558   0.0427   0.00    0.0
2021/10/14 11:21:12.000   28 35 34.11690  -17 55 01.56991    72.8358   6   8   0.0754   0.2344   0.2194  -0.0551  -0.1538   0.0423   0.00    0.0
2021/10/14 11:21:42.000   28 35 34.11699  -17 55 01.56941    72.8305   6   8   0.0750   0.2316   0.2178  -0.0546  -0.1518   0.0420   0.00    0.0
2021/10/14 11:22:12.000   28 35 34.11706  -17 55 01.56893    72.8266   6   8   0.0746   0.2289   0.2165  -0.0542  -0.1499   0.0416   0.00    0.0
2021/10/14 11:22:42.000   28 35 34.11711  -17 55 01.56873    72.8266   6   8   0.0742   0.2262   0.2148  -0.0537  -0.1480   0.0413   0.00    0.0
2021/10/14 11:23:12.000   28 35 34.11697  -17 55 01.56815    72.8170   6   8   0.0734   0.2236   0.2123  -0.0531  -0.1464   0.0409   0.00    0.0
2021/10/14 11:23:42.000   28 35 34.11673  -17 55 01.56779    72.8121   6   7   0.0720   0.2211   0.2091  -0.0523  -0.1451   0.0406   0.00    0.0
2021/10/14 11:24:12.000   28 35 34.11619  -17 55 01.56787    72.8104   6   7   0.0681   0.2179   0.2011  -0.0508  -0.1444   0.0400   0.00    0.0
2021/10/14 11:24:42.000   28 35 34.11585  -17 55 01.56797    72.8407   6   7   0.0578   0.2118   0.1818  -0.0473  -0.1441   0.0380   0.00    0.0
2021/10/14 11:25:12.000   28 35 34.11565  -17 55 01.56843    72.8568   6   7   0.0560   0.2093   0.1781  -0.0465  -0.1428   0.0375   0.00    0.0
2021/10/14 11:25:42.000   28 35 34.11555  -17 55 01.56809    72.8534   6   7   0.0554   0.2073   0.1765  -0.0460  -0.1415   0.0372   0.00    0.0
2021/10/14 11:26:12.000   28 35 34.11553  -17 55 01.56781    72.8503   6   7   0.0551   0.2056   0.1754  -0.0457  -0.1403   0.0369   0.00    0.0
2021/10/14 11:26:42.000   28 35 34.11554  -17 55 01.56776    72.8504   6   7   0.0548   0.2039   0.1745  -0.0453  -0.1391   0.0367   0.00    0.0
2021/10/14 11:27:12.000   28 35 34.11553  -17 55 01.56775    72.8496   6   7   0.0547   0.2023   0.1738  -0.0450  -0.1379   0.0365   0.00    0.0
2021/10/14 11:27:42.000   28 35 34.11551  -17 55 01.56765    72.8470   6   7   0.0544   0.2007   0.1729  -0.0446  -0.1367   0.0362   0.00    0.0
2021/10/14 11:28:12.000   28 35 34.11545  -17 55 01.56754    72.8452   6   7   0.0540   0.1991   0.1717  -0.0443  -0.1356   0.0359   0.00    0.0
2021/10/14 11:28:42.000   28 35 34.11536  -17 55 01.56770    72.8448   6   7   0.0532   0.1973   0.1697  -0.0438  -0.1344   0.0356   0.00    0.0
2021/10/14 11:29:12.000   28 35 34.11525  -17 55 01.56785    72.8509   6   7   0.0509   0.1948   0.1648  -0.0429  -0.1332   0.0349   0.00    0.0
2021/10/14 11:29:42.000   28 35 34.11525  -17 55 01.56870    72.9070   6   7   0.0446   0.1900   0.1525  -0.0409  -0.1318   0.0336   0.00    0.0
2021/10/14 11:30:12.000   28 35 34.11544  -17 55 01.56917    72.9346   6   7   0.0434   0.1880   0.1498  -0.0404  -0.1305   0.0332   0.00    0.0
2021/10/14 11:30:42.000   28 35 34.11547  -17 55 01.56952    72.9451   6   7   0.0430   0.1865   0.1486  -0.0400  -0.1295   0.0329   0.00    0.0
2021/10/14 11:31:12.000   28 35 34.11547  -17 55 01.56952    72.9471   6   7   0.0428   0.1852   0.1478  -0.0397  -0.1286   0.0327   0.00    0.0
2021/10/14 11:31:42.000   28 35 34.11548  -17 55 01.56936    72.9459   6   7   0.0426   0.1839   0.1472  -0.0395  -0.1277   0.0325   0.00    0.0
2021/10/14 11:32:12.000   28 35 34.11549  -17 55 01.56928    72.9455   6   7   0.0425   0.1827   0.1466  -0.0392  -0.1268   0.0323   0.00    0.0
2021/10/14 11:32:42.000   28 35 34.11548  -17 55 01.56909    72.9443   6   7   0.0424   0.1815   0.1460  -0.0390  -0.1259   0.0321   0.00    0.0
2021/10/14 11:33:12.000   28 35 34.11548  -17 55 01.56879    72.9433   6   7   0.0421   0.1802   0.1451  -0.0387  -0.1250   0.0319   0.00    0.0
2021/10/14 11:33:42.000   28 35 34.11550  -17 55 01.56861    72.9465   6   7   0.0416   0.1788   0.1437  -0.0384  -0.1240   0.0316   0.00    0.0
2021/10/14 11:34:12.000   28 35 34.11542  -17 55 01.56891    72.9584   6   7   0.0402   0.1768   0.1404  -0.0378  -0.1228   0.0311   0.00    0.0
2021/10/14 11:34:42.000   28 35 34.11535  -17 55 01.56977    72.9746   6   7   0.0360   0.1728   0.1321  -0.0367  -0.1212   0.0303   0.00    0.0
2021/10/14 11:35:12.000   28 35 34.11537  -17 55 01.57005    72.9865   6   7   0.0352   0.1711   0.1301  -0.0363  -0.1202   0.0300   0.00    0.0
2021/10/14 11:35:42.000   28 35 34.11538  -17 55 01.57024    72.9922   6   7   0.0349   0.1699   0.1292  -0.0360  -0.1193   0.0297   0.00    0.0
2021/10/14 11:36:12.000   28 35 34.11536  -17 55 01.57023    72.9912   6   7   0.0348   0.1689   0.1286  -0.0358  -0.1186   0.0296   0.00    0.0
2021/10/14 11:36:42.000   28 35 34.11534  -17 55 01.57018    72.9898   6   7   0.0347   0.1679   0.1281  -0.0356  -0.1179   0.0294   0.00    0.0
2021/10/14 11:37:12.000   28 35 34.11532  -17 55 01.56990    72.9853   6   7   0.0346   0.1670   0.1276  -0.0354  -0.1172   0.0293   0.00    0.0
2021/10/14 11:37:42.000   28 35 34.11530  -17 55 01.56983    72.9843   6   7   0.0345   0.1661   0.1271  -0.0352  -0.1165   0.0291   0.00    0.0
2021/10/14 11:38:12.000   28 35 34.11529  -17 55 01.56983    72.9857   6   7   0.0343   0.1651   0.1265  -0.0350  -0.1158   0.0289   0.00    0.0
2021/10/14 11:38:42.000   28 35 34.11533  -17 55 01.57040    72.9982   6   7   0.0340   0.1639   0.1255  -0.0347  -0.1150   0.0287   0.00    0.0
2021/10/14 11:39:12.000   28 35 34.11531  -17 55 01.57085    73.0097   6   7   0.0330   0.1622   0.1231  -0.0343  -0.1138   0.0283   0.00    0.0
2021/10/14 11:39:42.000   28 35 34.11519  -17 55 01.57190    73.0163   6   7   0.0301   0.1587   0.1173  -0.0336  -0.1123   0.0278   0.00    0.0
2021/10/14 11:40:12.000   28 35 34.11508  -17 55 01.57198    73.0142   6   7   0.0295   0.1573   0.1157  -0.0332  -0.1113   0.0275   0.00    0.0
2021/10/14 11:40:42.000   28 35 34.11504  -17 55 01.57245    73.0194   6   7   0.0293   0.1563   0.1150  -0.0330  -0.1106   0.0273   0.00    0.0
2021/10/14 11:41:12.000   28 35 34.11501  -17 55 01.57244    73.0183   6   7   0.0292   0.1555   0.1145  -0.0328  -0.1100   0.0272   0.00    0.0
2021/10/14 11:41:42.000   28 35 34.11501  -17 55 01.57228    73.0158   6   7   0.0291   0.1547   0.1141  -0.0327  -0.1095   0.0270   0.00    0.0
2021/10/14 11:42:12.000   28 35 34.11501  -17 55 01.57205    73.0134   6   7   0.0291   0.1540   0.1138  -0.0325  -0.1089   0.0269   0.00    0.0
2021/10/14 11:42:42.000   28 35 34.11503  -17 55 01.57181    73.0114   6   7   0.0290   0.1532   0.1134  -0.0323  -0.1084   0.0268   0.00    0.0
2021/10/14 11:43:12.000   28 35 34.11506  -17 55 01.57155    73.0097   6   8   0.0289   0.1523   0.1129  -0.0321  -0.1077   0.0266   0.00    0.0
2021/10/14 11:43:42.000   28 35 34.11510  -17 55 01.57130    73.0090   6   8   0.0286   0.1512   0.1120  -0.0319  -0.1069   0.0264   0.00    0.0
2021/10/14 11:44:12.000   28 35 34.11509  -17 55 01.57142    73.0089   6   9   0.0279   0.1495   0.1103  -0.0315  -0.1058   0.0260   0.00    0.0
2021/10/14 11:44:42.000   28 35 34.11499  -17 55 01.57220    73.0113   6   9   0.0259   0.1462   0.1058  -0.0309  -0.1041   0.0257   0.00    0.0
2021/10/14 11:45:12.000   28 35 34.11497  -17 55 01.57232    73.0107   6   9   0.0254   0.1448   0.1045  -0.0306  -0.1031   0.0253   0.00    0.0
2021/10/14 11:45:42.000   28 35 34.11495  -17 55 01.57235    73.0096   6   9   0.0252   0.1439   0.1039  -0.0303  -0.1024   0.0252   0.00    0.0
2021/10/14 11:46:12.000   28 35 34.11490  -17 55 01.57237    73.0082   6   9   0.0251   0.1431   0.1035  -0.0302  -0.1019   0.0250   0.00    0.0
2021/10/14 11:46:42.000   28 35 34.11489  -17 55 01.57254    73.0095   6   9   0.0251   0.1424   0.1031  -0.0300  -0.1013   0.0249   0.00    0.0
2021/10/14 11:47:12.000   28 35 34.11490  -17 55 01.57282    73.0135   6   9   0.0250   0.1417   0.1028  -0.0298  -0.1008   0.0248   0.00    0.0
2021/10/14 11:47:42.000   28 35 34.11492  -17 55 01.57293    73.0155   6   9   0.0250   0.1410   0.1024  -0.0297  -0.1003   0.0247   0.00    0.0
2021/10/14 11:48:12.000   28 35 34.11494  -17 55 01.57300    73.0171   6   9   0.0249   0.1402   0.1020  -0.0295  -0.0997   0.0245   0.00    0.0
2021/10/14 11:48:42.000   28 35 34.11497  -17 55 01.57298    73.0182   6   9   0.0247   0.1392   0.1013  -0.0292  -0.0990   0.0243   0.00    0.0
2021/10/14 11:49:12.000   28 35 34.11500  -17 55 01.57294    73.0175   6   9   0.0242   0.1376   0.0998  -0.0288  -0.0978   0.0239   0.00    0.0
2021/10/14 11:49:42.000   28 35 34.11487  -17 55 01.57361    73.0221   6   9   0.0226   0.1344   0.0960  -0.0283  -0.0959   0.0237   0.00    0.0
2021/10/14 11:50:12.000   28 35 34.11480  -17 55 01.57354    73.0181   6   9   0.0223   0.1331   0.0948  -0.0280  -0.0949   0.0233   0.00    0.0
2021/10/14 11:50:42.000   28 35 34.11475  -17 55 01.57339    73.0131   6   9   0.0221   0.1323   0.0943  -0.0278  -0.0943   0.0232   0.00    0.0
2021/10/14 11:51:12.000   28 35 34.11473  -17 55 01.57342    73.0119   6   9   0.0221   0.1316   0.0939  -0.0276  -0.0938   0.0231   0.00    0.0
2021/10/14 11:51:42.000   28 35 34.11473  -17 55 01.57348    73.0122   6   9   0.0220   0.1310   0.0936  -0.0275  -0.0933   0.0230   0.00    0.0
2021/10/14 11:52:12.000   28 35 34.11473  -17 55 01.57366    73.0142   6   9   0.0220   0.1304   0.0934  -0.0273  -0.0929   0.0229   0.00    0.0
2021/10/14 11:52:42.000   28 35 34.11471  -17 55 01.57378    73.0150   6   9   0.0219   0.1298   0.0931  -0.0272  -0.0925   0.0228   0.00    0.0
2021/10/14 11:53:12.000   28 35 34.11470  -17 55 01.57410    73.0185   6   9   0.0219   0.1292   0.0927  -0.0271  -0.0920   0.0227   0.00    0.0
2021/10/14 11:53:42.000   28 35 34.11467  -17 55 01.57457    73.0224   6   9   0.0217   0.1283   0.0921  -0.0269  -0.0913   0.0225   0.00    0.0
2021/10/14 11:54:12.000   28 35 34.11457  -17 55 01.57507    73.0222   6   9   0.0214   0.1269   0.0908  -0.0266  -0.0903   0.0224   0.00    0.0
2021/10/14 11:54:42.000   28 35 34.11453  -17 55 01.57572    73.0308   6   9   0.0203   0.1236   0.0876  -0.0263  -0.0881   0.0224   0.00    0.0
2021/10/14 11:55:12.000   28 35 34.11459  -17 55 01.57555    73.0362   6   9   0.0200   0.1223   0.0866  -0.0261  -0.0872   0.0222   0.00    0.0
2021/10/14 11:55:42.000   28 35 34.11463  -17 55 01.57554    73.0391   6   9   0.0199   0.1216   0.0862  -0.0259  -0.0867   0.0221   0.00    0.0
2021/10/14 11:56:12.000   28 35 34.11466  -17 55 01.57581    73.0442   6   9   0.0199   0.1211   0.0858  -0.0258  -0.0863   0.0220   0.00    0.0
2021/10/14 11:56:42.000   28 35 34.11468  -17 55 01.57589    73.0460   6   9   0.0198   0.1206   0.0856  -0.0257  -0.0859   0.0219   0.00    0.0
2021/10/14 11:57:12.000   28 35 34.11469  -17 55 01.57605    73.0487   6   9   0.0198   0.1201   0.0854  -0.0256  -0.0855   0.0218   0.00    0.0
2021/10/14 11:57:42.000   28 35 34.11469  -17 55 01.57596    73.0475   6   9   0.0198   0.1196   0.0851  -0.0254  -0.0851   0.0217   0.00    0.0
2021/10/14 11:58:12.000   28 35 34.11469  -17 55 01.57596    73.0477   6   9   0.0197   0.1190   0.0848  -0.0253  -0.0847   0.0216   0.00    0.0
2021/10/14 11:58:42.000   28 35 34.11467  -17 55 01.57593    73.0489   6   9   0.0196   0.1182   0.0842  -0.0251  -0.0840   0.0215   0.00    0.0
2021/10/14 11:59:12.000   28 35 34.11463  -17 55 01.57632    73.0525   6   9   0.0193   0.1166   0.0829  -0.0248  -0.0827   0.0212   0.00    0.0
2021/10/14 11:59:42.000   28 35 34.11462  -17 55 01.57712    73.0638   6   9   0.0184   0.1129   0.0794  -0.0241  -0.0798   0.0208   0.00    0.0
2021/10/14 12:00:12.000   28 35 34.11462  -17 55 01.57747    73.0682   6   9   0.0181   0.1116   0.0783  -0.0238  -0.0787   0.0205   0.00    0.0
2021/10/14 12:00:42.000   28 35 34.11461  -17 55 01.57743    73.0684   6   9   0.0181   0.1109   0.0779  -0.0237  -0.0782   0.0204   0.00    0.0
2021/10/14 12:01:12.000   28 35 34.11461  -17 55 01.57744    73.0695   6   9   0.0180   0.1104   0.0776  -0.0235  -0.0778   0.0203   0.00    0.0
2021/10/14 12:01:42.000   28 35 34.11461  -17 55 01.57732    73.0689   6   9   0.0180   0.1100   0.0774  -0.0234  -0.0775   0.0202   0.00    0.0
2021/10/14 12:02:12.000   28 35 34.11460  -17 55 01.57712    73.0664   6   9   0.0180   0.1096   0.0772  -0.0233  -0.0772   0.0201   0.00    0.0
2021/10/14 12:02:42.000   28 35 34.11459  -17 55 01.57702    73.0650   6   9   0.0179   0.1092   0.0769  -0.0232  -0.0769   0.0201   0.00    0.0
2021/10/14 12:03:12.000   28 35 34.11459  -17 55 01.57697    73.0647   6   9   0.0179   0.1086   0.0766  -0.0231  -0.0764   0.0200   0.00    0.0
2021/10/14 12:03:42.000   28 35 34.11459  -17 55 01.57692    73.0640   6   9   0.0178   0.1079   0.0761  -0.0229  -0.0758   0.0198   0.00    0.0
2021/10/14 12:04:12.000   28 35 34.11458  -17 55 01.57725    73.0684   6   9   0.0175   0.1063   0.0747  -0.0225  -0.0744   0.0194   0.00    0.0
2021/10/14 12:04:42.000   28 35 34.11459  -17 55 01.57879    73.0932   6   9   0.0167   0.1021   0.0710  -0.0216  -0.0708   0.0188   0.00    0.0
2021/10/14 12:05:12.000   28 35 34.11458  -17 55 01.57895    73.0940   6   9   0.0166   0.1009   0.0700  -0.0213  -0.0697   0.0184   0.00    0.0
2021/10/14 12:05:42.000   28 35 34.11459  -17 55 01.57890    73.0933   6   9   0.0165   0.1003   0.0696  -0.0211  -0.0692   0.0183   0.00    0.0
2021/10/14 12:06:12.000   28 35 34.11459  -17 55 01.57886    73.0930   6   9   0.0164   0.0999   0.0693  -0.0210  -0.0689   0.0182   0.00    0.0
2021/10/14 12:06:42.000   28 35 34.11459  -17 55 01.57877    73.0920   6   9   0.0164   0.0995   0.0691  -0.0209  -0.0686   0.0182   0.00    0.0
2021/10/14 12:07:12.000   28 35 34.11459  -17 55 01.57875    73.0919   6   9   0.0164   0.0992   0.0690  -0.0208  -0.0683   0.0181   0.00    0.0
2021/10/14 12:07:42.000   28 35 34.11460  -17 55 01.57870    73.0915   6   9   0.0164   0.0988   0.0688  -0.0207  -0.0681   0.0180   0.00    0.0
2021/10/14 12:08:12.000   28 35 34.11460  -17 55 01.57859    73.0909   6   9   0.0163   0.0984   0.0685  -0.0206  -0.0677   0.0179   0.00    0.0
2021/10/14 12:08:42.000   28 35 34.11461  -17 55 01.57852    73.0914   6   9   0.0163   0.0977   0.0680  -0.0204  -0.0671   0.0178   0.00    0.0
2021/10/14 12:09:12.000   28 35 34.11462  -17 55 01.57874    73.0978   6   9   0.0160   0.0961   0.0666  -0.0200  -0.0656   0.0174   0.00    0.0
2021/10/14 12:09:42.000   28 35 34.11466  -17 55 01.58060    73.1255   6   9   0.0153   0.0919   0.0629  -0.0190  -0.0618   0.0166   0.00    0.0
2021/10/14 12:10:12.000   28 35 34.11468  -17 55 01.58131    73.1345   6   9   0.0152   0.0907   0.0619  -0.0186  -0.0606   0.0163   0.00    0.0
2021/10/14 12:10:42.000   28 35 34.11467  -17 55 01.58151    73.1365   6   9   0.0151   0.0902   0.0615  -0.0185  -0.0602   0.0162   0.00    0.0
2021/10/14 12:11:12.000   28 35 34.11466  -17 55 01.58158    73.1372   6   9   0.0151   0.0898   0.0613  -0.0184  -0.0599   0.0161   0.00    0.0
2021/10/14 12:11:42.000   28 35 34.11466  -17 55 01.58150    73.1364   6   9   0.0151   0.0896   0.0612  -0.0183  -0.0597   0.0160   0.00    0.0
2021/10/14 12:12:12.000   28 35 34.11466  -17 55 01.58150    73.1367   6   9   0.0150   0.0893   0.0610  -0.0183  -0.0595   0.0160   0.00    0.0
2021/10/14 12:12:42.000   28 35 34.11466  -17 55 01.58145    73.1365   6   9   0.0150   0.0890   0.0609  -0.0182  -0.0592   0.0159   0.00    0.0
2021/10/14 12:13:12.000   28 35 34.11466  -17 55 01.58142    73.1366   6   9   0.0150   0.0886   0.0606  -0.0181  -0.0589   0.0158   0.00    0.0
2021/10/14 12:13:42.000   28 35 34.11467  -17 55 01.58146    73.1360   6   9   0.0149   0.0880   0.0601  -0.0179  -0.0583   0.0157   0.00    0.0
2021/10/14 12:14:12.000   28 35 34.11466  -17 55 01.58183    73.1390   6   9   0.0147   0.0866   0.0589  -0.0175  -0.0569   0.0153   0.00    0.0
2021/10/14 12:14:42.000   28 35 34.11470  -17 55 01.58337    73.1627   6   9   0.0141   0.0825   0.0554  -0.0164  -0.0531   0.0145   0.00    0.0
2021/10/14 12:15:12.000   28 35 34.11470  -17 55 01.58354    73.1645   6   9   0.0140   0.0815   0.0545  -0.0161  -0.0520   0.0142   0.00    0.0
2021/10/14 12:15:42.000   28 35 34.11469  -17 55 01.58357    73.1641   6   9   0.0139   0.0810   0.0541  -0.0160  -0.0516   0.0141   0.00    0.0
2021/10/14 12:16:12.000   28 35 34.11469  -17 55 01.58358    73.1645   6   9   0.0139   0.0807   0.0539  -0.0159  -0.0513   0.0140   0.00    0.0
2021/10/14 12:16:42.000   28 35 34.11469  -17 55 01.58354    73.1648   6   9   0.0139   0.0805   0.0538  -0.0158  -0.0511   0.0139   0.00    0.0
2021/10/14 12:17:12.000   28 35 34.11469  -17 55 01.58351    73.1652   6   9   0.0139   0.0803   0.0537  -0.0158  -0.0510   0.0139   0.00    0.0
2021/10/14 12:17:42.000   28 35 34.11469  -17 55 01.58345    73.1655   6   9   0.0138   0.0800   0.0536  -0.0157  -0.0508   0.0139   0.00    0.0
2021/10/14 12:18:12.000   28 35 34.11469  -17 55 01.58354    73.1676   6   9   0.0138   0.0797   0.0533  -0.0156  -0.0505   0.0138   0.00    0.0
2021/10/14 12:18:42.000   28 35 34.11469  -17 55 01.58379    73.1716   6   9   0.0138   0.0792   0.0529  -0.0155  -0.0500   0.0136   0.00    0.0
2021/10/14 12:19:12.000   28 35 34.11468  -17 55 01.58444    73.1775   6   9   0.0136   0.0779   0.0518  -0.0151  -0.0487   0.0133   0.00    0.0
2021/10/14 12:19:42.000   28 35 34.11470  -17 55 01.58562    73.1965   6   9   0.0131   0.0743   0.0487  -0.0141  -0.0451   0.0126   0.00    0.0
2021/10/14 12:20:12.000   28 35 34.11467  -17 55 01.58556    73.1980   6   9   0.0129   0.0733   0.0478  -0.0139  -0.0441   0.0123   0.00    0.0
2021/10/14 12:20:42.000   28 35 34.11467  -17 55 01.58557    73.1988   6   9   0.0129   0.0730   0.0475  -0.0138  -0.0438   0.0122   0.00    0.0
2021/10/14 12:21:12.000   28 35 34.11467  -17 55 01.58555    73.1992   6   9   0.0129   0.0727   0.0473  -0.0137  -0.0436   0.0121   0.00    0.0
2021/10/14 12:21:42.000   28 35 34.11467  -17 55 01.58555    73.2000   6   9   0.0129   0.0725   0.0472  -0.0136  -0.0434   0.0121   0.00    0.0
2021/10/14 12:22:12.000   28 35 34.11467  -17 55 01.58547    73.2000   6   9   0.0128   0.0724   0.0471  -0.0136  -0.0433   0.0120   0.00    0.0
2021/10/14 12:22:42.000   28 35 34.11467  -17 55 01.58543    73.2001   6   9   0.0128   0.0722   0.0470  -0.0135  -0.0431   0.0120   0.00    0.0
2021/10/14 12:23:12.000   28 35 34.11467  -17 55 01.58545    73.2010   6   9   0.0128   0.0719   0.0468  -0.0135  -0.0429   0.0119   0.00    0.0
2021/10/14 12:23:42.000   28 35 34.11468  -17 55 01.58555    73.2050   6   9   0.0127   0.0715   0.0464  -0.0133  -0.0424   0.0118   0.00    0.0
2021/10/14 12:24:12.000   28 35 34.11472  -17 55 01.58599    73.2163   6   9   0.0126   0.0704   0.0454  -0.0130  -0.0412   0.0115   0.00    0.0
2021/10/14 12:24:42.000   28 35 34.11476  -17 55 01.58710    73.2368   6   9   0.0122   0.0672   0.0428  -0.0121  -0.0380   0.0109   0.00    0.0
2021/10/14 12:25:12.000   28 35 34.11479  -17 55 01.58767    73.2479   6   9   0.0120   0.0664   0.0421  -0.0118  -0.0371   0.0106   0.00    0.0
2021/10/14 12:25:42.000   28 35 34.11480  -17 55 01.58787    73.2525   6   9   0.0120   0.0661   0.0418  -0.0117  -0.0368   0.0105   0.00    0.0
2021/10/14 12:26:12.000   28 35 34.11480  -17 55 01.58790    73.2542   6   9   0.0120   0.0659   0.0416  -0.0117  -0.0366   0.0105   0.00    0.0
2021/10/14 12:26:42.000   28 35 34.11480  -17 55 01.58789    73.2549   6   9   0.0120   0.0657   0.0415  -0.0116  -0.0365   0.0104   0.00    0.0
2021/10/14 12:27:12.000   28 35 34.11480  -17 55 01.58789    73.2559   6   9   0.0120   0.0656   0.0415  -0.0116  -0.0364   0.0104   0.00    0.0
2021/10/14 12:27:42.000   28 35 34.11480  -17 55 01.58782    73.2558   6   8   0.0120   0.0655   0.0414  -0.0116  -0.0363   0.0104   0.00    0.0
2021/10/14 12:28:12.000   28 35 34.11480  -17 55 01.58776    73.2556   6   8   0.0119   0.0653   0.0413  -0.0115  -0.0361   0.0103   0.00    0.0
2021/10/14 12:28:42.000   28 35 34.11480  -17 55 01.58773    73.2559   6   8   0.0119   0.0649   0.0411  -0.0114  -0.0358   0.0103   0.00    0.0
2021/10/14 12:29:12.000   28 35 34.11480  -17 55 01.58773    73.2556   6   8   0.0118   0.0640   0.0405  -0.0112  -0.0349   0.0101   0.00    0.0
2021/10/14 12:29:42.000   28 35 34.11482  -17 55 01.58864    73.2664   6   8   0.0114   0.0613   0.0387  -0.0104  -0.0321   0.0098   0.00    0.0
2021/10/14 12:30:12.000   28 35 34.11482  -17 55 01.58867    73.2678   6   8   0.0114   0.0606   0.0383  -0.0102  -0.0314   0.0098   0.00    0.0
2021/10/14 12:30:42.000   28 35 34.11481  -17 55 01.58860    73.2679   6   8   0.0113   0.0604   0.0382  -0.0101  -0.0311   0.0097   0.00    0.0
2021/10/14 12:31:12.000   28 35 34.11481  -17 55 01.58855    73.2678   6   8   0.0113   0.0602   0.0381  -0.0101  -0.0310   0.0097   0.00    0.0
2021/10/14 12:31:42.000   28 35 34.11481  -17 55 01.58851    73.2679   6   8   0.0113   0.0601   0.0381  -0.0100  -0.0309   0.0097   0.00    0.0
2021/10/14 12:32:12.000   28 35 34.11481  -17 55 01.58845    73.2679   6   8   0.0113   0.0600   0.0381  -0.0100  -0.0308   0.0097   0.00    0.0
2021/10/14 12:32:42.000   28 35 34.11482  -17 55 01.58843    73.2682   6   8   0.0113   0.0599   0.0380  -0.0100  -0.0307   0.0097   0.00    0.0
2021/10/14 12:33:12.000   28 35 34.11482  -17 55 01.58846    73.2689   6   7   0.0113   0.0597   0.0379  -0.0099  -0.0306   0.0097   0.00    0.0
2021/10/14 12:33:42.000   28 35 34.11483  -17 55 01.58862    73.2716   6   7   0.0113   0.0594   0.0378  -0.0098  -0.0303   0.0097   0.00    0.0
2021/10/14 12:34:12.000   28 35 34.11484  -17 55 01.58896    73.2774   6   7   0.0112   0.0586   0.0374  -0.0096  -0.0294   0.0096   0.00    0.0
2021/10/14 12:34:42.000   28 35 34.11490  -17 55 01.58992    73.2934   6   7   0.0109   0.0563   0.0361  -0.0087  -0.0268   0.0095   0.00    0.0
2021/10/14 12:35:12.000   28 35 34.11490  -17 55 01.58992    73.2944   6   7   0.0109   0.0557   0.0358  -0.0085  -0.0261   0.0095   0.00    0.0
2021/10/14 12:35:42.000   28 35 34.11489  -17 55 01.58982    73.2941   6   7   0.0108   0.0555   0.0357  -0.0084  -0.0259   0.0095   0.00    0.0
2021/10/14 12:36:12.000   28 35 34.11490  -17 55 01.58979    73.2946   6   7   0.0108   0.0553   0.0356  -0.0084  -0.0258   0.0095   0.00    0.0
2021/10/14 12:36:42.000   28 35 34.11490  -17 55 01.58975    73.2948   6   7   0.0108   0.0552   0.0356  -0.0084  -0.0257   0.0095   0.00    0.0
2021/10/14 12:37:12.000   28 35 34.11490  -17 55 01.58970    73.2949   6   7   0.0108   0.0551   0.0356  -0.0083  -0.0256   0.0095   0.00    0.0
2021/10/14 12:37:42.000   28 35 34.11490  -17 55 01.58968    73.2955   6   7   0.0108   0.0550   0.0355  -0.0083  -0.0255   0.0095   0.00    0.0
2021/10/14 12:38:12.000   28 35 34.11490  -17 55 01.58967    73.2962   6   7   0.0108   0.0549   0.0355  -0.0083  -0.0254   0.0094   0.00    0.0
2021/10/14 12:38:42.000   28 35 34.11491  -17 55 01.58971    73.2976   6   7   0.0108   0.0546   0.0354  -0.0082  -0.0251   0.0094   0.00    0.0
2021/10/14 12:39:12.000   28 35 34.11493  -17 55 01.58993    73.3016   6   7   0.0107   0.0540   0.0350  -0.0079  -0.0243   0.0094   0.00    0.0
2021/10/14 12:39:42.000   28 35 34.11499  -17 55 01.59089    73.3166   6   7   0.0105   0.0520   0.0340  -0.0070  -0.0218   0.0093   0.00    0.0
2021/10/14 12:40:12.000   28 35 34.11501  -17 55 01.59103    73.3194   6   7   0.0104   0.0515   0.0338  -0.0068  -0.0212   0.0092   0.00    0.0
2021/10/14 12:40:42.000   28 35 34.11502  -17 55 01.59102    73.3201   6   7   0.0104   0.0513   0.0337  -0.0068  -0.0210   0.0092   0.00    0.0
2021/10/14 12:41:12.000   28 35 34.11502  -17 55 01.59099    73.3202   6   7   0.0104   0.0512   0.0336  -0.0067  -0.0208   0.0092   0.00    0.0
2021/10/14 12:41:42.000   28 35 34.11502  -17 55 01.59098    73.3204   6   7   0.0104   0.0511   0.0336  -0.0067  -0.0208   0.0092   0.00    0.0
2021/10/14 12:42:12.000   28 35 34.11502  -17 55 01.59096    73.3205   6   7   0.0104   0.0510   0.0336  -0.0067  -0.0207   0.0092   0.00    0.0
2021/10/14 12:42:42.000   28 35 34.11502  -17 55 01.59089    73.3203   6   7   0.0104   0.0509   0.0336  -0.0066  -0.0206   0.0092   0.00    0.0
2021/10/14 12:43:12.000   28 35 34.11503  -17 55 01.59087    73.3207   6   7   0.0104   0.0508   0.0335  -0.0066  -0.0205   0.0092   0.00    0.0
2021/10/14 12:43:42.000   28 35 34.11504  -17 55 01.59088    73.3217   6   7   0.0103   0.0506   0.0334  -0.0065  -0.0202   0.0092   0.00    0.0
2021/10/14 12:44:12.000   28 35 34.11504  -17 55 01.59113    73.3258   6   7   0.0103   0.0501   0.0332  -0.0062  -0.0195   0.0091   0.00    0.0
2021/10/14 12:44:42.000   28 35 34.11509  -17 55 01.59180    73.3361   6   7   0.0100   0.0484   0.0324  -0.0053  -0.0171   0.0090   0.00    0.0
2021/10/14 12:45:12.000   28 35 34.11508  -17 55 01.59181    73.3373   6   7   0.0100   0.0479   0.0322  -0.0051  -0.0165   0.0090   0.00    0.0
2021/10/14 12:45:42.000   28 35 34.11508  -17 55 01.59182    73.3383   6   7   0.0100   0.0478   0.0322  -0.0050  -0.0163   0.0090   0.00    0.0
2021/10/14 12:46:12.000   28 35 34.11508  -17 55 01.59178    73.3386   6   7   0.0100   0.0477   0.0321  -0.0050  -0.0162   0.0090   0.00    0.0
2021/10/14 12:46:42.000   28 35 34.11508  -17 55 01.59174    73.3388   6   7   0.0099   0.0476   0.0321  -0.0050  -0.0161   0.0090   0.00    0.0
2021/10/14 12:47:12.000   28 35 34.11508  -17 55 01.59171    73.3388   6   7   0.0099   0.0476   0.0321  -0.0049  -0.0160   0.0090   0.00    0.0
2021/10/14 12:47:42.000   28 35 34.11508  -17 55 01.59168    73.3388   6   7   0.0099   0.0475   0.0321  -0.0049  -0.0160   0.0089   0.00    0.0
2021/10/14 12:48:12.000   28 35 34.11508  -17 55 01.59161    73.3389   6   7   0.0099   0.0474   0.0320  -0.0049  -0.0158   0.0089   0.00    0.0
2021/10/14 12:48:42.000   28 35 34.11508  -17 55 01.59158    73.3395   6   7   0.0099   0.0472   0.0320  -0.0048  -0.0156   0.0089   0.00    0.0
2021/10/14 12:49:12.000   28 35 34.11509  -17 55 01.59164    73.3406   6   7   0.0098   0.0467   0.0318  -0.0045  -0.0148   0.0089   0.00    0.0
2021/10/14 12:49:42.000   28 35 34.11514  -17 55 01.59230    73.3487   6   7   0.0096   0.0452   0.0311  -0.0034  -0.0122   0.0087   0.00    0.0
2021/10/14 12:50:12.000   28 35 34.11515  -17 55 01.59258    73.3524   6   7   0.0096   0.0448   0.0310  -0.0031  -0.0116   0.0087   0.00    0.0
2021/10/14 12:50:42.000   28 35 34.11514  -17 55 01.59265    73.3538   6   7   0.0096   0.0447   0.0310  -0.0030  -0.0113   0.0087   0.00    0.0
2021/10/14 12:51:12.000   28 35 34.11514  -17 55 01.59265    73.3545   6   7   0.0095   0.0446   0.0309  -0.0030  -0.0112   0.0087   0.00    0.0
2021/10/14 12:51:42.000   28 35 34.11514  -17 55 01.59264    73.3549   6   8   0.0095   0.0446   0.0309  -0.0030  -0.0111   0.0087   0.00    0.0
2021/10/14 12:52:12.000   28 35 34.11514  -17 55 01.59263    73.3551   6   8   0.0095   0.0445   0.0309  -0.0029  -0.0111   0.0087   0.00    0.0
2021/10/14 12:52:42.000   28 35 34.11514  -17 55 01.59259    73.3554   6   8   0.0095   0.0445   0.0309  -0.0029  -0.0110   0.0087   0.00    0.0
2021/10/14 12:53:12.000   28 35 34.11514  -17 55 01.59257    73.3559   6   8   0.0095   0.0444   0.0309  -0.0028  -0.0109   0.0087   0.00    0.0
2021/10/14 12:53:42.000   28 35 34.11514  -17 55 01.59260    73.3566   6   8   0.0095   0.0442   0.0308  -0.0027  -0.0106   0.0087   0.00    0.0
2021/10/14 12:54:12.000   28 35 34.11515  -17 55 01.59268    73.3575   6   8   0.0094   0.0438   0.0307  -0.0023  -0.0097   0.0086   0.00    0.0
2021/10/14 12:54:42.000   28 35 34.11519  -17 55 01.59317    73.3636   6   8   0.0092   0.0425   0.0302   0.0009  -0.0065   0.0085   0.00    0.0
2021/10/14 12:55:12.000   28 35 34.11519  -17 55 01.59329    73.3659   6   8   0.0092   0.0422   0.0301   0.0015  -0.0055   0.0084   0.00    0.0
2021/10/14 12:55:42.000   28 35 34.11519  -17 55 01.59332    73.3669   6   8   0.0092   0.0420   0.0300   0.0016  -0.0051   0.0084   0.00    0.0
2021/10/14 12:56:12.000   28 35 34.11519  -17 55 01.59331    73.3675   6   8   0.0092   0.0420   0.0300   0.0017  -0.0049   0.0084   0.00    0.0
2021/10/14 12:56:42.000   28 35 34.11519  -17 55 01.59329    73.3679   6   8   0.0092   0.0419   0.0300   0.0017  -0.0048   0.0084   0.00    0.0
2021/10/14 12:57:12.000   28 35 34.11519  -17 55 01.59326    73.3681   6   8   0.0092   0.0419   0.0300   0.0017  -0.0047   0.0084   0.00    0.0
2021/10/14 12:57:42.000   28 35 34.11519  -17 55 01.59327    73.3685   6   8   0.0091   0.0418   0.0300   0.0018  -0.0046   0.0084   0.00    0.0
2021/10/14 12:58:12.000   28 35 34.11519  -17 55 01.59329    73.3689   6   8   0.0091   0.0417   0.0300   0.0018  -0.0043   0.0084   0.00    0.0
2021/10/14 12:58:42.000   28 35 34.11519  -17 55 01.59331    73.3694   6   8   0.0091   0.0416   0.0299   0.0020  -0.0038   0.0084   0.00    0.0
2021/10/14 12:59:12.000   28 35 34.11520  -17 55 01.59346    73.3707   6   8   0.0091   0.0412   0.0298   0.0023  -0.0013   0.0083   0.00    0.0
2021/10/14 12:59:42.000   28 35 34.11523  -17 55 01.59391    73.3754   6   8   0.0089   0.0401   0.0294   0.0031   0.0061   0.0082   0.00    0.0
2021/10/14 13:00:12.000   28 35 34.11525  -17 55 01.59404    73.3775   6   8   0.0088   0.0398   0.0294   0.0033   0.0068   0.0081   0.00    0.0
2021/10/14 13:00:42.000   28 35 34.11526  -17 55 01.59403    73.3779   6   8   0.0088   0.0397   0.0293   0.0033   0.0070   0.0081   0.00    0.0
2021/10/14 13:01:12.000   28 35 34.11526  -17 55 01.59402    73.3782   6   8   0.0088   0.0396   0.0293   0.0033   0.0071   0.0081   0.00    0.0
2021/10/14 13:01:42.000   28 35 34.11526  -17 55 01.59401    73.3784   6   8   0.0088   0.0396   0.0293   0.0033   0.0071   0.0081   0.00    0.0
2021/10/14 13:02:12.000   28 35 34.11526  -17 55 01.59400    73.3787   6   8   0.0088   0.0395   0.0293   0.0034   0.0072   0.0081   0.00    0.0
2021/10/14 13:02:42.000   28 35 34.11527  -17 55 01.59404    73.3789   6   8   0.0088   0.0395   0.0293   0.0034   0.0072   0.0081   0.00    0.0
2021/10/14 13:03:12.000   28 35 34.11527  -17 55 01.59405    73.3792   6   8   0.0088   0.0394   0.0293   0.0034   0.0073   0.0081   0.00    0.0
2021/10/14 13:03:42.000   28 35 34.11526  -17 55 01.59409    73.3796   6   8   0.0088   0.0393   0.0292   0.0034   0.0075   0.0081   0.00    0.0
2021/10/14 13:04:12.000   28 35 34.11525  -17 55 01.59415    73.3807   6   8   0.0087   0.0389   0.0292   0.0036   0.0081   0.0080   0.00    0.0
2021/10/14 13:04:42.000   28 35 34.11526  -17 55 01.59462    73.3849   6   8   0.0085   0.0379   0.0289   0.0039   0.0096   0.0079   0.00    0.0
2021/10/14 13:05:12.000   28 35 34.11528  -17 55 01.59482    73.3861   6   8   0.0085   0.0376   0.0288   0.0040   0.0099   0.0078   0.00    0.0
2021/10/14 13:05:42.000   28 35 34.11528  -17 55 01.59485    73.3865   6   8   0.0085   0.0375   0.0288   0.0040   0.0100   0.0078   0.00    0.0
2021/10/14 13:06:12.000   28 35 34.11528  -17 55 01.59483    73.3866   6   8   0.0084   0.0374   0.0288   0.0041   0.0101   0.0078   0.00    0.0
2021/10/14 13:06:42.000   28 35 34.11528  -17 55 01.59481    73.3869   6   8   0.0084   0.0374   0.0288   0.0041   0.0101   0.0078   0.00    0.0
2021/10/14 13:07:12.000   28 35 34.11528  -17 55 01.59480    73.3871   6   8   0.0084   0.0374   0.0287   0.0041   0.0101   0.0078   0.00    0.0
2021/10/14 13:07:42.000   28 35 34.11528  -17 55 01.59478    73.3874   6   8   0.0084   0.0373   0.0287   0.0041   0.0101   0.0078   0.00    0.0
2021/10/14 13:08:12.000   28 35 34.11528  -17 55 01.59478    73.3879   6   8   0.0084   0.0373   0.0287   0.0041   0.0102   0.0078   0.00    0.0
2021/10/14 13:08:42.000   28 35 34.11528  -17 55 01.59480    73.3884   6   8   0.0084   0.0371   0.0287   0.0041   0.0103   0.0078   0.00    0.0
2021/10/14 13:09:12.000   28 35 34.11528  -17 55 01.59493    73.3896   6   8   0.0084   0.0368   0.0286   0.0042   0.0105   0.0077   0.00    0.0
2021/10/14 13:09:42.000   28 35 34.11528  -17 55 01.59542    73.3924   6   8   0.0082   0.0358   0.0284   0.0044   0.0113   0.0075   0.00    0.0
2021/10/14 13:10:12.000   28 35 34.11527  -17 55 01.59555    73.3931   6   8   0.0081   0.0356   0.0283   0.0044   0.0115   0.0075   0.00    0.0
2021/10/14 13:10:42.000   28 35 34.11528  -17 55 01.59559    73.3939   6   8   0.0081   0.0355   0.0283   0.0044   0.0115   0.0075   0.00    0.0
2021/10/14 13:11:12.000   28 35 34.11528  -17 55 01.59560    73.3943   6   8   0.0081   0.0354   0.0283   0.0044   0.0115   0.0074   0.00    0.0
2021/10/14 13:11:42.000   28 35 34.11528  -17 55 01.59558    73.3945   6   8   0.0081   0.0354   0.0283   0.0044   0.0115   0.0074   0.00    0.0
2021/10/14 13:12:12.000   28 35 34.11528  -17 55 01.59556    73.3946   6   7   0.0081   0.0354   0.0283   0.0044   0.0115   0.0074   0.00    0.0
2021/10/14 13:12:42.000   28 35 34.11528  -17 55 01.59554    73.3946   6   7   0.0081   0.0353   0.0283   0.0044   0.0116   0.0074   0.00    0.0
2021/10/14 13:13:12.000   28 35 34.11528  -17 55 01.59556    73.3947   6   7   0.0081   0.0353   0.0282   0.0044   0.0116   0.0074   0.00    0.0
2021/10/14 13:13:42.000   28 35 34.11528  -17 55 01.59555    73.3947   6   7   0.0081   0.0352   0.0282   0.0044   0.0116   0.0074   0.00    0.0
2021/10/14 13:14:12.000   28 35 34.11528  -17 55 01.59559    73.3951   6   7   0.0080   0.0349   0.0281   0.0045   0.0117   0.0073   0.00    0.0
2021/10/14 13:14:42.000   28 35 34.11528  -17 55 01.59599    73.3965   6   7   0.0078   0.0339   0.0279   0.0045   0.0121   0.0071   0.00    0.0
2021/10/14 13:15:12.000   28 35 34.11529  -17 55 01.59606    73.3971   6   7   0.0078   0.0337   0.0278   0.0045   0.0121   0.0071   0.00    0.0
2021/10/14 13:15:42.000   28 35 34.11529  -17 55 01.59605    73.3976   6   7   0.0078   0.0336   0.0278   0.0045   0.0121   0.0071   0.00    0.0
2021/10/14 13:16:12.000   28 35 34.11529  -17 55 01.59604    73.3980   6   7   0.0078   0.0335   0.0278   0.0045   0.0121   0.0070   0.00    0.0
2021/10/14 13:16:42.000   28 35 34.11529  -17 55 01.59600    73.3982   6   7   0.0078   0.0335   0.0278   0.0045   0.0121   0.0070   0.00    0.0
2021/10/14 13:17:12.000   28 35 34.11529  -17 55 01.59598    73.3984   6   7   0.0078   0.0335   0.0278   0.0045   0.0121   0.0070   0.00    0.0
2021/10/14 13:17:42.000   28 35 34.11529  -17 55 01.59595    73.3987   6   8   0.0078   0.0334   0.0278   0.0045   0.0121   0.0070   0.00    0.0
2021/10/14 13:18:12.000   28 35 34.11529  -17 55 01.59593    73.3990   6   8   0.0078   0.0334   0.0278   0.0045   0.0121   0.0070   0.00    0.0
2021/10/14 13:18:42.000   28 35 34.11529  -17 55 01.59596    73.3991   6   8   0.0078   0.0333   0.0277   0.0045   0.0122   0.0070   0.00    0.0
2021/10/14 13:19:12.000   28 35 34.11529  -17 55 01.59618    73.3996   6   8   0.0077   0.0330   0.0277   0.0045   0.0122   0.0069   0.00    0.0
2021/10/14 13:19:42.000   28 35 34.11529  -17 55 01.59660    73.4000   6   8   0.0075   0.0320   0.0274   0.0045   0.0122   0.0067   0.00    0.0
2021/10/14 13:20:12.000   28 35 34.11530  -17 55 01.59666    73.4009   6   8   0.0075   0.0318   0.0274   0.0045   0.0122   0.0066   0.00    0.0
2021/10/14 13:20:42.000   28 35 34.11530  -17 55 01.59663    73.4013   6   8   0.0075   0.0317   0.0273   0.0045   0.0122   0.0066   0.00    0.0
2021/10/14 13:21:12.000   28 35 34.11530  -17 55 01.59663    73.4015   6   8   0.0075   0.0317   0.0273   0.0045   0.0122   0.0066   0.00    0.0
2021/10/14 13:21:42.000   28 35 34.11530  -17 55 01.59662    73.4017   6   8   0.0075   0.0316   0.0273   0.0045   0.0122   0.0066   0.00    0.0
2021/10/14 13:22:12.000   28 35 34.11530  -17 55 01.59661    73.4019   6   8   0.0075   0.0316   0.0273   0.0045   0.0122   0.0066   0.00    0.0
2021/10/14 13:22:42.000   28 35 34.11530  -17 55 01.59662    73.4022   6   8   0.0075   0.0316   0.0273   0.0045   0.0122   0.0066   0.00    0.0
2021/10/14 13:23:12.000   28 35 34.11530  -17 55 01.59666    73.4027   6   8   0.0075   0.0315   0.0273   0.0045   0.0121   0.0066   0.00    0.0
2021/10/14 13:23:42.000   28 35 34.11530  -17 55 01.59673    73.4033   6   8   0.0074   0.0314   0.0273   0.0045   0.0121   0.0066   0.00    0.0
2021/10/14 13:24:12.000   28 35 34.11530  -17 55 01.59693    73.4039   6   8   0.0074   0.0312   0.0272   0.0045   0.0121   0.0065   0.00    0.0
2021/10/14 13:24:42.000   28 35 34.11530  -17 55 01.59728    73.4031   6   8   0.0072   0.0303   0.0269   0.0044   0.0119   0.0062   0.00    0.0
2021/10/14 13:25:12.000   28 35 34.11530  -17 55 01.59716    73.4040   6   8   0.0072   0.0300   0.0268   0.0044   0.0118   0.0062   0.00    0.0
2021/10/14 13:25:42.000   28 35 34.11530  -17 55 01.59709    73.4042   6   8   0.0072   0.0300   0.0268   0.0044   0.0118   0.0062   0.00    0.0
2021/10/14 13:26:12.000   28 35 34.11530  -17 55 01.59704    73.4043   6   8   0.0072   0.0299   0.0268   0.0044   0.0118   0.0062   0.00    0.0
2021/10/14 13:26:42.000   28 35 34.11530  -17 55 01.59701    73.4044   6   8   0.0072   0.0299   0.0268   0.0044   0.0118   0.0062   0.00    0.0
2021/10/14 13:27:12.000   28 35 34.11530  -17 55 01.59698    73.4046   6   8   0.0072   0.0299   0.0268   0.0044   0.0118   0.0061   0.00    0.0
2021/10/14 13:27:42.000   28 35 34.11530  -17 55 01.59697    73.4049   6   8   0.0072   0.0298   0.0268   0.0044   0.0118   0.0061   0.00    0.0
2021/10/14 13:28:12.000   28 35 34.11531  -17 55 01.59697    73.4054   6   8   0.0072   0.0298   0.0267   0.0044   0.0117   0.0061   0.00    0.0
2021/10/14 13:28:42.000   28 35 34.11531  -17 55 01.59699    73.4060   6   8   0.0072   0.0297   0.0267   0.0044   0.0117   0.0061   0.00    0.0
2021/10/14 13:29:12.000   28 35 34.11530  -17 55 01.59713    73.4072   6   8   0.0071   0.0294   0.0266   0.0044   0.0116   0.0060   0.00    0.0
2021/10/14 13:29:42.000   28 35 34.11530  -17 55 01.59760    73.4062   6   8   0.0070   0.0286   0.0263   0.0043   0.0113   0.0058   0.00    0.0
2021/10/14 13:30:12.000   28 35 34.11530  -17 55 01.59776    73.4054   6   8   0.0069   0.0284   0.0262   0.0043   0.0112   0.0057   0.00    0.0
2021/10/14 13:30:42.000   28 35 34.11530  -17 55 01.59781    73.4053   6   8   0.0069   0.0283   0.0262   0.0043   0.0111   0.0057   0.00    0.0
2021/10/14 13:31:12.000   28 35 34.11530  -17 55 01.59784    73.4054   6   8   0.0069   0.0283   0.0262   0.0043   0.0111   0.0057   0.00    0.0
2021/10/14 13:31:42.000   28 35 34.11530  -17 55 01.59786    73.4056   6   8   0.0069   0.0282   0.0262   0.0043   0.0111   0.0057   0.00    0.0
2021/10/14 13:32:12.000   28 35 34.11530  -17 55 01.59786    73.4055   6   8   0.0069   0.0282   0.0261   0.0042   0.0111   0.0057   0.00    0.0
2021/10/14 13:32:42.000   28 35 34.11530  -17 55 01.59788    73.4054   6   8   0.0069   0.0282   0.0261   0.0042   0.0111   0.0057   0.00    0.0
2021/10/14 13:33:12.000   28 35 34.11530  -17 55 01.59791    73.4053   6   8   0.0069   0.0281   0.0261   0.0042   0.0111   0.0057   0.00    0.0
2021/10/14 13:33:42.000   28 35 34.11531  -17 55 01.59794    73.4056   6   8   0.0069   0.0280   0.0261   0.0042   0.0110   0.0056   0.00    0.0
2021/10/14 13:34:12.000   28 35 34.11531  -17 55 01.59812    73.4062   6   8   0.0068   0.0278   0.0260   0.0042   0.0109   0.0056   0.00    0.0
2021/10/14 13:34:42.000   28 35 34.11530  -17 55 01.59855    73.4037   6   8   0.0067   0.0270   0.0256   0.0041   0.0104   0.0053   0.00    0.0
2021/10/14 13:35:12.000   28 35 34.11531  -17 55 01.59867    73.4025   6   8   0.0067   0.0268   0.0255   0.0041   0.0103   0.0052   0.00    0.0
2021/10/14 13:35:42.000   28 35 34.11532  -17 55 01.59869    73.4020   6   8   0.0067   0.0267   0.0255   0.0041   0.0102   0.0052   0.00    0.0
2021/10/14 13:36:12.000   28 35 34.11532  -17 55 01.59871    73.4020   6   8   0.0067   0.0267   0.0255   0.0041   0.0102   0.0052   0.00    0.0
2021/10/14 13:36:42.000   28 35 34.11532  -17 55 01.59874    73.4021   6   8   0.0067   0.0266   0.0255   0.0041   0.0102   0.0052   0.00    0.0
2021/10/14 13:37:12.000   28 35 34.11532  -17 55 01.59876    73.4022   6   8   0.0067   0.0266   0.0255   0.0041   0.0102   0.0052   0.00    0.0
2021/10/14 13:37:42.000   28 35 34.11532  -17 55 01.59877    73.4024   6   8   0.0066   0.0266   0.0254   0.0041   0.0102   0.0052   0.00    0.0
2021/10/14 13:38:12.000   28 35 34.11532  -17 55 01.59881    73.4027   6   8   0.0066   0.0266   0.0254   0.0041   0.0102   0.0052   0.00    0.0
2021/10/14 13:38:42.000   28 35 34.11532  -17 55 01.59891    73.4027   6   8   0.0066   0.0265   0.0254   0.0040   0.0101   0.0052   0.00    0.0
2021/10/14 13:39:12.000   28 35 34.11533  -17 55 01.59926    73.4017   6   8   0.0066   0.0263   0.0253   0.0040   0.0099   0.0051   0.00    0.0
2021/10/14 13:39:42.000   28 35 34.11532  -17 55 01.59951    73.3993   6   8   0.0065   0.0255   0.0249   0.0039   0.0094   0.0048   0.00    0.0
2021/10/14 13:40:12.000   28 35 34.11532  -17 55 01.59947    73.3997   6   8   0.0064   0.0253   0.0248   0.0039   0.0093   0.0048   0.00    0.0
2021/10/14 13:40:42.000   28 35 34.11532  -17 55 01.59945    73.4002   6   8   0.0064   0.0252   0.0248   0.0039   0.0092   0.0047   0.00    0.0
2021/10/14 13:41:12.000   28 35 34.11532  -17 55 01.59942    73.4006   6   8   0.0064   0.0252   0.0247   0.0039   0.0092   0.0047   0.00    0.0
2021/10/14 13:41:42.000   28 35 34.11532  -17 55 01.59941    73.4007   6   8   0.0064   0.0252   0.0247   0.0039   0.0092   0.0047   0.00    0.0
2021/10/14 13:42:12.000   28 35 34.11532  -17 55 01.59941    73.4008   6   8   0.0064   0.0252   0.0247   0.0039   0.0092   0.0047   0.00    0.0
2021/10/14 13:42:42.000   28 35 34.11532  -17 55 01.59941    73.4009   6   8   0.0064   0.0251   0.0247   0.0039   0.0091   0.0047   0.00    0.0
2021/10/14 13:43:12.000   28 35 34.11532  -17 55 01.59941    73.4011   6   8   0.0064   0.0251   0.0247   0.0039   0.0091   0.0047   0.00    0.0
2021/10/14 13:43:42.000   28 35 34.11533  -17 55 01.59945    73.4012   6   8   0.0064   0.0250   0.0246   0.0039   0.0091   0.0047   0.00    0.0
2021/10/14 13:44:12.000   28 35 34.11532  -17 55 01.59958    73.4012   6   8   0.0064   0.0248   0.0245   0.0038   0.0089   0.0046   0.00    0.0
2021/10/14 13:44:42.000   28 35 34.11531  -17 55 01.59984    73.3988   6   8   0.0062   0.0241   0.0241   0.0037   0.0083   0.0044   0.00    0.0
2021/10/14 13:45:12.000   28 35 34.11531  -17 55 01.59992    73.3986   6   8   0.0062   0.0240   0.0240   0.0037   0.0081   0.0043   0.00    0.0
2021/10/14 13:45:42.000   28 35 34.11532  -17 55 01.59995    73.3983   6   8   0.0062   0.0239   0.0240   0.0037   0.0081   0.0043   0.00    0.0
2021/10/14 13:46:12.000   28 35 34.11532  -17 55 01.59997    73.3982   6   8   0.0062   0.0239   0.0240   0.0037   0.0081   0.0043   0.00    0.0
2021/10/14 13:46:42.000   28 35 34.11532  -17 55 01.59997    73.3982   6   8   0.0062   0.0239   0.0240   0.0037   0.0080   0.0043   0.00    0.0
2021/10/14 13:47:12.000   28 35 34.11532  -17 55 01.59998    73.3981   6   8   0.0062   0.0238   0.0239   0.0037   0.0080   0.0043   0.00    0.0
2021/10/14 13:47:42.000   28 35 34.11532  -17 55 01.59998    73.3982   6   8   0.0062   0.0238   0.0239   0.0037   0.0080   0.0043   0.00    0.0
2021/10/14 13:48:12.000   28 35 34.11532  -17 55 01.59998    73.3984   6   8   0.0062   0.0238   0.0239   0.0037   0.0080   0.0043   0.00    0.0
2021/10/14 13:48:42.000   28 35 34.11533  -17 55 01.60001    73.3987   6   8   0.0062   0.0237   0.0239   0.0037   0.0079   0.0042   0.00    0.0
2021/10/14 13:49:12.000   28 35 34.11533  -17 55 01.60008    73.3993   6   8   0.0061   0.0235   0.0237   0.0037   0.0077   0.0042   0.00    0.0
2021/10/14 13:49:42.000   28 35 34.11532  -17 55 01.60025    73.3989   6   8   0.0060   0.0229   0.0233   0.0036   0.0071   0.0039   0.00    0.0
2021/10/14 13:50:12.000   28 35 34.11531  -17 55 01.60029    73.3998   6   8   0.0060   0.0227   0.0232   0.0036   0.0069   0.0039   0.00    0.0
2021/10/14 13:50:42.000   28 35 34.11531  -17 55 01.60031    73.4001   6   8   0.0060   0.0227   0.0232   0.0035   0.0069   0.0038   0.00    0.0
2021/10/14 13:51:12.000   28 35 34.11531  -17 55 01.60031    73.4003   6   8   0.0060   0.0227   0.0232   0.0035   0.0068   0.0038   0.00    0.0
2021/10/14 13:51:42.000   28 35 34.11531  -17 55 01.60030    73.4005   6   8   0.0060   0.0226   0.0232   0.0035   0.0068   0.0038   0.00    0.0
2021/10/14 13:52:12.000   28 35 34.11531  -17 55 01.60029    73.4006   6   8   0.0060   0.0226   0.0231   0.0035   0.0068   0.0038   0.00    0.0
2021/10/14 13:52:42.000   28 35 34.11531  -17 55 01.60029    73.4008   6   8   0.0060   0.0226   0.0231   0.0035   0.0068   0.0038   0.00    0.0
2021/10/14 13:53:12.000   28 35 34.11531  -17 55 01.60029    73.4011   6   8   0.0060   0.0226   0.0231   0.0035   0.0068   0.0038   0.00    0.0
2021/10/14 13:53:42.000   28 35 34.11530  -17 55 01.60030    73.4020   6   8   0.0060   0.0225   0.0231   0.0035   0.0067   0.0038   0.00    0.0
2021/10/14 13:54:12.000   28 35 34.11529  -17 55 01.60035    73.4034   6   8   0.0059   0.0223   0.0229   0.0035   0.0065   0.0037   0.00    0.0
2021/10/14 13:54:42.000   28 35 34.11528  -17 55 01.60046    73.4032   6   8   0.0058   0.0218   0.0225   0.0034   0.0058   0.0035   0.00    0.0
2021/10/14 13:55:12.000   28 35 34.11527  -17 55 01.60053    73.4016   6   8   0.0058   0.0216   0.0224   0.0034   0.0056   0.0034   0.00    0.0
2021/10/14 13:55:42.000   28 35 34.11528  -17 55 01.60055    73.4008   6   8   0.0058   0.0216   0.0224   0.0034   0.0056   0.0034   0.00    0.0
2021/10/14 13:56:12.000   28 35 34.11528  -17 55 01.60056    73.4005   6   8   0.0058   0.0215   0.0224   0.0034   0.0055   0.0034   0.00    0.0
2021/10/14 13:56:42.000   28 35 34.11528  -17 55 01.60056    73.4004   6   8   0.0058   0.0215   0.0223   0.0034   0.0055   0.0034   0.00    0.0
2021/10/14 13:57:12.000   28 35 34.11528  -17 55 01.60057    73.4003   6   8   0.0058   0.0215   0.0223   0.0034   0.0055   0.0034   0.00    0.0
2021/10/14 13:57:42.000   28 35 34.11528  -17 55 01.60057    73.4002   6   8   0.0058   0.0215   0.0223   0.0034   0.0055   0.0034   0.00    0.0
2021/10/14 13:58:12.000   28 35 34.11528  -17 55 01.60057    73.4001   6   8   0.0058   0.0215   0.0223   0.0034   0.0054   0.0034   0.00    0.0
2021/10/14 13:58:42.000   28 35 34.11528  -17 55 01.60058    73.4000   6   8   0.0058   0.0214   0.0222   0.0034   0.0053   0.0034   0.00    0.0
2021/10/14 13:59:12.000   28 35 34.11528  -17 55 01.60064    73.4005   6   8   0.0058   0.0213   0.0221   0.0034   0.0051   0.0033   0.00    0.0
2021/10/14 13:59:42.000   28 35 34.11527  -17 55 01.60076    73.4019   6   8   0.0057   0.0207   0.0217   0.0033   0.0043   0.0031   0.00    0.0
2021/10/14 14:00:12.000   28 35 34.11527  -17 55 01.60070    73.4034   6   8   0.0056   0.0206   0.0216   0.0033   0.0041   0.0030   0.00    0.0
2021/10/14 14:00:42.000   28 35 34.11528  -17 55 01.60068    73.4041   6   8   0.0056   0.0206   0.0216   0.0033   0.0040   0.0030   0.00    0.0
2021/10/14 14:01:12.000   28 35 34.11528  -17 55 01.60067    73.4042   6   8   0.0056   0.0205   0.0215   0.0033   0.0040   0.0030   0.00    0.0
2021/10/14 14:01:42.000   28 35 34.11528  -17 55 01.60066    73.4042   6   7   0.0056   0.0205   0.0215   0.0033   0.0040   0.0030   0.00    0.0
2021/10/14 14:02:12.000   28 35 34.11528  -17 55 01.60065    73.4041   6   7   0.0056   0.0205   0.0215   0.0033   0.0040   0.0030   0.00    0.0
2021/10/14 14:02:42.000   28 35 34.11528  -17 55 01.60066    73.4039   6   7   0.0056   0.0205   0.0215   0.0033   0.0040   0.0030   0.00    0.0
2021/10/14 14:03:12.000   28 35 34.11528  -17 55 01.60067    73.4036   6   7   0.0056   0.0205   0.0215   0.0033   0.0039   0.0030   0.00    0.0
2021/10/14 14:03:42.000   28 35 34.11528  -17 55 01.60072    73.4035   6   7   0.0056   0.0204   0.0215   0.0033   0.0039   0.0030   0.00    0.0
2021/10/14 14:04:12.000   28 35 34.11527  -17 55 01.60076    73.4036   6   7   0.0056   0.0203   0.0214   0.0033   0.0037   0.0029   0.00    0.0
2021/10/14 14:04:42.000   28 35 34.11527  -17 55 01.60088    73.4047   6   7   0.0055   0.0198   0.0213   0.0033   0.0032   0.0029   0.00    0.0
2021/10/14 14:05:12.000   28 35 34.11527  -17 55 01.60101    73.4051   6   7   0.0055   0.0197   0.0213   0.0033   0.0031   0.0029   0.00    0.0
2021/10/14 14:05:42.000   28 35 34.11527  -17 55 01.60105    73.4049   6   7   0.0055   0.0197   0.0212   0.0033   0.0031   0.0029   0.00    0.0
2021/10/14 14:06:12.000   28 35 34.11527  -17 55 01.60108    73.4046   6   7   0.0055   0.0197   0.0212   0.0033   0.0031   0.0029   0.00    0.0
2021/10/14 14:06:42.000   28 35 34.11527  -17 55 01.60110    73.4043   6   7   0.0055   0.0197   0.0212   0.0033   0.0031   0.0029   0.00    0.0
2021/10/14 14:07:12.000   28 35 34.11527  -17 55 01.60111    73.4041   6   7   0.0055   0.0197   0.0212   0.0033   0.0031   0.0029   0.00    0.0
2021/10/14 14:07:42.000   28 35 34.11527  -17 55 01.60112    73.4037   6   7   0.0055   0.0197   0.0212   0.0033   0.0031   0.0029   0.00    0.0
2021/10/14 14:08:12.000   28 35 34.11527  -17 55 01.60115    73.4031   6   7   0.0055   0.0196   0.0212   0.0033   0.0031   0.0029   0.00    0.0
2021/10/14 14:08:42.000   28 35 34.11527  -17 55 01.60120    73.4024   6   7   0.0055   0.0196   0.0212   0.0033   0.0030   0.0029   0.00    0.0
2021/10/14 14:09:12.000   28 35 34.11527  -17 55 01.60126    73.4019   6   7   0.0055   0.0195   0.0212   0.0033   0.0029   0.0029   0.00    0.0
2021/10/14 14:09:42.000   28 35 34.11526  -17 55 01.60129    73.4029   6   7   0.0054   0.0191   0.0211   0.0034   0.0023   0.0029   0.00    0.0
2021/10/14 14:10:12.000   28 35 34.11526  -17 55 01.60131    73.4035   6   7   0.0054   0.0190   0.0211   0.0034   0.0022   0.0029   0.00    0.0
2021/10/14 14:10:42.000   28 35 34.11526  -17 55 01.60132    73.4035   6   7   0.0054   0.0190   0.0210   0.0034   0.0021   0.0029   0.00    0.0
2021/10/14 14:11:12.000   28 35 34.11526  -17 55 01.60134    73.4036   6   7   0.0054   0.0189   0.0210   0.0034   0.0021   0.0029   0.00    0.0
2021/10/14 14:11:42.000   28 35 34.11527  -17 55 01.60135    73.4037   6   7   0.0054   0.0189   0.0210   0.0034   0.0021   0.0029   0.00    0.0
2021/10/14 14:12:12.000   28 35 34.11527  -17 55 01.60136    73.4037   6   7   0.0054   0.0189   0.0210   0.0034   0.0021   0.0029   0.00    0.0
2021/10/14 14:12:42.000   28 35 34.11527  -17 55 01.60136    73.4037   6   7   0.0054   0.0189   0.0210   0.0034   0.0021   0.0029   0.00    0.0
2021/10/14 14:13:12.000   28 35 34.11527  -17 55 01.60138    73.4038   6   7   0.0054   0.0189   0.0210   0.0034   0.0020   0.0029   0.00    0.0
2021/10/14 14:13:42.000   28 35 34.11527  -17 55 01.60141    73.4041   6   7   0.0054   0.0188   0.0210   0.0034   0.0020   0.0029   0.00    0.0
2021/10/14 14:14:12.000   28 35 34.11527  -17 55 01.60142    73.4049   6   7   0.0054   0.0187   0.0210   0.0034   0.0018   0.0029   0.00    0.0
2021/10/14 14:14:42.000   28 35 34.11526  -17 55 01.60145    73.4047   6   7   0.0053   0.0184   0.0209   0.0034   0.0002   0.0029   0.00    0.0
2021/10/14 14:15:12.000   28 35 34.11524  -17 55 01.60145    73.4044   6   7   0.0053   0.0183   0.0209   0.0034  -0.0008   0.0029   0.00    0.0
2021/10/14 14:15:42.000   28 35 34.11524  -17 55 01.60144    73.4043   6   7   0.0053   0.0183   0.0209   0.0034  -0.0009   0.0029   0.00    0.0
2021/10/14 14:16:12.000   28 35 34.11524  -17 55 01.60143    73.4041   6   7   0.0053   0.0183   0.0209   0.0034  -0.0009   0.0029   0.00    0.0
2021/10/14 14:16:42.000   28 35 34.11524  -17 55 01.60143    73.4040   6   7   0.0053   0.0182   0.0209   0.0034  -0.0010   0.0029   0.00    0.0
2021/10/14 14:17:12.000   28 35 34.11524  -17 55 01.60143    73.4039   6   7   0.0053   0.0182   0.0209   0.0034  -0.0010   0.0029   0.00    0.0
2021/10/14 14:17:42.000   28 35 34.11524  -17 55 01.60142    73.4039   6   7   0.0053   0.0182   0.0209   0.0034  -0.0010   0.0029   0.00    0.0
2021/10/14 14:18:12.000   28 35 34.11524  -17 55 01.60141    73.4039   6   7   0.0053   0.0182   0.0209   0.0034  -0.0011   0.0029   0.00    0.0
2021/10/14 14:18:42.000   28 35 34.11524  -17 55 01.60139    73.4040   6   7   0.0053   0.0182   0.0209   0.0034  -0.0012   0.0029   0.00    0.0
2021/10/14 14:19:12.000   28 35 34.11524  -17 55 01.60137    73.4041   6   7   0.0053   0.0181   0.0208   0.0034  -0.0015   0.0029   0.00    0.0
2021/10/14 14:19:42.000   28 35 34.11524  -17 55 01.60141    73.4040   6   7   0.0052   0.0178   0.0208   0.0034  -0.0023   0.0029   0.00    0.0
2021/10/14 14:20:12.000   28 35 34.11524  -17 55 01.60141    73.4043   6   7   0.0052   0.0177   0.0207   0.0034  -0.0024   0.0029   0.00    0.0
2021/10/14 14:20:42.000   28 35 34.11523  -17 55 01.60141    73.4045   6   7   0.0052   0.0177   0.0207   0.0034  -0.0025   0.0029   0.00    0.0
2021/10/14 14:21:12.000   28 35 34.11523  -17 55 01.60140    73.4046   6   7   0.0052   0.0176   0.0207   0.0034  -0.0025   0.0029   0.00    0.0
2021/10/14 14:21:42.000   28 35 34.11523  -17 55 01.60140    73.4046   6   7   0.0052   0.0176   0.0207   0.0034  -0.0025   0.0029   0.00    0.0
2021/10/14 14:22:12.000   28 35 34.11523  -17 55 01.60141    73.4045   6   7   0.0052   0.0176   0.0207   0.0034  -0.0025   0.0029   0.00    0.0
2021/10/14 14:22:42.000   28 35 34.11524  -17 55 01.60140    73.4045   6   7   0.0052   0.0176   0.0207   0.0034  -0.0025   0.0029   0.00    0.0
2021/10/14 14:23:12.000   28 35 34.11524  -17 55 01.60140    73.4045   6   7   0.0052   0.0176   0.0207   0.0034  -0.0026   0.0029   0.00    0.0
2021/10/14 14:23:42.000   28 35 34.11524  -17 55 01.60138    73.4044   6   7   0.0052   0.0176   0.0207   0.0034  -0.0026   0.0029   0.00    0.0
2021/10/14 14:24:12.000   28 35 34.11524  -17 55 01.60137    73.4039   6   7   0.0052   0.0175   0.0207   0.0034  -0.0028   0.0029   0.00    0.0
2021/10/14 14:24:42.000   28 35 34.11524  -17 55 01.60140    73.4040   6   7   0.0051   0.0172   0.0206   0.0034  -0.0033   0.0028   0.00    0.0
2021/10/14 14:25:12.000   28 35 34.11524  -17 55 01.60143    73.4038   6   7   0.0051   0.0171   0.0206   0.0034  -0.0034   0.0028   0.00    0.0
2021/10/14 14:25:42.000   28 35 34.11524  -17 55 01.60143    73.4038   6   7   0.0051   0.0171   0.0206   0.0034  -0.0034   0.0028   0.00    0.0
2021/10/14 14:26:12.000   28 35 34.11525  -17 55 01.60142    73.4037   6   7   0.0051   0.0171   0.0206   0.0034  -0.0034   0.0028   0.00    0.0
2021/10/14 14:26:42.000   28 35 34.11525  -17 55 01.60141    73.4036   6   7   0.0051   0.0171   0.0206   0.0034  -0.0034   0.0028   0.00    0.0
2021/10/14 14:27:12.000   28 35 34.11525  -17 55 01.60140    73.4036   6   7   0.0051   0.0171   0.0206   0.0034  -0.0034   0.0028   0.00    0.0
2021/10/14 14:27:42.000   28 35 34.11525  -17 55 01.60139    73.4036   6   7   0.0051   0.0171   0.0206   0.0034  -0.0034   0.0028   0.00    0.0
