% program   : RTKLIB ver.2.4.2
% inp file  : C:\IPNA\data\OBS\CVBB2890.o
% inp file  : C:\IPNA\data\NAV\CVBB2890.n
% inp file  : C:\IPNA\data\SP3\CVBB2890.sp3
% inp file  : C:\IPNA\data\CLOCK\CVBB2890.clk
% obs start : 2021/10/15 23:59:42.0 UTC (week2179 518400.0s)
% obs end   : 2021/10/16 23:59:12.0 UTC (week2179 604770.0s)
% pos mode  : ppp-static
% solution  : forward
% elev mask : 15.0 deg
% dynamics  : off
% tidecorr  : on
% tropo opt : est ztd
% ephemeris : precise
% antenna1  :                       ( 0.0000  0.0000  0.0000)
%
% (lat/lon/height=WGS84/ellipsoidal,Q=1:fix,2:float,3:sbas,4:dgps,5:single,6:ppp,ns=# of satellites)
%  UTC                     latitude(d'")   longitude(d'")  height(m)   Q  ns   sdn(m)   sde(m)   sdu(m)  sdne(m)  sdeu(m)  sdue(m) age(s)  ratio
2021/10/15 23:59:42.000   28 35 34.08710  -17 55 01.59009    74.4744   6   6   1.6079   1.5289   4.7964  -0.4751   1.4254  -1.9047   0.00    0.0
2021/10/16 00:00:12.000   28 35 34.08021  -17 55 01.58907    74.6098   6   6   1.1124   1.0769   3.2112  -0.3024   0.9516  -1.2631   0.00    0.0
2021/10/16 00:00:42.000   28 35 34.08053  -17 55 01.59889    74.6047   6   6   0.8984   0.8781   2.5495  -0.2319   0.7543  -0.9966   0.00    0.0
2021/10/16 00:01:12.000   28 35 34.08692  -17 55 01.60433    74.0254   6   6   0.7728   0.7601   2.1673  -0.1916   0.6402  -0.8433   0.00    0.0
2021/10/16 00:01:42.000   28 35 34.08521  -17 55 01.60369    73.8738   6   6   0.6880   0.6799   1.9124  -0.1649   0.5640  -0.7411   0.00    0.0
2021/10/16 00:02:12.000   28 35 34.08400  -17 55 01.60321    73.6837   6   6   0.6260   0.6210   1.7314  -0.1458   0.5103  -0.6675   0.00    0.0
2021/10/16 00:02:42.000   28 35 34.08730  -17 55 01.60062    73.4570   6   6   0.5725   0.5740   1.5545  -0.1233   0.4566  -0.5941   0.00    0.0
2021/10/16 00:03:12.000   28 35 34.09019  -17 55 01.59788    73.3030   6   6   0.5216   0.5346   1.3621  -0.0929   0.3967  -0.5122   0.00    0.0
2021/10/16 00:03:42.000   28 35 34.09494  -17 55 01.60069    73.0521   6   6   0.4661   0.4997   1.1333  -0.0362   0.3229  -0.4106   0.00    0.0
2021/10/16 00:04:12.000   28 35 34.10197  -17 55 01.60102    72.8553   6   6   0.3947   0.4665   0.8612   0.0759   0.2297  -0.2766   0.00    0.0
2021/10/16 00:04:42.000   28 35 34.10773  -17 55 01.60007    72.9712   6   6   0.3145   0.4342   0.6463   0.0892   0.1446  -0.1372   0.00    0.0
2021/10/16 00:05:12.000   28 35 34.10765  -17 55 01.60224    72.9456   6   6   0.2972   0.4151   0.6106   0.0874   0.1333  -0.1215   0.00    0.0
2021/10/16 00:05:42.000   28 35 34.10708  -17 55 01.60359    72.9157   6   6   0.2876   0.3994   0.5953   0.0846   0.1301  -0.1175   0.00    0.0
2021/10/16 00:06:12.000   28 35 34.10697  -17 55 01.60457    72.9546   6   6   0.2803   0.3858   0.5853   0.0819   0.1289  -0.1157   0.00    0.0
2021/10/16 00:06:42.000   28 35 34.10608  -17 55 01.60442    73.0025   6   6   0.2740   0.3737   0.5776   0.0794   0.1283  -0.1148   0.00    0.0
2021/10/16 00:07:12.000   28 35 34.10544  -17 55 01.60538    73.0441   6   6   0.2685   0.3627   0.5710   0.0771   0.1279  -0.1142   0.00    0.0
2021/10/16 00:07:42.000   28 35 34.10492  -17 55 01.60585    73.0993   6   6   0.2623   0.3525   0.5620   0.0753   0.1263  -0.1116   0.00    0.0
2021/10/16 00:08:12.000   28 35 34.10512  -17 55 01.60617    73.1300   6   6   0.2547   0.3427   0.5482   0.0739   0.1224  -0.1050   0.00    0.0
2021/10/16 00:08:42.000   28 35 34.10607  -17 55 01.60627    73.0811   6   6   0.2431   0.3327   0.5239   0.0734   0.1136  -0.0887   0.00    0.0
2021/10/16 00:09:12.000   28 35 34.10888  -17 55 01.60762    73.0029   6   6   0.2208   0.3203   0.4764   0.0734   0.0932  -0.0303   0.00    0.0
2021/10/16 00:09:42.000   28 35 34.10948  -17 55 01.60732    73.1124   6   6   0.1821   0.3017   0.4123   0.0671   0.0558   0.0892   0.00    0.0
2021/10/16 00:10:12.000   28 35 34.10864  -17 55 01.60677    73.1929   6   6   0.1746   0.2934   0.3994   0.0663   0.0512   0.0936   0.00    0.0
2021/10/16 00:10:42.000   28 35 34.10786  -17 55 01.60638    73.2448   6   6   0.1713   0.2872   0.3944   0.0654   0.0511   0.0942   0.00    0.0
2021/10/16 00:11:12.000   28 35 34.10755  -17 55 01.60609    73.2641   6   6   0.1691   0.2817   0.3913   0.0646   0.0519   0.0940   0.00    0.0
2021/10/16 00:11:42.000   28 35 34.10727  -17 55 01.60626    73.2807   6   6   0.1673   0.2768   0.3891   0.0637   0.0530   0.0936   0.00    0.0
2021/10/16 00:12:12.000   28 35 34.10712  -17 55 01.60515    73.2889   6   6   0.1658   0.2722   0.3873   0.0630   0.0542   0.0930   0.00    0.0
2021/10/16 00:12:42.000   28 35 34.10695  -17 55 01.60501    73.2890   6   6   0.1639   0.2677   0.3848   0.0623   0.0549   0.0928   0.00    0.0
2021/10/16 00:13:12.000   28 35 34.10722  -17 55 01.60528    73.2546   6   6   0.1613   0.2630   0.3808   0.0616   0.0548   0.0932   0.00    0.0
2021/10/16 00:13:42.000   28 35 34.10730  -17 55 01.60564    73.1645   6   6   0.1568   0.2577   0.3731   0.0609   0.0530   0.0951   0.00    0.0
2021/10/16 00:14:12.000   28 35 34.10762  -17 55 01.60622    73.0770   6   6   0.1466   0.2495   0.3555   0.0596   0.0465   0.0997   0.00    0.0
2021/10/16 00:14:42.000   28 35 34.10844  -17 55 01.60614    73.1415   6   6   0.1250   0.2338   0.3242   0.0524   0.0266   0.1033   0.00    0.0
2021/10/16 00:15:12.000   28 35 34.10863  -17 55 01.60617    73.1707   6   7   0.1208   0.2277   0.3157   0.0521   0.0272   0.1032   0.00    0.0
2021/10/16 00:15:42.000   28 35 34.10856  -17 55 01.60560    73.1628   6   7   0.1192   0.2238   0.3124   0.0519   0.0293   0.1028   0.00    0.0
2021/10/16 00:16:12.000   28 35 34.10844  -17 55 01.60590    73.1463   6   7   0.1183   0.2208   0.3107   0.0511   0.0293   0.1029   0.00    0.0
2021/10/16 00:16:42.000   28 35 34.10838  -17 55 01.60583    73.1351   6   7   0.1177   0.2179   0.3095   0.0506   0.0301   0.1027   0.00    0.0
2021/10/16 00:17:12.000   28 35 34.10822  -17 55 01.60624    73.1296   6   7   0.1172   0.2153   0.3084   0.0502   0.0312   0.1025   0.00    0.0
2021/10/16 00:17:42.000   28 35 34.10816  -17 55 01.60663    73.1304   6   7   0.1165   0.2126   0.3069   0.0497   0.0315   0.1023   0.00    0.0
2021/10/16 00:18:12.000   28 35 34.10805  -17 55 01.60647    73.1268   6   7   0.1155   0.2099   0.3042   0.0487   0.0303   0.1023   0.00    0.0
2021/10/16 00:18:42.000   28 35 34.10789  -17 55 01.60626    73.1181   6   7   0.1137   0.2066   0.2991   0.0467   0.0251   0.1024   0.00    0.0
2021/10/16 00:19:12.000   28 35 34.10824  -17 55 01.60592    73.1300   6   7   0.1095   0.2018   0.2876   0.0404  -0.0184   0.1031   0.00    0.0
2021/10/16 00:19:42.000   28 35 34.10838  -17 55 01.60547    73.1330   6   7   0.0986   0.1928   0.2660   0.0045  -0.0546   0.1021   0.00    0.0
2021/10/16 00:20:12.000   28 35 34.10752  -17 55 01.60572    73.1346   6   7   0.0965   0.1897   0.2594  -0.0144  -0.0580   0.1016   0.00    0.0
2021/10/16 00:20:42.000   28 35 34.10726  -17 55 01.60582    73.1388   6   7   0.0956   0.1875   0.2566  -0.0159  -0.0582   0.1011   0.00    0.0
2021/10/16 00:21:12.000   28 35 34.10713  -17 55 01.60577    73.1422   6   7   0.0951   0.1857   0.2549  -0.0160  -0.0577   0.1007   0.00    0.0
2021/10/16 00:21:42.000   28 35 34.10707  -17 55 01.60537    73.1408   6   7   0.0947   0.1839   0.2536  -0.0155  -0.0569   0.1003   0.00    0.0
2021/10/16 00:22:12.000   28 35 34.10701  -17 55 01.60516    73.1337   6   7   0.0944   0.1823   0.2527  -0.0148  -0.0559   0.0999   0.00    0.0
2021/10/16 00:22:42.000   28 35 34.10697  -17 55 01.60521    73.1307   6   7   0.0939   0.1807   0.2511  -0.0145  -0.0552   0.0994   0.00    0.0
2021/10/16 00:23:12.000   28 35 34.10695  -17 55 01.60533    73.1405   6   7   0.0932   0.1789   0.2486  -0.0149  -0.0550   0.0987   0.00    0.0
2021/10/16 00:23:42.000   28 35 34.10722  -17 55 01.60431    73.1855   6   7   0.0920   0.1767   0.2436  -0.0171  -0.0558   0.0975   0.00    0.0
2021/10/16 00:24:12.000   28 35 34.10793  -17 55 01.60359    73.2306   6   7   0.0888   0.1733   0.2324  -0.0234  -0.0598   0.0948   0.00    0.0
2021/10/16 00:24:42.000   28 35 34.10888  -17 55 01.60316    73.2248   6   7   0.0804   0.1662   0.2128  -0.0374  -0.0707   0.0887   0.00    0.0
2021/10/16 00:25:12.000   28 35 34.10899  -17 55 01.60289    73.2298   6   7   0.0787   0.1639   0.2065  -0.0386  -0.0717   0.0872   0.00    0.0
2021/10/16 00:25:42.000   28 35 34.10921  -17 55 01.60299    73.2402   6   7   0.0780   0.1623   0.2039  -0.0386  -0.0714   0.0864   0.00    0.0
2021/10/16 00:26:12.000   28 35 34.10931  -17 55 01.60316    73.2509   6   7   0.0776   0.1610   0.2025  -0.0383  -0.0709   0.0859   0.00    0.0
2021/10/16 00:26:42.000   28 35 34.10941  -17 55 01.60317    73.2620   6   7   0.0773   0.1598   0.2015  -0.0379  -0.0702   0.0856   0.00    0.0
2021/10/16 00:27:12.000   28 35 34.10939  -17 55 01.60279    73.2645   6   7   0.0771   0.1587   0.2007  -0.0374  -0.0695   0.0852   0.00    0.0
2021/10/16 00:27:42.000   28 35 34.10941  -17 55 01.60267    73.2706   6   7   0.0767   0.1576   0.1995  -0.0371  -0.0689   0.0848   0.00    0.0
2021/10/16 00:28:12.000   28 35 34.10947  -17 55 01.60272    73.2803   6   7   0.0762   0.1562   0.1975  -0.0368  -0.0683   0.0841   0.00    0.0
2021/10/16 00:28:42.000   28 35 34.10952  -17 55 01.60251    73.2784   6   7   0.0753   0.1546   0.1939  -0.0367  -0.0680   0.0829   0.00    0.0
2021/10/16 00:29:12.000   28 35 34.10975  -17 55 01.60236    73.2688   6   7   0.0728   0.1516   0.1857  -0.0375  -0.0683   0.0800   0.00    0.0
2021/10/16 00:29:42.000   28 35 34.11061  -17 55 01.60170    73.2577   6   7   0.0659   0.1446   0.1704  -0.0413  -0.0711   0.0733   0.00    0.0
2021/10/16 00:30:12.000   28 35 34.11112  -17 55 01.60163    73.2620   6   8   0.0645   0.1424   0.1654  -0.0412  -0.0706   0.0717   0.00    0.0
2021/10/16 00:30:42.000   28 35 34.11121  -17 55 01.60155    73.2579   6   8   0.0640   0.1411   0.1635  -0.0410  -0.0701   0.0711   0.00    0.0
2021/10/16 00:31:12.000   28 35 34.11131  -17 55 01.60163    73.2611   6   8   0.0636   0.1400   0.1624  -0.0406  -0.0695   0.0707   0.00    0.0
2021/10/16 00:31:42.000   28 35 34.11135  -17 55 01.60170    73.2600   6   8   0.0634   0.1391   0.1617  -0.0403  -0.0689   0.0704   0.00    0.0
2021/10/16 00:32:12.000   28 35 34.11137  -17 55 01.60177    73.2570   6   8   0.0633   0.1383   0.1612  -0.0400  -0.0684   0.0701   0.00    0.0
2021/10/16 00:32:42.000   28 35 34.11136  -17 55 01.60171    73.2543   6   8   0.0630   0.1373   0.1604  -0.0396  -0.0678   0.0698   0.00    0.0
2021/10/16 00:33:12.000   28 35 34.11142  -17 55 01.60180    73.2534   6   8   0.0626   0.1363   0.1591  -0.0393  -0.0672   0.0693   0.00    0.0
2021/10/16 00:33:42.000   28 35 34.11153  -17 55 01.60181    73.2448   6   8   0.0619   0.1348   0.1565  -0.0388  -0.0664   0.0683   0.00    0.0
2021/10/16 00:34:12.000   28 35 34.11169  -17 55 01.60193    73.2164   6   8   0.0599   0.1319   0.1505  -0.0381  -0.0649   0.0658   0.00    0.0
2021/10/16 00:34:42.000   28 35 34.11235  -17 55 01.60209    73.2444   6   8   0.0541   0.1245   0.1383  -0.0378  -0.0634   0.0594   0.00    0.0
2021/10/16 00:35:12.000   28 35 34.11235  -17 55 01.60204    73.2456   6   8   0.0530   0.1224   0.1345  -0.0372  -0.0623   0.0580   0.00    0.0
2021/10/16 00:35:42.000   28 35 34.11235  -17 55 01.60195    73.2381   6   8   0.0525   0.1214   0.1331  -0.0369  -0.0616   0.0575   0.00    0.0
2021/10/16 00:36:12.000   28 35 34.11237  -17 55 01.60195    73.2340   6   8   0.0523   0.1206   0.1323  -0.0366  -0.0612   0.0572   0.00    0.0
2021/10/16 00:36:42.000   28 35 34.11239  -17 55 01.60195    73.2328   6   8   0.0521   0.1199   0.1318  -0.0364  -0.0608   0.0570   0.00    0.0
2021/10/16 00:37:12.000   28 35 34.11242  -17 55 01.60192    73.2347   6   8   0.0520   0.1193   0.1314  -0.0361  -0.0604   0.0568   0.00    0.0
2021/10/16 00:37:42.000   28 35 34.11248  -17 55 01.60203    73.2390   6   8   0.0519   0.1187   0.1309  -0.0359  -0.0599   0.0565   0.00    0.0
2021/10/16 00:38:12.000   28 35 34.11252  -17 55 01.60195    73.2406   6   8   0.0516   0.1178   0.1299  -0.0355  -0.0594   0.0561   0.00    0.0
2021/10/16 00:38:42.000   28 35 34.11252  -17 55 01.60170    73.2341   6   8   0.0510   0.1166   0.1280  -0.0350  -0.0586   0.0553   0.00    0.0
2021/10/16 00:39:12.000   28 35 34.11276  -17 55 01.60160    73.2334   6   8   0.0494   0.1139   0.1237  -0.0340  -0.0568   0.0533   0.00    0.0
2021/10/16 00:39:42.000   28 35 34.11325  -17 55 01.60174    73.2540   6   8   0.0449   0.1068   0.1146  -0.0323  -0.0539   0.0479   0.00    0.0
2021/10/16 00:40:12.000   28 35 34.11331  -17 55 01.60151    73.2540   6   7   0.0439   0.1049   0.1117  -0.0316  -0.0527   0.0467   0.00    0.0
2021/10/16 00:40:42.000   28 35 34.11332  -17 55 01.60138    73.2641   6   7   0.0436   0.1040   0.1107  -0.0313  -0.0521   0.0463   0.00    0.0
2021/10/16 00:41:12.000   28 35 34.11332  -17 55 01.60129    73.2681   6   7   0.0435   0.1034   0.1101  -0.0310  -0.0517   0.0461   0.00    0.0
2021/10/16 00:41:42.000   28 35 34.11336  -17 55 01.60124    73.2706   6   7   0.0433   0.1030   0.1097  -0.0308  -0.0514   0.0459   0.00    0.0
2021/10/16 00:42:12.000   28 35 34.11337  -17 55 01.60101    73.2711   6   6   0.0433   0.1026   0.1095  -0.0307  -0.0512   0.0458   0.00    0.0
2021/10/16 00:42:42.000   28 35 34.11338  -17 55 01.60073    73.2720   6   6   0.0431   0.1021   0.1092  -0.0305  -0.0509   0.0456   0.00    0.0
2021/10/16 00:43:12.000   28 35 34.11342  -17 55 01.60047    73.2714   6   6   0.0429   0.1015   0.1088  -0.0302  -0.0505   0.0454   0.00    0.0
2021/10/16 00:43:42.000   28 35 34.11355  -17 55 01.60031    73.2677   6   6   0.0425   0.1005   0.1079  -0.0298  -0.0498   0.0448   0.00    0.0
2021/10/16 00:44:12.000   28 35 34.11387  -17 55 01.60033    73.2689   6   6   0.0413   0.0982   0.1055  -0.0287  -0.0483   0.0432   0.00    0.0
2021/10/16 00:44:42.000   28 35 34.11411  -17 55 01.60069    73.2801   6   6   0.0377   0.0917   0.0998  -0.0266  -0.0457   0.0388   0.00    0.0
2021/10/16 00:45:12.000   28 35 34.11409  -17 55 01.60089    73.2874   6   6   0.0369   0.0900   0.0982  -0.0259  -0.0446   0.0378   0.00    0.0
2021/10/16 00:45:42.000   28 35 34.11410  -17 55 01.60080    73.2874   6   6   0.0367   0.0893   0.0977  -0.0256  -0.0442   0.0374   0.00    0.0
2021/10/16 00:46:12.000   28 35 34.11416  -17 55 01.60065    73.2892   6   6   0.0365   0.0889   0.0974  -0.0254  -0.0439   0.0373   0.00    0.0
2021/10/16 00:46:42.000   28 35 34.11418  -17 55 01.60054    73.2906   6   6   0.0364   0.0886   0.0972  -0.0253  -0.0437   0.0372   0.00    0.0
2021/10/16 00:47:12.000   28 35 34.11419  -17 55 01.60041    73.2916   6   6   0.0364   0.0883   0.0971  -0.0252  -0.0436   0.0371   0.00    0.0
2021/10/16 00:47:42.000   28 35 34.11420  -17 55 01.60031    73.2930   6   6   0.0363   0.0880   0.0969  -0.0250  -0.0433   0.0370   0.00    0.0
2021/10/16 00:48:12.000   28 35 34.11422  -17 55 01.60014    73.2960   6   6   0.0361   0.0875   0.0966  -0.0248  -0.0431   0.0367   0.00    0.0
2021/10/16 00:48:42.000   28 35 34.11430  -17 55 01.60003    73.3029   6   6   0.0358   0.0867   0.0959  -0.0244  -0.0425   0.0363   0.00    0.0
2021/10/16 00:49:12.000   28 35 34.11435  -17 55 01.60005    73.3105   6   6   0.0349   0.0847   0.0943  -0.0234  -0.0413   0.0350   0.00    0.0
2021/10/16 00:49:42.000   28 35 34.11436  -17 55 01.60041    73.3210   6   6   0.0320   0.0789   0.0900  -0.0212  -0.0388   0.0312   0.00    0.0
2021/10/16 00:50:12.000   28 35 34.11423  -17 55 01.60044    73.3164   6   6   0.0314   0.0775   0.0888  -0.0206  -0.0380   0.0304   0.00    0.0
2021/10/16 00:50:42.000   28 35 34.11419  -17 55 01.60047    73.3168   6   6   0.0312   0.0770   0.0884  -0.0204  -0.0377   0.0301   0.00    0.0
2021/10/16 00:51:12.000   28 35 34.11415  -17 55 01.60047    73.3186   6   6   0.0311   0.0766   0.0882  -0.0203  -0.0375   0.0300   0.00    0.0
2021/10/16 00:51:42.000   28 35 34.11413  -17 55 01.60043    73.3187   6   6   0.0310   0.0764   0.0881  -0.0202  -0.0374   0.0299   0.00    0.0
2021/10/16 00:52:12.000   28 35 34.11412  -17 55 01.60041    73.3191   6   6   0.0310   0.0762   0.0880  -0.0201  -0.0373   0.0298   0.00    0.0
2021/10/16 00:52:42.000   28 35 34.11410  -17 55 01.60033    73.3194   6   6   0.0309   0.0760   0.0879  -0.0200  -0.0371   0.0297   0.00    0.0
2021/10/16 00:53:12.000   28 35 34.11408  -17 55 01.60030    73.3199   6   6   0.0308   0.0756   0.0877  -0.0198  -0.0369   0.0295   0.00    0.0
2021/10/16 00:53:42.000   28 35 34.11409  -17 55 01.60028    73.3207   6   6   0.0306   0.0750   0.0873  -0.0195  -0.0366   0.0292   0.00    0.0
2021/10/16 00:54:12.000   28 35 34.11422  -17 55 01.60025    73.3234   6   6   0.0299   0.0734   0.0861  -0.0187  -0.0356   0.0282   0.00    0.0
2021/10/16 00:54:42.000   28 35 34.11437  -17 55 01.60065    73.3310   6   6   0.0276   0.0686   0.0831  -0.0168  -0.0339   0.0248   0.00    0.0
2021/10/16 00:55:12.000   28 35 34.11441  -17 55 01.60071    73.3353   6   6   0.0271   0.0675   0.0823  -0.0163  -0.0333   0.0241   0.00    0.0
2021/10/16 00:55:42.000   28 35 34.11440  -17 55 01.60070    73.3363   6   6   0.0270   0.0671   0.0820  -0.0161  -0.0331   0.0239   0.00    0.0
2021/10/16 00:56:12.000   28 35 34.11439  -17 55 01.60067    73.3377   6   6   0.0269   0.0668   0.0819  -0.0160  -0.0330   0.0238   0.00    0.0
2021/10/16 00:56:42.000   28 35 34.11439  -17 55 01.60061    73.3394   6   6   0.0269   0.0666   0.0818  -0.0160  -0.0329   0.0237   0.00    0.0
2021/10/16 00:57:12.000   28 35 34.11439  -17 55 01.60060    73.3402   6   6   0.0268   0.0665   0.0818  -0.0159  -0.0328   0.0237   0.00    0.0
2021/10/16 00:57:42.000   28 35 34.11438  -17 55 01.60056    73.3407   6   6   0.0268   0.0663   0.0817  -0.0158  -0.0327   0.0236   0.00    0.0
2021/10/16 00:58:12.000   28 35 34.11439  -17 55 01.60054    73.3431   6   6   0.0267   0.0660   0.0815  -0.0157  -0.0326   0.0235   0.00    0.0
2021/10/16 00:58:42.000   28 35 34.11440  -17 55 01.60047    73.3471   6   6   0.0265   0.0656   0.0812  -0.0155  -0.0324   0.0232   0.00    0.0
2021/10/16 00:59:12.000   28 35 34.11443  -17 55 01.60051    73.3522   6   6   0.0260   0.0643   0.0805  -0.0149  -0.0318   0.0223   0.00    0.0
2021/10/16 00:59:42.000   28 35 34.11449  -17 55 01.60062    73.3576   6   6   0.0242   0.0603   0.0782  -0.0132  -0.0308   0.0193   0.00    0.0
2021/10/16 01:00:12.000   28 35 34.11446  -17 55 01.60063    73.3572   6   6   0.0238   0.0594   0.0777  -0.0128  -0.0304   0.0186   0.00    0.0
2021/10/16 01:00:42.000   28 35 34.11444  -17 55 01.60064    73.3582   6   6   0.0237   0.0590   0.0775  -0.0126  -0.0303   0.0184   0.00    0.0
2021/10/16 01:01:12.000   28 35 34.11443  -17 55 01.60062    73.3579   6   6   0.0237   0.0588   0.0774  -0.0125  -0.0302   0.0183   0.00    0.0
2021/10/16 01:01:42.000   28 35 34.11442  -17 55 01.60055    73.3569   6   6   0.0236   0.0587   0.0773  -0.0125  -0.0302   0.0182   0.00    0.0
2021/10/16 01:02:12.000   28 35 34.11440  -17 55 01.60049    73.3568   6   6   0.0236   0.0586   0.0773  -0.0124  -0.0301   0.0182   0.00    0.0
2021/10/16 01:02:42.000   28 35 34.11439  -17 55 01.60043    73.3572   6   6   0.0236   0.0585   0.0773  -0.0124  -0.0301   0.0181   0.00    0.0
2021/10/16 01:03:12.000   28 35 34.11438  -17 55 01.60031    73.3580   6   6   0.0235   0.0582   0.0772  -0.0123  -0.0300   0.0180   0.00    0.0
2021/10/16 01:03:42.000   28 35 34.11437  -17 55 01.60026    73.3594   6   6   0.0233   0.0579   0.0770  -0.0121  -0.0299   0.0177   0.00    0.0
2021/10/16 01:04:12.000   28 35 34.11440  -17 55 01.60030    73.3636   6   6   0.0229   0.0568   0.0764  -0.0115  -0.0295   0.0169   0.00    0.0
2021/10/16 01:04:42.000   28 35 34.11444  -17 55 01.60043    73.3654   6   6   0.0215   0.0535   0.0747  -0.0098  -0.0290   0.0138   0.00    0.0
2021/10/16 01:05:12.000   28 35 34.11446  -17 55 01.60047    73.3678   6   6   0.0212   0.0528   0.0743  -0.0094  -0.0288   0.0131   0.00    0.0
2021/10/16 01:05:42.000   28 35 34.11448  -17 55 01.60047    73.3698   6   6   0.0211   0.0525   0.0741  -0.0093  -0.0287   0.0129   0.00    0.0
2021/10/16 01:06:12.000   28 35 34.11448  -17 55 01.60043    73.3709   6   6   0.0211   0.0523   0.0741  -0.0092  -0.0287   0.0128   0.00    0.0
2021/10/16 01:06:42.000   28 35 34.11446  -17 55 01.60045    73.3712   6   6   0.0211   0.0522   0.0740  -0.0092  -0.0286   0.0127   0.00    0.0
2021/10/16 01:07:12.000   28 35 34.11445  -17 55 01.60044    73.3709   6   6   0.0210   0.0522   0.0740  -0.0091  -0.0286   0.0127   0.00    0.0
2021/10/16 01:07:42.000   28 35 34.11444  -17 55 01.60041    73.3705   6   6   0.0210   0.0520   0.0740  -0.0091  -0.0286   0.0126   0.00    0.0
2021/10/16 01:08:12.000   28 35 34.11443  -17 55 01.60040    73.3707   6   6   0.0210   0.0519   0.0739  -0.0090  -0.0286   0.0125   0.00    0.0
2021/10/16 01:08:42.000   28 35 34.11444  -17 55 01.60040    73.3713   6   6   0.0208   0.0516   0.0737  -0.0088  -0.0285   0.0122   0.00    0.0
2021/10/16 01:09:12.000   28 35 34.11450  -17 55 01.60033    73.3730   6   6   0.0205   0.0507   0.0733  -0.0083  -0.0284   0.0113   0.00    0.0
2021/10/16 01:09:42.000   28 35 34.11449  -17 55 01.60041    73.3713   6   6   0.0194   0.0480   0.0719  -0.0065  -0.0283   0.0075   0.00    0.0
2021/10/16 01:10:12.000   28 35 34.11445  -17 55 01.60041    73.3708   6   6   0.0192   0.0474   0.0715  -0.0061  -0.0282   0.0065   0.00    0.0
2021/10/16 01:10:42.000   28 35 34.11441  -17 55 01.60037    73.3706   6   6   0.0191   0.0472   0.0714  -0.0059  -0.0282   0.0062   0.00    0.0
2021/10/16 01:11:12.000   28 35 34.11440  -17 55 01.60034    73.3717   6   6   0.0191   0.0471   0.0713  -0.0058  -0.0282   0.0060   0.00    0.0
2021/10/16 01:11:42.000   28 35 34.11440  -17 55 01.60030    73.3726   6   6   0.0190   0.0470   0.0713  -0.0058  -0.0282   0.0059   0.00    0.0
2021/10/16 01:12:12.000   28 35 34.11439  -17 55 01.60027    73.3726   6   6   0.0190   0.0469   0.0713  -0.0058  -0.0282   0.0058   0.00    0.0
2021/10/16 01:12:42.000   28 35 34.11439  -17 55 01.60026    73.3732   6   6   0.0190   0.0468   0.0712  -0.0057  -0.0282   0.0057   0.00    0.0
2021/10/16 01:13:12.000   28 35 34.11440  -17 55 01.60024    73.3749   6   6   0.0190   0.0467   0.0712  -0.0056  -0.0281   0.0055   0.00    0.0
2021/10/16 01:13:42.000   28 35 34.11438  -17 55 01.60028    73.3771   6   6   0.0189   0.0464   0.0710  -0.0054  -0.0281   0.0049   0.00    0.0
2021/10/16 01:14:12.000   28 35 34.11431  -17 55 01.60036    73.3799   6   6   0.0186   0.0458   0.0706  -0.0047  -0.0281   0.0029   0.00    0.0
2021/10/16 01:14:42.000   28 35 34.11435  -17 55 01.60054    73.3803   6   6   0.0178   0.0435   0.0693  -0.0017  -0.0283  -0.0067   0.00    0.0
2021/10/16 01:15:12.000   28 35 34.11439  -17 55 01.60052    73.3788   6   6   0.0176   0.0431   0.0689   0.0012  -0.0283  -0.0074   0.00    0.0
2021/10/16 01:15:42.000   28 35 34.11442  -17 55 01.60050    73.3777   6   6   0.0175   0.0429   0.0688   0.0017  -0.0283  -0.0077   0.00    0.0
2021/10/16 01:16:12.000   28 35 34.11444  -17 55 01.60044    73.3768   6   6   0.0175   0.0428   0.0687   0.0019  -0.0283  -0.0078   0.00    0.0
2021/10/16 01:16:42.000   28 35 34.11444  -17 55 01.60038    73.3763   6   6   0.0175   0.0427   0.0687   0.0020  -0.0283  -0.0078   0.00    0.0
2021/10/16 01:17:12.000   28 35 34.11445  -17 55 01.60030    73.3760   6   6   0.0175   0.0427   0.0686   0.0021  -0.0283  -0.0079   0.00    0.0
2021/10/16 01:17:42.000   28 35 34.11445  -17 55 01.60023    73.3763   6   6   0.0174   0.0426   0.0686   0.0022  -0.0283  -0.0079   0.00    0.0
2021/10/16 01:18:12.000   28 35 34.11445  -17 55 01.60021    73.3767   6   6   0.0174   0.0425   0.0685   0.0024  -0.0283  -0.0080   0.00    0.0
2021/10/16 01:18:42.000   28 35 34.11444  -17 55 01.60019    73.3760   6   5   0.0173   0.0423   0.0684   0.0028  -0.0283  -0.0083   0.00    0.0
2021/10/16 01:19:12.000   28 35 34.11444  -17 55 01.60019    73.3748   6   5   0.0171   0.0418   0.0681   0.0036  -0.0282  -0.0089   0.00    0.0
2021/10/16 01:19:42.000   28 35 34.11449  -17 55 01.60041    73.3784   6   5   0.0164   0.0399   0.0672   0.0055  -0.0284  -0.0109   0.00    0.0
2021/10/16 01:20:12.000   28 35 34.11454  -17 55 01.60043    73.3820   6   5   0.0163   0.0395   0.0670   0.0058  -0.0284  -0.0112   0.00    0.0
2021/10/16 01:20:42.000   28 35 34.11454  -17 55 01.60044    73.3826   6   5   0.0162   0.0394   0.0670   0.0059  -0.0284  -0.0114   0.00    0.0
2021/10/16 01:21:12.000   28 35 34.11455  -17 55 01.60042    73.3827   6   5   0.0162   0.0393   0.0669   0.0059  -0.0284  -0.0114   0.00    0.0
2021/10/16 01:21:42.000   28 35 34.11455  -17 55 01.60042    73.3830   6   5   0.0162   0.0393   0.0669   0.0060  -0.0284  -0.0114   0.00    0.0
2021/10/16 01:22:12.000   28 35 34.11455  -17 55 01.60043    73.3829   6   5   0.0162   0.0392   0.0669   0.0060  -0.0284  -0.0115   0.00    0.0
2021/10/16 01:22:42.000   28 35 34.11455  -17 55 01.60043    73.3832   6   5   0.0162   0.0392   0.0669   0.0060  -0.0284  -0.0115   0.00    0.0
2021/10/16 01:23:12.000   28 35 34.11456  -17 55 01.60042    73.3838   6   5   0.0161   0.0391   0.0668   0.0061  -0.0284  -0.0115   0.00    0.0
2021/10/16 01:23:42.000   28 35 34.11458  -17 55 01.60039    73.3855   6   5   0.0161   0.0389   0.0668   0.0062  -0.0284  -0.0117   0.00    0.0
2021/10/16 01:24:12.000   28 35 34.11464  -17 55 01.60041    73.3899   6   5   0.0159   0.0385   0.0665   0.0065  -0.0284  -0.0120   0.00    0.0
2021/10/16 01:24:42.000   28 35 34.11463  -17 55 01.60058    73.3890   6   5   0.0154   0.0370   0.0657   0.0074  -0.0287  -0.0132   0.00    0.0
2021/10/16 01:25:12.000   28 35 34.11459  -17 55 01.60061    73.3854   6   5   0.0153   0.0367   0.0656   0.0076  -0.0287  -0.0135   0.00    0.0
2021/10/16 01:25:42.000   28 35 34.11458  -17 55 01.60058    73.3849   6   5   0.0152   0.0366   0.0655   0.0077  -0.0287  -0.0135   0.00    0.0
2021/10/16 01:26:12.000   28 35 34.11458  -17 55 01.60056    73.3850   6   5   0.0152   0.0365   0.0655   0.0077  -0.0287  -0.0136   0.00    0.0
2021/10/16 01:26:42.000   28 35 34.11458  -17 55 01.60055    73.3852   6   5   0.0152   0.0365   0.0655   0.0077  -0.0287  -0.0136   0.00    0.0
2021/10/16 01:27:12.000   28 35 34.11458  -17 55 01.60053    73.3856   6   5   0.0152   0.0365   0.0654   0.0077  -0.0287  -0.0136   0.00    0.0
2021/10/16 01:27:42.000   28 35 34.11458  -17 55 01.60053    73.3858   6   5   0.0152   0.0364   0.0654   0.0078  -0.0287  -0.0136   0.00    0.0
2021/10/16 01:28:12.000   28 35 34.11458  -17 55 01.60053    73.3861   6   5   0.0151   0.0364   0.0654   0.0078  -0.0287  -0.0137   0.00    0.0
2021/10/16 01:28:42.000   28 35 34.11457  -17 55 01.60053    73.3862   6   5   0.0151   0.0362   0.0653   0.0079  -0.0287  -0.0137   0.00    0.0
2021/10/16 01:29:12.000   28 35 34.11454  -17 55 01.60061    73.3849   6   5   0.0150   0.0359   0.0651   0.0081  -0.0288  -0.0140   0.00    0.0
2021/10/16 01:29:42.000   28 35 34.11454  -17 55 01.60070    73.3837   6   5   0.0145   0.0347   0.0643   0.0087  -0.0291  -0.0148   0.00    0.0
2021/10/16 01:30:12.000   28 35 34.11456  -17 55 01.60068    73.3838   6   5   0.0144   0.0344   0.0642   0.0088  -0.0292  -0.0150   0.00    0.0
2021/10/16 01:30:42.000   28 35 34.11456  -17 55 01.60068    73.3840   6   5   0.0144   0.0343   0.0641   0.0089  -0.0292  -0.0150   0.00    0.0
2021/10/16 01:31:12.000   28 35 34.11456  -17 55 01.60067    73.3842   6   5   0.0144   0.0343   0.0641   0.0089  -0.0292  -0.0151   0.00    0.0
2021/10/16 01:31:42.000   28 35 34.11456  -17 55 01.60066    73.3843   6   5   0.0144   0.0343   0.0641   0.0089  -0.0292  -0.0151   0.00    0.0
2021/10/16 01:32:12.000   28 35 34.11456  -17 55 01.60065    73.3843   6   5   0.0144   0.0342   0.0641   0.0089  -0.0292  -0.0151   0.00    0.0
2021/10/16 01:32:42.000   28 35 34.11456  -17 55 01.60064    73.3840   6   5   0.0143   0.0342   0.0640   0.0089  -0.0292  -0.0151   0.00    0.0
2021/10/16 01:33:12.000   28 35 34.11457  -17 55 01.60060    73.3845   6   5   0.0143   0.0341   0.0640   0.0089  -0.0292  -0.0151   0.00    0.0
2021/10/16 01:33:42.000   28 35 34.11459  -17 55 01.60057    73.3857   6   5   0.0143   0.0340   0.0639   0.0090  -0.0292  -0.0152   0.00    0.0
2021/10/16 01:34:12.000   28 35 34.11462  -17 55 01.60054    73.3870   6   5   0.0142   0.0338   0.0637   0.0091  -0.0292  -0.0154   0.00    0.0
2021/10/16 01:34:42.000   28 35 34.11462  -17 55 01.60070    73.3843   6   5   0.0138   0.0329   0.0630   0.0096  -0.0296  -0.0160   0.00    0.0
2021/10/16 01:35:12.000   28 35 34.11462  -17 55 01.60072    73.3834   6   5   0.0138   0.0327   0.0628   0.0097  -0.0296  -0.0161   0.00    0.0
2021/10/16 01:35:42.000   28 35 34.11461  -17 55 01.60072    73.3832   6   5   0.0137   0.0326   0.0627   0.0097  -0.0296  -0.0161   0.00    0.0
2021/10/16 01:36:12.000   28 35 34.11461  -17 55 01.60072    73.3833   6   5   0.0137   0.0325   0.0627   0.0097  -0.0296  -0.0161   0.00    0.0
2021/10/16 01:36:42.000   28 35 34.11461  -17 55 01.60072    73.3832   6   5   0.0137   0.0325   0.0627   0.0098  -0.0296  -0.0161   0.00    0.0
2021/10/16 01:37:12.000   28 35 34.11461  -17 55 01.60072    73.3829   6   5   0.0137   0.0325   0.0627   0.0098  -0.0296  -0.0161   0.00    0.0
2021/10/16 01:37:42.000   28 35 34.11460  -17 55 01.60070    73.3820   6   5   0.0137   0.0325   0.0626   0.0098  -0.0296  -0.0161   0.00    0.0
2021/10/16 01:38:12.000   28 35 34.11460  -17 55 01.60069    73.3809   6   5   0.0137   0.0324   0.0626   0.0098  -0.0296  -0.0162   0.00    0.0
2021/10/16 01:38:42.000   28 35 34.11459  -17 55 01.60070    73.3793   6   5   0.0136   0.0324   0.0625   0.0098  -0.0296  -0.0162   0.00    0.0
2021/10/16 01:39:12.000   28 35 34.11458  -17 55 01.60075    73.3771   6   5   0.0136   0.0321   0.0623   0.0099  -0.0297  -0.0163   0.00    0.0
2021/10/16 01:39:42.000   28 35 34.11458  -17 55 01.60086    73.3745   6   5   0.0133   0.0314   0.0615   0.0103  -0.0300  -0.0167   0.00    0.0
2021/10/16 01:40:12.000   28 35 34.11459  -17 55 01.60085    73.3746   6   5   0.0132   0.0312   0.0613   0.0104  -0.0300  -0.0168   0.00    0.0
2021/10/16 01:40:42.000   28 35 34.11459  -17 55 01.60085    73.3751   6   5   0.0132   0.0312   0.0613   0.0104  -0.0300  -0.0169   0.00    0.0
2021/10/16 01:41:12.000   28 35 34.11459  -17 55 01.60086    73.3747   6   5   0.0132   0.0312   0.0612   0.0105  -0.0300  -0.0169   0.00    0.0
2021/10/16 01:41:42.000   28 35 34.11458  -17 55 01.60086    73.3742   6   5   0.0132   0.0311   0.0612   0.0105  -0.0300  -0.0169   0.00    0.0
2021/10/16 01:42:12.000   28 35 34.11458  -17 55 01.60086    73.3740   6   5   0.0132   0.0311   0.0612   0.0105  -0.0300  -0.0169   0.00    0.0
2021/10/16 01:42:42.000   28 35 34.11458  -17 55 01.60085    73.3732   6   5   0.0131   0.0311   0.0612   0.0105  -0.0300  -0.0169   0.00    0.0
2021/10/16 01:43:12.000   28 35 34.11457  -17 55 01.60085    73.3724   6   5   0.0131   0.0311   0.0612   0.0105  -0.0300  -0.0169   0.00    0.0
2021/10/16 01:43:42.000   28 35 34.11457  -17 55 01.60088    73.3706   6   5   0.0131   0.0310   0.0611   0.0105  -0.0300  -0.0169   0.00    0.0
2021/10/16 01:44:12.000   28 35 34.11456  -17 55 01.60097    73.3674   6   5   0.0130   0.0308   0.0608   0.0106  -0.0301  -0.0170   0.00    0.0
2021/10/16 01:44:42.000   28 35 34.11458  -17 55 01.60112    73.3658   6   5   0.0128   0.0303   0.0600   0.0109  -0.0303  -0.0173   0.00    0.0
2021/10/16 01:45:12.000   28 35 34.11459  -17 55 01.60112    73.3658   6   5   0.0127   0.0301   0.0598   0.0110  -0.0303  -0.0173   0.00    0.0
2021/10/16 01:45:42.000   28 35 34.11460  -17 55 01.60112    73.3659   6   5   0.0127   0.0301   0.0598   0.0110  -0.0303  -0.0174   0.00    0.0
2021/10/16 01:46:12.000   28 35 34.11460  -17 55 01.60112    73.3659   6   5   0.0127   0.0301   0.0597   0.0110  -0.0303  -0.0174   0.00    0.0
2021/10/16 01:46:42.000   28 35 34.11460  -17 55 01.60112    73.3659   6   5   0.0127   0.0301   0.0597   0.0110  -0.0303  -0.0174   0.00    0.0
2021/10/16 01:47:12.000   28 35 34.11459  -17 55 01.60112    73.3661   6   5   0.0127   0.0300   0.0597   0.0110  -0.0303  -0.0174   0.00    0.0
2021/10/16 01:47:42.000   28 35 34.11460  -17 55 01.60112    73.3661   6   5   0.0127   0.0300   0.0597   0.0110  -0.0303  -0.0174   0.00    0.0
2021/10/16 01:48:12.000   28 35 34.11460  -17 55 01.60110    73.3658   6   5   0.0127   0.0300   0.0596   0.0110  -0.0303  -0.0174   0.00    0.0
2021/10/16 01:48:42.000   28 35 34.11460  -17 55 01.60109    73.3647   6   5   0.0127   0.0300   0.0595   0.0110  -0.0303  -0.0174   0.00    0.0
2021/10/16 01:49:12.000   28 35 34.11460  -17 55 01.60109    73.3620   6   5   0.0126   0.0298   0.0593   0.0111  -0.0304  -0.0175   0.00    0.0
2021/10/16 01:49:42.000   28 35 34.11461  -17 55 01.60118    73.3562   6   5   0.0124   0.0294   0.0584   0.0114  -0.0305  -0.0176   0.00    0.0
2021/10/16 01:50:12.000   28 35 34.11462  -17 55 01.60116    73.3557   6   5   0.0123   0.0293   0.0582   0.0114  -0.0306  -0.0176   0.00    0.0
2021/10/16 01:50:42.000   28 35 34.11462  -17 55 01.60116    73.3555   6   5   0.0123   0.0293   0.0582   0.0114  -0.0306  -0.0177   0.00    0.0
2021/10/16 01:51:12.000   28 35 34.11462  -17 55 01.60114    73.3551   6   5   0.0123   0.0292   0.0581   0.0114  -0.0306  -0.0177   0.00    0.0
2021/10/16 01:51:42.000   28 35 34.11462  -17 55 01.60114    73.3549   6   5   0.0123   0.0292   0.0581   0.0114  -0.0306  -0.0177   0.00    0.0
2021/10/16 01:52:12.000   28 35 34.11462  -17 55 01.60114    73.3546   6   5   0.0123   0.0292   0.0581   0.0114  -0.0305  -0.0177   0.00    0.0
2021/10/16 01:52:42.000   28 35 34.11462  -17 55 01.60114    73.3545   6   5   0.0123   0.0292   0.0581   0.0114  -0.0305  -0.0177   0.00    0.0
2021/10/16 01:53:12.000   28 35 34.11462  -17 55 01.60115    73.3546   6   5   0.0123   0.0292   0.0580   0.0115  -0.0305  -0.0177   0.00    0.0
2021/10/16 01:53:42.000   28 35 34.11463  -17 55 01.60114    73.3552   6   5   0.0123   0.0291   0.0579   0.0115  -0.0305  -0.0177   0.00    0.0
2021/10/16 01:54:12.000   28 35 34.11464  -17 55 01.60115    73.3555   6   5   0.0122   0.0291   0.0577   0.0115  -0.0306  -0.0177   0.00    0.0
2021/10/16 01:54:42.000   28 35 34.11465  -17 55 01.60118    73.3518   6   5   0.0120   0.0287   0.0568   0.0117  -0.0307  -0.0178   0.00    0.0
2021/10/16 01:55:12.000   28 35 34.11466  -17 55 01.60119    73.3522   6   5   0.0120   0.0286   0.0566   0.0118  -0.0307  -0.0178   0.00    0.0
2021/10/16 01:55:42.000   28 35 34.11467  -17 55 01.60119    73.3529   6   5   0.0120   0.0286   0.0565   0.0118  -0.0307  -0.0178   0.00    0.0
2021/10/16 01:56:12.000   28 35 34.11467  -17 55 01.60118    73.3531   6   5   0.0120   0.0286   0.0565   0.0118  -0.0307  -0.0178   0.00    0.0
2021/10/16 01:56:42.000   28 35 34.11467  -17 55 01.60117    73.3528   6   5   0.0120   0.0286   0.0564   0.0118  -0.0307  -0.0178   0.00    0.0
2021/10/16 01:57:12.000   28 35 34.11467  -17 55 01.60115    73.3525   6   5   0.0120   0.0286   0.0564   0.0118  -0.0307  -0.0178   0.00    0.0
2021/10/16 01:57:42.000   28 35 34.11467  -17 55 01.60114    73.3526   6   5   0.0120   0.0286   0.0564   0.0118  -0.0307  -0.0178   0.00    0.0
2021/10/16 01:58:12.000   28 35 34.11467  -17 55 01.60113    73.3521   6   6   0.0119   0.0286   0.0564   0.0118  -0.0306  -0.0178   0.00    0.0
2021/10/16 01:58:42.000   28 35 34.11468  -17 55 01.60112    73.3510   6   6   0.0119   0.0285   0.0563   0.0118  -0.0306  -0.0178   0.00    0.0
2021/10/16 01:59:12.000   28 35 34.11468  -17 55 01.60112    73.3492   6   6   0.0119   0.0284   0.0560   0.0119  -0.0306  -0.0178   0.00    0.0
2021/10/16 01:59:42.000   28 35 34.11469  -17 55 01.60112    73.3456   6   6   0.0117   0.0282   0.0551   0.0120  -0.0307  -0.0178   0.00    0.0
2021/10/16 02:00:12.000   28 35 34.11470  -17 55 01.60109    73.3472   6   6   0.0117   0.0281   0.0549   0.0120  -0.0307  -0.0178   0.00    0.0
2021/10/16 02:00:42.000   28 35 34.11470  -17 55 01.60108    73.3479   6   6   0.0117   0.0281   0.0548   0.0121  -0.0307  -0.0178   0.00    0.0
2021/10/16 02:01:12.000   28 35 34.11471  -17 55 01.60106    73.3483   6   6   0.0117   0.0281   0.0548   0.0121  -0.0307  -0.0178   0.00    0.0
2021/10/16 02:01:42.000   28 35 34.11471  -17 55 01.60106    73.3489   6   6   0.0116   0.0281   0.0548   0.0121  -0.0307  -0.0178   0.00    0.0
2021/10/16 02:02:12.000   28 35 34.11471  -17 55 01.60106    73.3490   6   6   0.0116   0.0281   0.0547   0.0121  -0.0307  -0.0178   0.00    0.0
2021/10/16 02:02:42.000   28 35 34.11471  -17 55 01.60105    73.3487   6   6   0.0116   0.0281   0.0547   0.0121  -0.0306  -0.0178   0.00    0.0
2021/10/16 02:03:12.000   28 35 34.11471  -17 55 01.60103    73.3484   6   6   0.0116   0.0281   0.0547   0.0121  -0.0306  -0.0178   0.00    0.0
2021/10/16 02:03:42.000   28 35 34.11472  -17 55 01.60102    73.3487   6   6   0.0116   0.0280   0.0546   0.0121  -0.0306  -0.0178   0.00    0.0
2021/10/16 02:04:12.000   28 35 34.11474  -17 55 01.60101    73.3503   6   6   0.0116   0.0280   0.0543   0.0121  -0.0306  -0.0177   0.00    0.0
2021/10/16 02:04:42.000   28 35 34.11476  -17 55 01.60103    73.3451   6   6   0.0114   0.0278   0.0534   0.0122  -0.0306  -0.0177   0.00    0.0
2021/10/16 02:05:12.000   28 35 34.11476  -17 55 01.60103    73.3406   6   6   0.0114   0.0277   0.0532   0.0122  -0.0306  -0.0177   0.00    0.0
2021/10/16 02:05:42.000   28 35 34.11477  -17 55 01.60102    73.3398   6   6   0.0114   0.0277   0.0531   0.0122  -0.0306  -0.0177   0.00    0.0
2021/10/16 02:06:12.000   28 35 34.11477  -17 55 01.60101    73.3390   6   6   0.0114   0.0277   0.0531   0.0122  -0.0306  -0.0177   0.00    0.0
2021/10/16 02:06:42.000   28 35 34.11478  -17 55 01.60100    73.3387   6   6   0.0114   0.0277   0.0531   0.0122  -0.0306  -0.0177   0.00    0.0
2021/10/16 02:07:12.000   28 35 34.11478  -17 55 01.60099    73.3385   6   6   0.0114   0.0277   0.0530   0.0122  -0.0306  -0.0176   0.00    0.0
2021/10/16 02:07:42.000   28 35 34.11478  -17 55 01.60099    73.3383   6   7   0.0113   0.0277   0.0530   0.0122  -0.0305  -0.0176   0.00    0.0
2021/10/16 02:08:12.000   28 35 34.11478  -17 55 01.60099    73.3380   6   7   0.0113   0.0277   0.0530   0.0122  -0.0305  -0.0176   0.00    0.0
2021/10/16 02:08:42.000   28 35 34.11478  -17 55 01.60100    73.3377   6   7   0.0113   0.0276   0.0529   0.0123  -0.0305  -0.0176   0.00    0.0
2021/10/16 02:09:12.000   28 35 34.11477  -17 55 01.60099    73.3340   6   7   0.0113   0.0276   0.0526   0.0123  -0.0305  -0.0176   0.00    0.0
2021/10/16 02:09:42.000   28 35 34.11478  -17 55 01.60099    73.3299   6   7   0.0111   0.0275   0.0517   0.0124  -0.0304  -0.0175   0.00    0.0
2021/10/16 02:10:12.000   28 35 34.11479  -17 55 01.60098    73.3285   6   7   0.0111   0.0274   0.0515   0.0124  -0.0304  -0.0174   0.00    0.0
2021/10/16 02:10:42.000   28 35 34.11479  -17 55 01.60096    73.3291   6   7   0.0111   0.0274   0.0514   0.0124  -0.0304  -0.0174   0.00    0.0
2021/10/16 02:11:12.000   28 35 34.11480  -17 55 01.60096    73.3296   6   7   0.0111   0.0274   0.0514   0.0124  -0.0304  -0.0174   0.00    0.0
2021/10/16 02:11:42.000   28 35 34.11480  -17 55 01.60095    73.3296   6   7   0.0111   0.0274   0.0513   0.0124  -0.0304  -0.0174   0.00    0.0
2021/10/16 02:12:12.000   28 35 34.11480  -17 55 01.60093    73.3290   6   7   0.0111   0.0274   0.0513   0.0124  -0.0304  -0.0174   0.00    0.0
2021/10/16 02:12:42.000   28 35 34.11480  -17 55 01.60093    73.3289   6   7   0.0111   0.0274   0.0513   0.0124  -0.0304  -0.0174   0.00    0.0
2021/10/16 02:13:12.000   28 35 34.11481  -17 55 01.60092    73.3285   6   7   0.0111   0.0274   0.0512   0.0124  -0.0303  -0.0174   0.00    0.0
2021/10/16 02:13:42.000   28 35 34.11481  -17 55 01.60091    73.3268   6   7   0.0110   0.0273   0.0511   0.0124  -0.0303  -0.0174   0.00    0.0
2021/10/16 02:14:12.000   28 35 34.11482  -17 55 01.60090    73.3240   6   7   0.0110   0.0273   0.0509   0.0124  -0.0303  -0.0173   0.00    0.0
2021/10/16 02:14:42.000   28 35 34.11482  -17 55 01.60088    73.3219   6   7   0.0109   0.0272   0.0500   0.0125  -0.0302  -0.0172   0.00    0.0
2021/10/16 02:15:12.000   28 35 34.11482  -17 55 01.60088    73.3229   6   7   0.0108   0.0272   0.0498   0.0125  -0.0302  -0.0172   0.00    0.0
2021/10/16 02:15:42.000   28 35 34.11481  -17 55 01.60089    73.3240   6   7   0.0108   0.0271   0.0497   0.0125  -0.0302  -0.0171   0.00    0.0
2021/10/16 02:16:12.000   28 35 34.11481  -17 55 01.60088    73.3241   6   7   0.0108   0.0271   0.0497   0.0125  -0.0302  -0.0171   0.00    0.0
2021/10/16 02:16:42.000   28 35 34.11482  -17 55 01.60088    73.3239   6   7   0.0108   0.0271   0.0497   0.0125  -0.0301  -0.0171   0.00    0.0
2021/10/16 02:17:12.000   28 35 34.11482  -17 55 01.60088    73.3240   6   7   0.0108   0.0271   0.0497   0.0125  -0.0301  -0.0171   0.00    0.0
2021/10/16 02:17:42.000   28 35 34.11482  -17 55 01.60088    73.3240   6   7   0.0108   0.0271   0.0496   0.0125  -0.0301  -0.0171   0.00    0.0
2021/10/16 02:18:12.000   28 35 34.11483  -17 55 01.60087    73.3239   6   7   0.0108   0.0271   0.0496   0.0125  -0.0301  -0.0171   0.00    0.0
2021/10/16 02:18:42.000   28 35 34.11482  -17 55 01.60086    73.3243   6   7   0.0108   0.0271   0.0495   0.0125  -0.0301  -0.0171   0.00    0.0
2021/10/16 02:19:12.000   28 35 34.11483  -17 55 01.60084    73.3248   6   7   0.0107   0.0271   0.0492   0.0125  -0.0301  -0.0170   0.00    0.0
2021/10/16 02:19:42.000   28 35 34.11485  -17 55 01.60082    73.3198   6   7   0.0106   0.0270   0.0484   0.0125  -0.0300  -0.0169   0.00    0.0
2021/10/16 02:20:12.000   28 35 34.11484  -17 55 01.60082    73.3147   6   7   0.0106   0.0270   0.0482   0.0125  -0.0299  -0.0168   0.00    0.0
2021/10/16 02:20:42.000   28 35 34.11483  -17 55 01.60081    73.3127   6   7   0.0106   0.0269   0.0482   0.0125  -0.0299  -0.0168   0.00    0.0
2021/10/16 02:21:12.000   28 35 34.11483  -17 55 01.60081    73.3125   6   7   0.0106   0.0269   0.0481   0.0125  -0.0299  -0.0168   0.00    0.0
2021/10/16 02:21:42.000   28 35 34.11483  -17 55 01.60081    73.3127   6   7   0.0106   0.0269   0.0481   0.0125  -0.0299  -0.0168   0.00    0.0
2021/10/16 02:22:12.000   28 35 34.11483  -17 55 01.60080    73.3124   6   7   0.0105   0.0269   0.0481   0.0125  -0.0299  -0.0168   0.00    0.0
2021/10/16 02:22:42.000   28 35 34.11483  -17 55 01.60079    73.3122   6   7   0.0105   0.0269   0.0481   0.0125  -0.0299  -0.0168   0.00    0.0
2021/10/16 02:23:12.000   28 35 34.11483  -17 55 01.60078    73.3125   6   8   0.0105   0.0269   0.0480   0.0125  -0.0299  -0.0168   0.00    0.0
2021/10/16 02:23:42.000   28 35 34.11483  -17 55 01.60077    73.3147   6   8   0.0105   0.0269   0.0479   0.0125  -0.0298  -0.0168   0.00    0.0
2021/10/16 02:24:12.000   28 35 34.11483  -17 55 01.60077    73.3148   6   8   0.0105   0.0269   0.0477   0.0125  -0.0298  -0.0167   0.00    0.0
2021/10/16 02:24:42.000   28 35 34.11483  -17 55 01.60078    73.3145   6   8   0.0104   0.0268   0.0470   0.0125  -0.0297  -0.0165   0.00    0.0
2021/10/16 02:25:12.000   28 35 34.11483  -17 55 01.60079    73.3158   6   8   0.0103   0.0268   0.0468   0.0125  -0.0297  -0.0165   0.00    0.0
2021/10/16 02:25:42.000   28 35 34.11484  -17 55 01.60079    73.3164   6   8   0.0103   0.0268   0.0468   0.0125  -0.0297  -0.0165   0.00    0.0
2021/10/16 02:26:12.000   28 35 34.11484  -17 55 01.60078    73.3167   6   8   0.0103   0.0268   0.0467   0.0125  -0.0297  -0.0165   0.00    0.0
2021/10/16 02:26:42.000   28 35 34.11484  -17 55 01.60077    73.3162   6   8   0.0103   0.0268   0.0467   0.0125  -0.0297  -0.0165   0.00    0.0
2021/10/16 02:27:12.000   28 35 34.11484  -17 55 01.60076    73.3158   6   8   0.0103   0.0268   0.0467   0.0125  -0.0296  -0.0165   0.00    0.0
2021/10/16 02:27:42.000   28 35 34.11485  -17 55 01.60075    73.3153   6   8   0.0103   0.0267   0.0467   0.0125  -0.0296  -0.0164   0.00    0.0
2021/10/16 02:28:12.000   28 35 34.11485  -17 55 01.60074    73.3154   6   8   0.0103   0.0267   0.0466   0.0125  -0.0296  -0.0164   0.00    0.0
2021/10/16 02:28:42.000   28 35 34.11486  -17 55 01.60073    73.3149   6   8   0.0103   0.0267   0.0465   0.0125  -0.0296  -0.0164   0.00    0.0
2021/10/16 02:29:12.000   28 35 34.11486  -17 55 01.60072    73.3132   6   8   0.0102   0.0267   0.0463   0.0125  -0.0296  -0.0164   0.00    0.0
2021/10/16 02:29:42.000   28 35 34.11488  -17 55 01.60072    73.3103   6   8   0.0101   0.0267   0.0457   0.0125  -0.0295  -0.0162   0.00    0.0
2021/10/16 02:30:12.000   28 35 34.11488  -17 55 01.60070    73.3100   6   8   0.0101   0.0266   0.0456   0.0125  -0.0295  -0.0162   0.00    0.0
2021/10/16 02:30:42.000   28 35 34.11488  -17 55 01.60067    73.3091   6   8   0.0101   0.0266   0.0455   0.0125  -0.0294  -0.0161   0.00    0.0
2021/10/16 02:31:12.000   28 35 34.11488  -17 55 01.60066    73.3083   6   8   0.0101   0.0266   0.0455   0.0125  -0.0294  -0.0161   0.00    0.0
2021/10/16 02:31:42.000   28 35 34.11488  -17 55 01.60066    73.3078   6   8   0.0101   0.0266   0.0454   0.0125  -0.0294  -0.0161   0.00    0.0
2021/10/16 02:32:12.000   28 35 34.11488  -17 55 01.60065    73.3073   6   8   0.0101   0.0266   0.0454   0.0125  -0.0294  -0.0161   0.00    0.0
2021/10/16 02:32:42.000   28 35 34.11489  -17 55 01.60064    73.3067   6   8   0.0101   0.0266   0.0454   0.0125  -0.0294  -0.0161   0.00    0.0
2021/10/16 02:33:12.000   28 35 34.11489  -17 55 01.60062    73.3061   6   8   0.0100   0.0266   0.0454   0.0125  -0.0294  -0.0161   0.00    0.0
2021/10/16 02:33:42.000   28 35 34.11490  -17 55 01.60061    73.3047   6   8   0.0100   0.0266   0.0453   0.0125  -0.0294  -0.0161   0.00    0.0
2021/10/16 02:34:12.000   28 35 34.11490  -17 55 01.60061    73.3036   6   8   0.0100   0.0266   0.0451   0.0125  -0.0293  -0.0160   0.00    0.0
2021/10/16 02:34:42.000   28 35 34.11492  -17 55 01.60060    73.3016   6   8   0.0099   0.0265   0.0446   0.0125  -0.0292  -0.0159   0.00    0.0
2021/10/16 02:35:12.000   28 35 34.11493  -17 55 01.60059    73.3002   6   8   0.0099   0.0265   0.0444   0.0125  -0.0292  -0.0158   0.00    0.0
2021/10/16 02:35:42.000   28 35 34.11493  -17 55 01.60057    73.2983   6   8   0.0098   0.0265   0.0444   0.0125  -0.0292  -0.0158   0.00    0.0
2021/10/16 02:36:12.000   28 35 34.11493  -17 55 01.60056    73.2973   6   8   0.0098   0.0265   0.0443   0.0125  -0.0292  -0.0158   0.00    0.0
2021/10/16 02:36:42.000   28 35 34.11493  -17 55 01.60055    73.2965   6   8   0.0098   0.0265   0.0443   0.0125  -0.0292  -0.0158   0.00    0.0
2021/10/16 02:37:12.000   28 35 34.11493  -17 55 01.60054    73.2958   6   8   0.0098   0.0265   0.0443   0.0125  -0.0292  -0.0158   0.00    0.0
2021/10/16 02:37:42.000   28 35 34.11493  -17 55 01.60053    73.2953   6   8   0.0098   0.0265   0.0443   0.0125  -0.0292  -0.0158   0.00    0.0
2021/10/16 02:38:12.000   28 35 34.11493  -17 55 01.60052    73.2946   6   8   0.0098   0.0265   0.0442   0.0125  -0.0291  -0.0158   0.00    0.0
2021/10/16 02:38:42.000   28 35 34.11494  -17 55 01.60052    73.2934   6   8   0.0098   0.0265   0.0442   0.0124  -0.0291  -0.0157   0.00    0.0
2021/10/16 02:39:12.000   28 35 34.11496  -17 55 01.60050    73.2889   6   8   0.0098   0.0264   0.0440   0.0124  -0.0291  -0.0157   0.00    0.0
2021/10/16 02:39:42.000   28 35 34.11498  -17 55 01.60049    73.2895   6   8   0.0097   0.0264   0.0436   0.0124  -0.0290  -0.0155   0.00    0.0
2021/10/16 02:40:12.000   28 35 34.11496  -17 55 01.60050    73.2882   6   8   0.0096   0.0264   0.0434   0.0124  -0.0290  -0.0155   0.00    0.0
2021/10/16 02:40:42.000   28 35 34.11495  -17 55 01.60050    73.2872   6   8   0.0096   0.0264   0.0434   0.0124  -0.0290  -0.0155   0.00    0.0
2021/10/16 02:41:12.000   28 35 34.11496  -17 55 01.60050    73.2867   6   8   0.0096   0.0264   0.0433   0.0124  -0.0290  -0.0155   0.00    0.0
2021/10/16 02:41:42.000   28 35 34.11496  -17 55 01.60049    73.2863   6   8   0.0096   0.0264   0.0433   0.0124  -0.0290  -0.0155   0.00    0.0
2021/10/16 02:42:12.000   28 35 34.11496  -17 55 01.60048    73.2863   6   8   0.0096   0.0263   0.0433   0.0124  -0.0290  -0.0154   0.00    0.0
2021/10/16 02:42:42.000   28 35 34.11496  -17 55 01.60048    73.2864   6   8   0.0096   0.0263   0.0433   0.0124  -0.0289  -0.0154   0.00    0.0
2021/10/16 02:43:12.000   28 35 34.11496  -17 55 01.60047    73.2860   6   8   0.0096   0.0263   0.0433   0.0124  -0.0289  -0.0154   0.00    0.0
2021/10/16 02:43:42.000   28 35 34.11497  -17 55 01.60047    73.2861   6   8   0.0096   0.0263   0.0432   0.0124  -0.0289  -0.0154   0.00    0.0
2021/10/16 02:44:12.000   28 35 34.11497  -17 55 01.60047    73.2878   6   8   0.0095   0.0263   0.0431   0.0124  -0.0289  -0.0154   0.00    0.0
2021/10/16 02:44:42.000   28 35 34.11498  -17 55 01.60046    73.2891   6   8   0.0094   0.0263   0.0427   0.0123  -0.0288  -0.0152   0.00    0.0
2021/10/16 02:45:12.000   28 35 34.11498  -17 55 01.60045    73.2881   6   8   0.0094   0.0263   0.0426   0.0123  -0.0288  -0.0152   0.00    0.0
2021/10/16 02:45:42.000   28 35 34.11497  -17 55 01.60046    73.2899   6   8   0.0094   0.0262   0.0425   0.0123  -0.0288  -0.0152   0.00    0.0
2021/10/16 02:46:12.000   28 35 34.11497  -17 55 01.60046    73.2905   6   8   0.0094   0.0262   0.0425   0.0123  -0.0288  -0.0152   0.00    0.0
2021/10/16 02:46:42.000   28 35 34.11497  -17 55 01.60045    73.2905   6   8   0.0094   0.0262   0.0425   0.0123  -0.0288  -0.0151   0.00    0.0
2021/10/16 02:47:12.000   28 35 34.11497  -17 55 01.60045    73.2907   6   8   0.0094   0.0262   0.0425   0.0123  -0.0288  -0.0151   0.00    0.0
2021/10/16 02:47:42.000   28 35 34.11497  -17 55 01.60044    73.2908   6   8   0.0094   0.0262   0.0425   0.0123  -0.0287  -0.0151   0.00    0.0
2021/10/16 02:48:12.000   28 35 34.11496  -17 55 01.60043    73.2907   6   8   0.0094   0.0262   0.0424   0.0123  -0.0287  -0.0151   0.00    0.0
2021/10/16 02:48:42.000   28 35 34.11496  -17 55 01.60043    73.2917   6   8   0.0094   0.0262   0.0424   0.0123  -0.0287  -0.0151   0.00    0.0
2021/10/16 02:49:12.000   28 35 34.11495  -17 55 01.60043    73.2926   6   8   0.0093   0.0262   0.0423   0.0123  -0.0287  -0.0151   0.00    0.0
2021/10/16 02:49:42.000   28 35 34.11496  -17 55 01.60042    73.2910   6   8   0.0092   0.0261   0.0420   0.0122  -0.0286  -0.0149   0.00    0.0
2021/10/16 02:50:12.000   28 35 34.11496  -17 55 01.60041    73.2904   6   8   0.0092   0.0261   0.0419   0.0122  -0.0286  -0.0149   0.00    0.0
2021/10/16 02:50:42.000   28 35 34.11495  -17 55 01.60041    73.2901   6   8   0.0092   0.0261   0.0418   0.0122  -0.0286  -0.0149   0.00    0.0
2021/10/16 02:51:12.000   28 35 34.11494  -17 55 01.60041    73.2900   6   8   0.0092   0.0261   0.0418   0.0122  -0.0286  -0.0149   0.00    0.0
2021/10/16 02:51:42.000   28 35 34.11494  -17 55 01.60041    73.2896   6   8   0.0092   0.0261   0.0418   0.0122  -0.0286  -0.0149   0.00    0.0
2021/10/16 02:52:12.000   28 35 34.11494  -17 55 01.60041    73.2893   6   8   0.0092   0.0261   0.0418   0.0122  -0.0286  -0.0149   0.00    0.0
2021/10/16 02:52:42.000   28 35 34.11495  -17 55 01.60040    73.2888   6   8   0.0092   0.0261   0.0418   0.0122  -0.0285  -0.0148   0.00    0.0
2021/10/16 02:53:12.000   28 35 34.11495  -17 55 01.60038    73.2877   6   8   0.0092   0.0260   0.0417   0.0122  -0.0285  -0.0148   0.00    0.0
2021/10/16 02:53:42.000   28 35 34.11497  -17 55 01.60037    73.2864   6   8   0.0092   0.0260   0.0417   0.0122  -0.0285  -0.0148   0.00    0.0
2021/10/16 02:54:12.000   28 35 34.11501  -17 55 01.60032    73.2804   6   8   0.0091   0.0260   0.0416   0.0122  -0.0285  -0.0148   0.00    0.0
2021/10/16 02:54:42.000   28 35 34.11500  -17 55 01.60035    73.2814   6   8   0.0090   0.0259   0.0413   0.0121  -0.0284  -0.0146   0.00    0.0
2021/10/16 02:55:12.000   28 35 34.11500  -17 55 01.60035    73.2813   6   8   0.0090   0.0259   0.0412   0.0121  -0.0284  -0.0146   0.00    0.0
2021/10/16 02:55:42.000   28 35 34.11500  -17 55 01.60034    73.2812   6   8   0.0090   0.0259   0.0412   0.0121  -0.0284  -0.0146   0.00    0.0
2021/10/16 02:56:12.000   28 35 34.11500  -17 55 01.60034    73.2813   6   8   0.0090   0.0259   0.0412   0.0121  -0.0284  -0.0146   0.00    0.0
2021/10/16 02:56:42.000   28 35 34.11500  -17 55 01.60033    73.2808   6   8   0.0090   0.0259   0.0411   0.0121  -0.0284  -0.0146   0.00    0.0
2021/10/16 02:57:12.000   28 35 34.11500  -17 55 01.60032    73.2807   6   8   0.0090   0.0259   0.0411   0.0121  -0.0283  -0.0146   0.00    0.0
2021/10/16 02:57:42.000   28 35 34.11500  -17 55 01.60032    73.2808   6   8   0.0090   0.0259   0.0411   0.0121  -0.0283  -0.0146   0.00    0.0
2021/10/16 02:58:12.000   28 35 34.11500  -17 55 01.60031    73.2808   6   8   0.0090   0.0259   0.0411   0.0121  -0.0283  -0.0145   0.00    0.0
2021/10/16 02:58:42.000   28 35 34.11500  -17 55 01.60031    73.2817   6   8   0.0090   0.0258   0.0411   0.0120  -0.0283  -0.0145   0.00    0.0
2021/10/16 02:59:12.000   28 35 34.11499  -17 55 01.60031    73.2849   6   8   0.0089   0.0258   0.0409   0.0120  -0.0283  -0.0145   0.00    0.0
2021/10/16 02:59:42.000   28 35 34.11498  -17 55 01.60032    73.2850   6   9   0.0088   0.0257   0.0406   0.0119  -0.0282  -0.0143   0.00    0.0
2021/10/16 03:00:12.000   28 35 34.11497  -17 55 01.60034    73.2860   6   9   0.0088   0.0257   0.0406   0.0119  -0.0281  -0.0143   0.00    0.0
2021/10/16 03:00:42.000   28 35 34.11497  -17 55 01.60035    73.2866   6   9   0.0088   0.0257   0.0405   0.0119  -0.0281  -0.0143   0.00    0.0
2021/10/16 03:01:12.000   28 35 34.11497  -17 55 01.60036    73.2870   6   9   0.0088   0.0257   0.0405   0.0119  -0.0281  -0.0143   0.00    0.0
2021/10/16 03:01:42.000   28 35 34.11497  -17 55 01.60035    73.2870   6   9   0.0088   0.0257   0.0405   0.0119  -0.0281  -0.0143   0.00    0.0
2021/10/16 03:02:12.000   28 35 34.11497  -17 55 01.60033    73.2867   6   9   0.0088   0.0256   0.0405   0.0119  -0.0281  -0.0142   0.00    0.0
2021/10/16 03:02:42.000   28 35 34.11497  -17 55 01.60032    73.2863   6   9   0.0088   0.0256   0.0404   0.0119  -0.0281  -0.0142   0.00    0.0
2021/10/16 03:03:12.000   28 35 34.11497  -17 55 01.60033    73.2865   6   9   0.0088   0.0256   0.0404   0.0119  -0.0281  -0.0142   0.00    0.0
2021/10/16 03:03:42.000   28 35 34.11498  -17 55 01.60034    73.2871   6   9   0.0087   0.0256   0.0404   0.0119  -0.0280  -0.0142   0.00    0.0
2021/10/16 03:04:12.000   28 35 34.11497  -17 55 01.60035    73.2897   6   9   0.0087   0.0256   0.0402   0.0118  -0.0280  -0.0141   0.00    0.0
2021/10/16 03:04:42.000   28 35 34.11497  -17 55 01.60034    73.2904   6   9   0.0086   0.0254   0.0399   0.0117  -0.0278  -0.0140   0.00    0.0
2021/10/16 03:05:12.000   28 35 34.11497  -17 55 01.60033    73.2894   6   9   0.0086   0.0254   0.0398   0.0117  -0.0278  -0.0139   0.00    0.0
2021/10/16 03:05:42.000   28 35 34.11497  -17 55 01.60032    73.2894   6   9   0.0086   0.0254   0.0397   0.0117  -0.0277  -0.0139   0.00    0.0
2021/10/16 03:06:12.000   28 35 34.11497  -17 55 01.60031    73.2893   6   9   0.0086   0.0254   0.0397   0.0117  -0.0277  -0.0139   0.00    0.0
2021/10/16 03:06:42.000   28 35 34.11497  -17 55 01.60030    73.2889   6   9   0.0086   0.0253   0.0397   0.0117  -0.0277  -0.0139   0.00    0.0
2021/10/16 03:07:12.000   28 35 34.11497  -17 55 01.60029    73.2885   6   9   0.0086   0.0253   0.0396   0.0117  -0.0277  -0.0139   0.00    0.0
2021/10/16 03:07:42.000   28 35 34.11498  -17 55 01.60027    73.2879   6   9   0.0086   0.0253   0.0396   0.0117  -0.0277  -0.0139   0.00    0.0
2021/10/16 03:08:12.000   28 35 34.11498  -17 55 01.60025    73.2874   6   9   0.0085   0.0253   0.0396   0.0117  -0.0277  -0.0139   0.00    0.0
2021/10/16 03:08:42.000   28 35 34.11498  -17 55 01.60023    73.2865   6   9   0.0085   0.0253   0.0395   0.0116  -0.0276  -0.0138   0.00    0.0
2021/10/16 03:09:12.000   28 35 34.11500  -17 55 01.60021    73.2838   6   9   0.0085   0.0252   0.0394   0.0116  -0.0276  -0.0138   0.00    0.0
2021/10/16 03:09:42.000   28 35 34.11500  -17 55 01.60020    73.2836   6   8   0.0084   0.0251   0.0391   0.0115  -0.0274  -0.0137   0.00    0.0
2021/10/16 03:10:12.000   28 35 34.11500  -17 55 01.60020    73.2843   6   9   0.0084   0.0250   0.0390   0.0115  -0.0274  -0.0136   0.00    0.0
2021/10/16 03:10:42.000   28 35 34.11500  -17 55 01.60018    73.2836   6   9   0.0084   0.0250   0.0389   0.0115  -0.0273  -0.0136   0.00    0.0
2021/10/16 03:11:12.000   28 35 34.11500  -17 55 01.60017    73.2830   6   9   0.0084   0.0250   0.0389   0.0115  -0.0273  -0.0136   0.00    0.0
2021/10/16 03:11:42.000   28 35 34.11501  -17 55 01.60016    73.2827   6   9   0.0084   0.0250   0.0389   0.0115  -0.0273  -0.0136   0.00    0.0
2021/10/16 03:12:12.000   28 35 34.11501  -17 55 01.60015    73.2825   6   9   0.0084   0.0250   0.0389   0.0115  -0.0273  -0.0136   0.00    0.0
2021/10/16 03:12:42.000   28 35 34.11500  -17 55 01.60014    73.2827   6   8   0.0084   0.0250   0.0389   0.0115  -0.0273  -0.0136   0.00    0.0
2021/10/16 03:13:12.000   28 35 34.11500  -17 55 01.60015    73.2833   6   9   0.0084   0.0249   0.0388   0.0114  -0.0273  -0.0136   0.00    0.0
2021/10/16 03:13:42.000   28 35 34.11500  -17 55 01.60014    73.2833   6   9   0.0084   0.0249   0.0388   0.0114  -0.0273  -0.0136   0.00    0.0
2021/10/16 03:14:12.000   28 35 34.11500  -17 55 01.60012    73.2836   6   9   0.0083   0.0248   0.0386   0.0114  -0.0272  -0.0135   0.00    0.0
2021/10/16 03:14:42.000   28 35 34.11500  -17 55 01.60012    73.2839   6   9   0.0082   0.0246   0.0383   0.0113  -0.0270  -0.0134   0.00    0.0
2021/10/16 03:15:12.000   28 35 34.11501  -17 55 01.60011    73.2836   6   9   0.0082   0.0246   0.0381   0.0112  -0.0269  -0.0133   0.00    0.0
2021/10/16 03:15:42.000   28 35 34.11500  -17 55 01.60011    73.2846   6   9   0.0082   0.0246   0.0381   0.0112  -0.0269  -0.0133   0.00    0.0
2021/10/16 03:16:12.000   28 35 34.11500  -17 55 01.60010    73.2849   6   9   0.0082   0.0245   0.0381   0.0112  -0.0268  -0.0133   0.00    0.0
2021/10/16 03:16:42.000   28 35 34.11500  -17 55 01.60008    73.2843   6   9   0.0082   0.0245   0.0380   0.0112  -0.0268  -0.0133   0.00    0.0
2021/10/16 03:17:12.000   28 35 34.11501  -17 55 01.60007    73.2838   6   8   0.0082   0.0245   0.0380   0.0112  -0.0268  -0.0133   0.00    0.0
2021/10/16 03:17:42.000   28 35 34.11501  -17 55 01.60006    73.2834   6   8   0.0082   0.0245   0.0380   0.0112  -0.0268  -0.0133   0.00    0.0
2021/10/16 03:18:12.000   28 35 34.11501  -17 55 01.60003    73.2826   6   8   0.0082   0.0245   0.0380   0.0112  -0.0268  -0.0133   0.00    0.0
2021/10/16 03:18:42.000   28 35 34.11501  -17 55 01.60002    73.2827   6   8   0.0082   0.0245   0.0379   0.0112  -0.0267  -0.0133   0.00    0.0
2021/10/16 03:19:12.000   28 35 34.11501  -17 55 01.60000    73.2836   6   8   0.0082   0.0244   0.0377   0.0111  -0.0267  -0.0132   0.00    0.0
2021/10/16 03:19:42.000   28 35 34.11503  -17 55 01.60000    73.2842   6   8   0.0081   0.0241   0.0373   0.0110  -0.0264  -0.0130   0.00    0.0
2021/10/16 03:20:12.000   28 35 34.11504  -17 55 01.59998    73.2823   6   8   0.0080   0.0241   0.0371   0.0109  -0.0263  -0.0130   0.00    0.0
2021/10/16 03:20:42.000   28 35 34.11505  -17 55 01.59996    73.2810   6   8   0.0080   0.0240   0.0370   0.0109  -0.0262  -0.0129   0.00    0.0
2021/10/16 03:21:12.000   28 35 34.11506  -17 55 01.59994    73.2803   6   8   0.0080   0.0240   0.0370   0.0109  -0.0262  -0.0129   0.00    0.0
2021/10/16 03:21:42.000   28 35 34.11506  -17 55 01.59993    73.2801   6   8   0.0080   0.0240   0.0370   0.0109  -0.0262  -0.0129   0.00    0.0
2021/10/16 03:22:12.000   28 35 34.11506  -17 55 01.59991    73.2794   6   7   0.0080   0.0240   0.0370   0.0109  -0.0262  -0.0129   0.00    0.0
2021/10/16 03:22:42.000   28 35 34.11507  -17 55 01.59990    73.2788   6   7   0.0080   0.0240   0.0370   0.0109  -0.0262  -0.0129   0.00    0.0
2021/10/16 03:23:12.000   28 35 34.11507  -17 55 01.59989    73.2780   6   7   0.0080   0.0240   0.0369   0.0109  -0.0262  -0.0129   0.00    0.0
