     2.11           OBSERVATION DATA    M (MIXED)           RINEX VERSION / TYPE
teqc  2019Feb25                         20230504 17:05:29UTCPGM / RUN BY / DATE
Linux2.6.32-573.12.1.el6.x86_64|x86_64|gcc|Win64-MinGW64|=+ COMMENT
BIT 2 OF LLI FLAGS DATA COLLECTED UNDER A/S CONDITION       COMMENT
CVBB                                                        MARKER NAME
CVBB                                                        MARKER NUMBER
RFGH                SEGAL                                   OBSERVER / AGENCY
3055330             SEPT POLARX5        5.3.2               REC # / TYPE / VERS
1909270038          TWIVP6050_CONE  NONE                    ANT # / TYPE
  6378137.0000        0.0000        0.0000                  APPROX POSITION XYZ
        0.1190        0.0000        0.0000                  ANTENNA: DELTA H/E/N
     1     1                                                WAVELENGTH FACT L1/2
     7    L1    L2    C1    P1    P2    S1    S2            # / TYPES OF OBSERV
 SNR is mapped to RINEX snr flag value [0-9]                COMMENT
  L1 & L2: min(max(int(snr_dBHz/6), 0), 9)                  COMMENT
  2021    10    14    11     4   30.0000000     GPS         TIME OF FIRST OBS
    18                                                      LEAP SECONDS
                                                            END OF HEADER
 21 10 14 11  4 30.0000000  0 22G01G17S36G04G19G06G07G09G30S23S48E26
                                E07R05S25E13R20R19R21R04R06G02
 144197307.51716 112361564.28956  27439835.336    27439835.305    27439841.585
        37.000          36.000
 128045388.45218  99775626.33256  24366227.054    24366226.826    24366226.897
        48.250          41.500
 213183379.39517                  40567448.107
        46.500
 131005984.40517 102082588.19356  24929609.918    24929609.579    24929610.336
        46.000          37.000
 125924885.65418  98123277.93757  23962708.964    23962708.432    23962706.633
        48.250          42.000
 131482938.74117 102454244.41056  25020371.413    25020371.435    25020373.372
        46.500          39.250
 143565913.01116 111869558.44956  27319684.434    27319684.198    27319689.083
        40.250          38.750
 124530018.35618  97036384.19659  23697274.720    23697274.340    23697276.077
        51.250          56.000
 152544030.40715 118865517.10955  29028162.769    29028162.090    29028173.322
        35.750          31.250
 221994730.37117                  42244192.867
        43.250
  48767660.04117                   9280181.652
        44.000
 138995896.26318                  26450039.661
        48.750
 142622989.94018                  27140252.451
        49.000
 123496141.34818                  23102506.918
        52.750
 208694239.09118                  39713204.014
        48.500
 148772611.78317                  28310486.820
        45.750
 121922877.00116                  22800192.076
        41.250
 130202873.25916                  24340052.257
        41.000
 143298821.25717                  26778810.046
        45.250
 139844881.27717                  26115045.230
        46.500
 131905585.48616                  24719048.514
        40.250
 151528426.71616                  28834901.189
        37.750
 21 10 14 11  5  0.0000000  0 23G01G17S36G04G19G06G07G28G09G30S23S48
                                E26E07R05S25E13R20R19R21R04R06G02
 126946010.534 6  98918994.84745  24157022.341    24157022.243    24157029.736
        37.000          35.000
 110767112.970 8  86312035.01046  21078280.682    21078280.365    21078280.238
        48.500          41.250
 195851449.221 7                  37269290.485
        46.500
 113736644.060 7  88625959.33546  21643363.710    21643363.406    21643364.025
        46.250          36.750
 108610822.444 8  84631800.09246  20667952.301    20667951.260    20667949.908
        48.500          41.750
 114084190.045 7  88896777.89946  21709499.915    21709499.871    21709502.199
        47.250          39.500
 126160620.204 6  98306992.78346  24007567.515    24007567.194    24007572.142
        40.750          38.750
 132048718.23615 102895127.30753  25128035.966    25128036.404    25128040.866
        32.750          20.000
 107191966.177 8  83526213.66449  20397953.140    20397952.702    20397954.291
        51.750          56.250
 135135488.812 5 105300419.64644  25715427.407    25715426.576    25715437.928
        32.750          27.250
 204662912.918 7                  38946056.499
        43.250
  31435475.988 7                   5981983.795
        43.750
 121640424.511 8                  23147403.215
        49.000
 125321817.081 8                  23847948.924
        49.250
 105913109.985 8                  19813237.203
        52.250
 191363322.594 8                  36415262.648
        48.250
 131489521.040 7                  25021624.003
        46.000
 104243660.218 6                  19494089.103
        41.000
 112648354.261 6                  21058420.267
        40.500
 125525664.985 7                  23457470.316
        44.250
 122290212.293 7                  22836834.054
        45.250
 114240576.024 6                  21408632.822
        39.750
 134112243.909 6 104503040.06253  25520711.554    25520710.884    25520709.631
        37.500          22.500
 21 10 14 11  5 30.0000000  0 24G01G17S36G04G19G06G07G09G30S23S48E26
                                E07R05S25E13R20R19R21R04R06G03E08G02
 127026806.190 5  98981952.12745  24172397.749    24172397.633    24172404.851
        35.500          34.250
 110821223.387 8  86354198.93546  21088577.636    21088577.315    21088577.196
        48.500          41.750
 195851446.052 7                  37269290.847
        46.750
 113799626.784 7  88675036.77046  21655349.114    21655348.833    21655349.110
        46.250          37.250
 108629315.465 8  84646210.21947  20671471.485    20671470.403    20671468.990
        48.250          42.000
 114017550.305 7  88844850.82646  21696818.543    21696818.503    21696821.129
        46.750          40.000
 126087273.255 6  98249839.48046  23993609.815    23993609.435    23993614.603
        40.500          39.250
 107186402.125 8  83521878.03649  20396894.145    20396893.707    20396895.433
        51.500          56.750
 135058662.756 5 105240555.11344  25700807.900    25700807.203    25700819.863
        35.000          29.000
 204663024.172 7                  38946076.706
        43.000
  31435222.780 7                   5981940.948
        43.750
 121617141.348 8                  23142972.532
        48.750
 125352859.794 8                  23853856.033
        48.750
 105961007.980 8                  19822197.504
        52.500
 191364339.369 8                  36415478.561
        48.250
 131538604.439 7                  25030964.295
        45.500
 104201824.064 6                  19486266.164
        40.750
 112737245.515 6                  21075038.552
        40.500
 125401710.463 7                  23434305.724
        42.250
 122396952.228 7                  22856767.836
        45.750
 114175628.342 6                  21396462.542
        40.000
 125444158.99216  97748709.93056  23871229.869    23871229.695    23871233.428
        37.000          37.250
 134000036.635 6                  25499359.477
        36.500
 134027930.521 6 104437341.36843  25504667.769    25504666.786    25504665.494
        37.750          23.250
 21 10 14 11  6  0.0000000  0 24G01G17S36G04G19G06G07G09G30S23S48E26
                                E07R05S25E13R20R19R21R04R06G03E08G02
 127107850.345 6  99045103.05145  24187820.025    24187819.905    24187827.343
        36.000          34.500
 110875864.317 8  86396776.24246  21098975.177    21098974.851    21098975.261
        48.250          41.500
 195851498.852 7                  37269300.810
        46.500
 113863079.900 7  88724480.73846  21667423.751    21667423.465    21667424.016
        45.750          36.750
 108648497.024 8  84661156.87047  20675121.573    20675120.482    20675118.970
        48.250          42.000
 113951123.888 7  88793089.98746  21684178.098    21684178.058    21684180.509
        46.750          39.750
 126013974.578 6  98192723.78646  23979661.091    23979660.711    23979666.020
        40.500          38.750
 107181450.247 8  83518019.42949  20395951.911    20395951.473    20395953.160
        51.500          56.500
 134981652.887 5 105180547.27444  25686153.597    25686152.900    25686165.104
        35.750          28.750
 204663191.775 7                  38946108.911
        43.250
  31435024.314 7                   5981911.162
        44.000
 121594166.326 8                  23138600.624
        49.000
 125384254.798 8                  23859830.342
        49.000
 106009370.298 8                  19831244.844
        52.250
 191365427.870 8                  36415707.257
        48.500
 131588006.577 7                  25040365.263
        45.750
 104160688.202 6                  19478573.618
        40.750
 112826721.650 6                  21091764.426
        40.750
 125277871.405 6                  23411163.533
        41.750
 122503716.910 7                  22876704.791
        45.250
 114111180.715 6                  21384385.572
        40.250
 125514156.288 6  97803253.21146  23884549.728    23884549.599    23884553.900
        38.500          38.500
 134079491.841 6                  25514479.557
        36.750
 133943583.527 6 104371616.48843  25488616.633    25488615.583    25488615.740
        37.000          23.250
 21 10 14 11  6 30.0000000  0 25G01G17S36G04G19G06G07G09G30E19S23S48
                                E26E07R05S25E13R20R19R21R04R06G03E08
                                G02
 127189083.398 6  99108401.15145  24203279.076    24203278.956    24203285.702
        36.500          34.750
 110930974.831 8  86439719.45946  21109462.538    21109462.217    21109462.553
        48.500          41.750
 195851549.875 7                  37269309.226
        46.500
 113926942.125 7  88774243.50346  21679576.236    21679575.955    21679576.495
        46.250          36.750
 108668307.173 8  84676593.33147  20678891.088    20678889.984    20678888.696
        48.500          42.000
 113884853.857 7  88741451.00046  21671567.371    21671567.331    21671569.496
        47.000          40.000
 125940668.398 6  98135602.25146  23965711.653    23965711.269    23965715.832
        40.500          39.000
 107177051.157 8  83514591.56949  20395114.936    20395114.498    20395116.081
        51.500          56.500
 134904402.091 5 105120351.77444  25671452.743    25671452.046    25671464.833
        35.250          28.500
 145504722.47015                  27688629.466
        31.750
 204663357.234 7                  38946140.463
        43.000
  31434823.930 7                   5981879.919
        43.750
 121571441.849 8                  23134276.226
        49.000
 125415941.783 8                  23865860.060
        49.000
 106058133.397 8                  19840366.938
        52.250
 191366518.372 8                  36415936.432
        48.250
 131637668.478 7                  25049815.392
        45.250
 104120195.664 6                  19471001.411
        41.000
 112916719.642 6                  21108588.871
        41.000
 125154091.056 7                  23388032.939
        43.000
 122610443.775 7                  22896635.646
        44.500
 114047173.629 6                  21372389.685
        40.000
 125584122.962 6  97857772.61546  23897864.783    23897864.645    23897868.259
        38.000          37.500
 134158984.003 6                  25529606.432
        37.000
 133859144.997 6 104305820.27643  25472548.283    25472547.233    25472547.702
        38.000          23.250
 21 10 14 11  7  0.0000000  0 25G01G17S36G04G19G06G07G09G30E19S23S48
                                E26E07R05S25E13R20R19R21R04R06G03E08
                                G02
 127270491.306 6  99171835.50745  24218770.915    24218770.795    24218778.283
        36.750          35.750
 110986539.287 8  86483016.39947  21120036.167    21120035.846    21120036.111
        48.250          42.000
 195851583.332 7                  37269317.167
        46.500
 113991197.535 7  88824312.64346  21691803.735    21691803.454    21691803.749
        46.250          37.000
 108688731.352 8  84692508.26047  20682777.968    20682776.860    20682775.354
        48.500          42.250
 113818728.748 7  88689924.94646  21658984.172    21658984.137    21658986.216
        47.000          40.250
 125867343.387 6  98078466.03846  23951758.542    23951758.158    23951762.416
        40.250          39.250
 107173190.825 8  83511583.52349  20394380.294    20394379.856    20394381.402
        51.250          56.750
 134826898.632 5 105059959.33645  25656704.644    25656703.902    25656715.651
        35.500          31.500
 145424450.383 5                  27673353.677
        33.250
 204663506.163 7                  38946169.229
        43.000
  31434611.244 7                   5981846.046
        44.000
 121548955.816 8                  23129997.267
        49.000
 125447905.909 8                  23871942.658
        48.750
 106107280.638 8                  19849561.142
        52.250
 191367606.771 8                  36416164.525
        48.250
 131687576.529 7                  25059312.767
        45.500
 104080335.515 6                  19463547.059
        41.250
 113007224.047 6                  21125507.634
        41.000
 125030359.451 7                  23364910.607
        44.500
 122717116.975 7                  22916556.185
        43.750
 113983593.501 6                  21360474.700
        40.250
 125654045.359 6  97912257.51246  23911169.928    23911169.803    23911174.260
        37.250          37.500
 134238498.135 6                  25544737.531
        36.500
 133774602.593 6 104239943.12643  25456459.903    25456458.853    25456458.983
        38.000          22.750
 21 10 14 11  7 30.0000000  0 25G01G17S36G04G19G06G07G09G30E19S23S48
                                E26E07R05S25E13R20R19R21R04R06G03E08
                                G02
 127352065.424 6  99235399.34645  24234293.914    24234293.803    24234300.850
        36.750          34.750
 111042547.370 7  86526659.02246  21130694.028    21130693.711    21130694.063
        47.750          41.750
 195851592.562 7                  37269317.954
        46.500
 114055835.756 7  88874680.07646  21704103.947    21704103.675    21704104.414
        45.500          37.000
 108709760.841 7  84708894.85947  20686779.631    20686778.514    20686777.206
        47.750          42.000
 113752742.647 7  88638507.21046  21646427.298    21646427.263    21646429.475
        46.500          40.250
 125793994.521 6  98021311.22846  23937800.173    23937799.793    23937804.805
        40.750          40.000
 107169860.795 8  83508988.69949  20393746.503    20393746.065    20393747.715
        51.000          56.750
 134749136.099 5 104999365.03144  25641907.067    25641906.339    25641918.341
        33.500          29.500
 145344278.595 5                  27658098.401
        32.500
 204663631.226 7                  38946193.988
        43.250
  31434376.072 7                   5981807.148
        44.000
 121526701.559 8                  23125762.401
        49.000
 125480137.862 8                  23878076.187
        49.000
 106156800.579 8                  19858824.822
        52.250
 191368672.954 8                  36416390.052
        48.250
 131737722.614 7                  25068855.277
        45.750
 104041103.505 6                  19456210.812
        41.250
 113098224.243 6                  21142519.565
        41.000
 124906671.849 7                  23341795.922
        45.250
 122823725.565 7                  22936464.353
        44.750
 113920432.433 6                  21348638.932
        40.500
 125723915.424 6  97966701.63746  23924466.305    23924466.189    23924469.749
        37.500          38.750
 134318024.775 6                  25559871.068
        37.250
 133689949.417 6 104173979.66443  25440351.176    25440350.161    25440348.917
        36.500          21.000
 21 10 14 11  8  0.0000000  0 25G01G17S36G04G19G06G07G09G30E19S23S48
                                E26E07R05S25E13R20R19R21R04R06G03E08
                                G02
 127433838.442 6  99299118.18445  24249855.455    24249855.353    24249862.069
        37.250          34.500
 111099030.584 8  86570671.87746  21141442.488    21141442.171    21141442.453
        48.000          41.250
 195851614.326 7                  37269321.125
        46.500
 114120887.703 7  88925369.89346  21716482.645    21716482.382    21716483.390
        45.250          36.750
 108731427.994 8  84725778.33747  20690902.854    20690901.732    20690900.342
        48.250          42.000
 113686930.868 7  88587225.31446  21633903.751    21633903.716    21633906.245
        47.000          40.500
 125720657.224 6  97964165.43746  23923844.672    23923844.297    23923849.202
        41.000          40.000
 107167093.791 8  83506832.60149  20393220.033    20393219.595    20393221.312
        51.250          56.750
 134671149.735 5 104938596.38244  25627067.698    25627066.996    25627078.769
        33.000          26.750
 145264241.335 5                  27642867.800
        31.250
 204663765.834 7                  38946218.926
        43.250
  31434150.534 7                   5981770.498
        43.750
 121504713.741 8                  23121578.326
        48.750
 125512669.517 8                  23884266.874
        49.000
 106206723.977 8                  19868163.726
        52.500
 191369756.259 8                  36416618.096
        48.250
 131788139.887 7                  25078449.624
        45.250
 104002535.647 6                  19448997.738
        41.250
 113189752.042 6                  21159630.292
        40.750
 124783065.591 7                  23318696.819
        44.000
 122930301.182 7                  22956366.890
        45.000
 113857724.431 6                  21336887.595
        40.250
 125793765.874 6  98021130.47246  23937758.560    23937758.462    23937761.741
        37.500          37.000
 134397595.752 6                  25575012.877
        37.250
 133605219.577 6 104107956.45643  25424227.798    25424226.792    25424225.216
        37.000          21.750
 21 10 14 11  8 30.0000000  0 25G01G17S36G04G19G06G07G09G30E19S23S48
                                E26E07R05S25E13R20R19R21R04R06G03E08
                                G02
 127515807.414 6  99362989.70345  24265453.655    24265453.548    24265461.262
        37.250          34.750
 111155984.472 8  86615051.48846  21152280.616    21152280.303    21152280.387
        48.500          41.250
 195851639.616 7                  37269326.106
        46.750
 114186348.506 7  88976378.29446  21728939.759    21728939.496    21728940.235
        46.000          37.000
 108753729.189 8  84743155.87547  20695146.651    20695145.520    20695144.202
        48.250          42.000
 113621293.087 7  88536079.00146  21621413.262    21621413.231    21621415.585
        47.250          40.500
 125647332.064 6  97907029.08946  23909891.003    23909890.623    23909895.495
        41.250          39.750
 107164886.881 8  83505112.94149  20392800.082    20392799.644    20392801.355
        51.500          56.750
 134592939.191 5 104877652.96344  25612185.154    25612184.461    25612195.045
        34.000          28.250
 145184337.313 5                  27627660.840
        32.250
 204663906.772 7                  38946245.130
        43.250
  31433931.475 7                   5981735.884
        43.750
 121482991.345 8                  23117444.805
        49.250
 125545497.139 8                  23890513.762
        49.000
 106257045.183 8                  19877577.835
        52.500
 191370857.487 8                  36416849.708
        48.500
 131838825.858 7                  25088094.676
        45.750
 103964632.712 6                  19441910.479
        41.250
 113281802.212 6                  21176836.731
        41.000
 124659542.020 7                  23295613.848
        43.500
 123036839.101 7                  22976261.670
        45.000
 113795467.381 6                  21325219.570
        40.750
 125863594.496 6  98075542.27246  23951046.795    23951046.697    23951049.995
        37.250          37.250
 134477207.247 6                  25590162.300
        38.000
 133520411.821 6 104041872.52943  25408089.541    25408088.549    25408087.304
        37.250          21.500
 21 10 14 11  9  0.0000000  0 25G01G17S36G04G19G06G07G09G30E19S23S48
                                E26E07R05S25E13R20R19R21R04R06G03E08
                                G02
 127597958.241 6  99427002.92545  24281086.469    24281086.358    24281094.739
        38.500          35.750
 111213393.365 8  86659785.64946  21163205.234    21163204.921    21163204.999
        48.250          41.250
 195851651.797 7                  37269330.081
        46.500
 114252202.270 7  89027692.90346  21741471.075    21741470.830    21741471.868
        46.000          37.000
 108776650.143 8  84761016.34147  20699508.361    20699507.230    20699506.060
        48.250          42.000
 113555817.867 7  88485059.35146  21608953.672    21608953.646    21608955.812
        47.000          40.500
 125574008.145 6  97849893.72046  23895938.053    23895937.664    23895942.137
        40.750          39.250
 107163226.011 8  83503818.76949  20392484.031    20392483.593    20392485.211
        51.500          56.750
 134514492.605 6 104816525.63444  25597256.391    25597255.681    25597267.383
        36.000          29.500
 145104554.062 5                  27612479.316
        32.500
 204664041.043 7                  38946270.211
        43.000
  31433706.608 7                   5981697.673
        44.000
 121461522.206 8                  23113359.321
        49.500
 125578605.899 8                  23896813.967
        49.250
 106307747.276 8                  19887062.581
        52.750
 191371964.225 8                  36417080.488
        48.500
 131889766.974 7                  25097788.543
        45.750
 103927383.794 6                  19434944.388
        41.750
 113374359.172 6                  21194140.320
        41.250
 124536090.851 7                  23272543.382
        42.250
 123143323.208 7                  22996147.951
        45.750
 113733647.600 6                  21313634.944
        41.000
 125933387.364 6  98129926.26346  23964327.683    23964327.590    23964331.156
        37.750          36.250
 134556844.333 6                  25605316.927
        38.250
 133435514.017 6 103975718.43343  25391933.861    25391932.855    25391932.253
        37.250          22.500
 21 10 14 11  9 30.0000000  0 26G01G17S36G04G19G06G07G09G30E19S23S48
                                E26E07R05S25E13R20R19R21R04R06G03E08
                                G20G02
 127680305.891 6  99491169.51745  24296757.299    24296757.192    24296765.544
        38.500          35.750
 111271270.975 8  86704885.03646  21174219.078    21174218.765    21174218.803
        48.000          41.250
 195851684.556 7                  37269335.461
        46.750
 114318462.218 7  89079324.01446  21754080.071    21754079.839    21754080.614
        45.750          36.750
 108800205.442 8  84779371.10047  20703990.877    20703989.742    20703988.603
        48.250          42.250
 113490522.923 7  88434180.17946  21596528.600    21596528.574    21596530.559
        47.250          40.750
 125500703.846 6  97792773.63746  23881988.589    23881988.200    23881992.490
        40.750          39.750
 107162126.191 8  83502961.77949  20392274.569    20392274.131    20392275.743
        51.250          56.500
 134435827.437 5 104755228.01745  25582286.924    25582286.187    25582298.179
        34.750          30.250
 145024908.342 5                  27597322.719
        31.750
 204664183.863 7                  38946297.904
        43.250
  31433492.915 7                   5981663.980
        44.000
 121440323.303 8                  23109325.290
        49.250
 125612010.006 8                  23903170.597
        49.000
 106358842.949 8                  19896621.326
        52.500
 191373082.417 8                  36417315.508
        48.250
 131940978.667 7                  25107533.943
        45.750
 103890808.099 7                  19428104.044
        42.000
 113467436.545 6                  21211539.882
        41.500
 124412731.423 7                  23249492.048
        44.500
 123249767.189 7                  23016024.604
        44.750
 113672281.242 6                  21302134.569
        41.500
 126003160.031 6  98184294.47446  23977605.041    23977604.965    23977608.499
        37.750          36.500
 134636521.188 6                  25620478.893
        37.750
 131758420.92516                  25072793.800
        36.000
 133350542.788 6 103909507.13543  25375764.455    25375763.472    25375762.781
        37.250          22.250
 21 10 14 11 10  0.0000000  0 26G01G17S36G04G19G06G07G09G30E19S23S48
                                E26E07R05S25E13R20R19R21R04R06G03E08
                                G20G02
 127762837.419 6  99555479.36945  24312463.019    24312462.912    24312471.162
        39.000          35.750
 111329602.665 8  86750338.25346  21185319.244    21185318.931    21185318.966
        48.000          41.000
 195851709.479 7                  37269339.928
        46.500
 114385113.622 7  89131260.16446  21766763.396    21766763.168    21766763.830
        46.000          37.000
 108824381.681 8  84798209.70647  20708591.571    20708590.427    20708589.120
        48.000          42.000
 113425398.022 7  88383433.51446  21584135.890    21584135.868    21584138.119
        47.500          41.000
 125427409.437 6  97735661.26446  23868040.960    23868040.580    23868044.855
        41.250          40.000
 107161574.505 8  83502531.91049  20392169.542    20392169.104    20392170.682
        51.500          56.500
 134356933.246 5 104693751.89244  25567273.307    25567272.574    25567285.144
        35.000          29.750
 144945388.789 5                  27582190.330
        31.750
 204664323.495 7                  38946324.135
        43.000
  31433278.532 7                   5981628.001
        43.750
 121419383.717 8                  23105340.526
        49.000
 125645695.808 8                  23909580.853
        49.000
 106410316.603 8                  19906250.445
        52.500
 191374200.108 8                  36417551.265
        48.250
 131992448.497 7                  25117328.234
        45.500
 103854895.782 6                  19421389.742
        41.500
 113561018.860 6                  21229034.935
        41.250
 124289455.081 7                  23226454.054
        45.750
 123356156.009 7                  23035891.564
        44.250
 113611355.915 6                  21290717.907
        41.000
 126072899.854 6  98238637.10146  23990876.007    23990875.931    23990879.877
        38.000          36.500
 134716224.198 6                  25635645.957
        38.000
 131692522.628 5 102617556.28453  25060253.095    25060253.002    25060255.126
        35.750          18.000
 133265487.186 6 103843230.07743  25359579.005    25359578.031    25359577.618
        37.500          22.750
 21 10 14 11 10 30.0000000  0 26G01G17S36G04G19G06G07G09G30E19S23S48
                                E26E07R05S25E13R20R19R21R04R06G03E08
                                G20G02
 127845557.851 6  99619936.41845  24328204.066    24328203.968    24328212.400
        39.750          35.250
 111388391.778 8  86796147.90246  21196506.292    21196505.984    21196506.264
        48.000          41.000
 195851737.926 7                  37269345.267
        46.250
 114452159.649 7  89183503.81146  21779521.785    21779521.557    21779522.161
        46.000          36.750
 108849183.082 8  84817535.45447  20713310.941    20713309.797    20713308.587
        48.000          42.000
 113360450.875 7  88332825.36046  21571776.834    21571776.812    21571779.216
        47.500          40.750
 125354133.323 6  97678563.13746  23854096.800    23854096.407    23854100.905
        41.250          40.000
 107161575.936 8  83502533.03749  20392170.128    20392169.690    20392171.093
        51.500          56.500
 134277817.711 5 104632103.28845  25552218.821    25552218.057    25552229.938
        34.750          30.000
 144866002.130 5                  27567083.812
        33.500
 204664465.448 7                  38946352.096
        42.750
  31433067.048 7                   5981592.224
        43.500
 121398710.327 8                  23101406.667
        49.000
 125679667.516 8                  23916045.514
        48.750
 106462170.719 8                  19915950.759
        52.750
 191375332.099 8                  36417788.901
        48.000
 132044181.922 7                  25127172.917
        45.250
 103819655.253 6                  19414798.422
        41.750
 113655109.530 6                  21246623.877
        41.250
 124166271.043 7                  23203434.484
        45.750
 123462493.271 7                  23055751.021
        45.750
 113550877.401 6                  21279384.198
        40.750
 126142612.476 6  98292958.53446  24004142.578    24004142.507    24004146.081
        37.000          36.000
 134795957.444 6                  25650818.845
        38.000
 131626649.102 6 102566226.26543  25047718.925    25047718.371    25047719.648
        36.500          20.000
 133180353.657 6 103776892.31243  25343377.995    25343377.016    25343377.126
        37.750          23.000
 21 10 14 11 11  0.0000000  0 26G01G17S36G04G19G06G07G09G30E19S23S48
                                E26E07R05S25E13R20R19R21R04R06G03E08
                                G20G02
 127928462.459 6  99684536.98745  24343981.093    24343981.000    24343988.902
        39.500          34.750
 111447632.100 8  86842309.14346  21207779.544    21207779.236    21207779.564
        48.000          41.250
 195851760.885 7                  37269349.381
        46.750
 114519593.761 7  89236049.85846  21792354.296    21792354.082    21792354.613
        45.750          36.500
 108874604.702 8  84837344.48647  20718148.397    20718147.248    20718146.189
        48.500          42.250
 113295679.507 7  88282354.17146  21559451.081    21559451.064    21559453.166
        47.250          40.750
 125280873.623 6  97621477.80546  23840155.584    23840155.195    23840160.376
        41.500          40.750
 107162125.717 8  83502961.45349  20392274.621    20392274.183    20392275.676
        51.500          56.750
 134198478.529 6 104570280.42845  25537121.659    25537120.850    25537132.484
        36.500          32.000
 144786745.252 5                  27552002.359
        32.750
 204664604.703 7                  38946378.483
        43.250
  31432855.737 7                   5981556.876
        44.000
 121378300.487 8                  23097522.716
        49.000
 125713919.664 8                  23922563.444
        48.750
 106514397.981 8                  19925720.796
        52.500
 191376475.671 8                  36418028.249
        48.250
 132096174.682 7                  25137066.854
        45.000
 103785085.365 6                  19408333.901
        41.750
 113749702.477 6                  21264307.204
        41.000
 124043178.816 7                  23180431.990
        44.750
 123568772.556 7                  23075597.049
        45.250
 113490841.447 6                  21268133.457
        40.750
 126212293.639 6  98347255.44046  24017402.234    24017402.154    24017405.967
        37.750          36.000
 134875715.463 6                  25665996.335
        37.000
 131560795.707 6 102514911.97143  25035186.945    25035186.235    25035188.078
        37.250          19.250
 133095139.414 6 103710491.63143  25327162.411    25327161.432    25327160.993
        37.500          23.750
 21 10 14 11 11 30.0000000  0 26G01G17S36G04G19G06G07G09G30E19S23S48
                                E26E07R05S25E13R20R19R21R04R06G03E08
                                G20G02
 128011550.315 6  99749280.31345  24359792.447    24359792.358    24359799.933
        40.250          35.250
 111507321.371 8  86888820.20746  21219138.041    21219137.733    21219138.183
        48.250          41.250
 195851781.360 7                  37269352.784
        46.750
 114587413.240 7  89288896.18646  21805259.836    21805259.622    21805260.074
        46.000          36.250
 108900645.041 8  84857635.63847  20723103.963    20723102.810    20723101.588
        48.250          42.250
 113231085.769 7  88232021.40046  21547159.367    21547159.350    21547161.172
        47.500          40.750
 125207632.780 6  97564407.16746  23826218.421    23826218.050    23826222.601
        41.500          40.250
 107163222.914 8  83503816.42649  20392483.265    20392482.827    20392484.411
        51.500          56.750
 134118917.439 5 104508284.65445  25521980.934    25521980.112    25521993.318
        35.000          31.500
 144707618.977 5                  27536944.680
        32.750
 204664742.719 7                  38946404.677
        43.500
  31432642.462 7                   5981521.760
        44.000
 121358155.217 8                  23093689.226
        49.250
 125748450.629 8                  23929134.467
        49.000
 106566994.820 8                  19935560.120
        52.500
 191379219.334 8                  36418267.065
        48.500
 132148426.395 7                  25147009.865
        45.000
 103751188.591 6                  19401995.000
        41.500
 113844794.737 6                  21282083.255
        41.000
 123920181.797 7                  23157446.391
        43.250
 123674991.385 7                  23095432.796
        44.250
 113431248.126 6                  21256965.368
        41.250
 126281942.812 6  98401527.42745  24030656.462    24030656.395    24030659.767
        37.250          35.250
 134955496.652 6                  25681178.446
        38.750
 131494962.062 6 102463613.02143  25022659.306    25022658.582    25022659.919
        37.250          19.000
 133009845.103 6 103644028.58043  25310930.937    25310929.967    25310929.656
        37.750          23.500
 21 10 14 11 12  0.0000000  0 26G01G17S36G04G19G06G07G09G30E19S23S48
                                E26E07R05S25E13R20R19R21R04R06G03E08
                                G20G02
 128094827.765 6  99814171.39045  24375639.714    24375639.621    24375647.448
        40.500          35.000
 111567464.268 8  86935684.74446  21230582.889    21230582.581    21230582.957
        48.000          41.250
 195851806.709 7                  37269358.396
        46.750
 114655622.675 7  89342046.38646  21818239.701    21818239.500    21818239.996
        46.000          36.500
 108927309.983 8  84878413.49247  20728177.960    20728176.807    20728175.694
        48.500          42.250
 113166678.767 7  88181834.13746  21534903.105    21534903.083    21534905.362
        47.500          41.250
 125134420.554 6  97507358.82946  23812286.610    23812286.235    23812290.268
        41.500          40.000
 107164873.844 8  83505102.87649  20392797.518    20392797.080    20392798.561
        51.500          56.750
 134039143.274 5 104446122.83544  25506800.806    25506799.979    25506812.826
        32.750          29.500
 144628631.331 5                  27521913.714
        34.500
 204664886.330 7                  38946432.500
        43.250
  31432435.222 7                   5981486.881
        44.000
 121338282.892 8                  23089907.701
        49.000
 125783266.029 8                  23935759.609
        49.000
 106619965.497 8                  19945469.589
        52.500
 191380379.759 8                  36418510.374
        48.250
 132200943.891 7                  25157003.694
        45.250
 103717975.033 6                  19395784.049
        41.750
 113940390.672 6                  21299955.521
        41.000
 123797290.589 7                  23134480.785
        42.000
 123781154.489 7                  23115257.895
        44.500
 113372104.461 6                  21245881.687
        40.750
 126351566.939 6  98455779.89946  24043904.683    24043904.607    24043908.500
        37.750          36.000
 135035306.605 6                  25696365.666
        38.000
 131429154.654 6 102412334.51943  25010136.614    25010135.836    25010136.631
        36.000          19.000
 132924479.046 6 103577509.60043  25294687.008    25294686.061    25294684.774
        37.500          22.500
 21 10 14 11 12 30.0000000  0 26G01G17S36G04G19G06G07G09G30E19S23S48
                                E26E07R05S25E13R20R19R21R04R06G03E08
                                G20G02
 128178291.812 6  99879207.84446  24391523.053    24391522.964    24391531.081
        40.500          36.000
 111628056.327 8  86982899.27946  21242113.158    21242112.845    21242113.049
        48.000          41.000
 195851833.155 7                  37269364.312
        46.750
 114724217.223 7  89395496.66746  21831292.498    21831292.297    21831293.118
        45.750          36.250
 108954595.766 8  84899675.11747  20733370.213    20733369.064    20733367.901
        48.500          42.250
 113102458.269 7  88131792.20446  21522682.469    21522682.447    21522684.364
        47.500          41.000
 125061237.343 6  97450333.10746  23798360.132    23798359.743    23798363.838
        41.000          40.000
 107167075.420 8  83506818.40349  20393216.369    20393215.931    20393217.458
        51.250          56.500
 133959155.651 5 104383794.72544  25491580.330    25491579.459    25491591.646
        34.750          29.000
 144549781.039 5                  27506909.754
        34.750
 204665031.402 7                  38946459.875
        43.750
  31432231.490 7                   5981452.611
        44.000
 121318682.487 8                  23086177.808
        49.250
 125818362.083 8                  23942438.178
        49.000
 106673304.087 8                  19955447.847
        52.500
 191381543.408 8                  36418754.284
        48.500
 132253724.611 7                  25167047.933
        45.000
 103685444.966 6                  19389701.067
        41.250
 114036485.604 6                  21317918.288
        41.000
 123674506.789 7                  23111536.078
        45.000
 123887257.429 7                  23135072.101
        43.500
 113313408.072 6                  21234881.973
        41.000
 126421163.591 6  98510010.96746  24057149.257    24057149.186    24057152.789
        38.250          36.500
 135115141.501 6                  25711557.523
        37.250
 131363370.803 5 102361074.40343  24997618.412    24997617.594    24997619.388
        35.250          18.250
 132839040.255 6 103510933.95043  25278428.574    25278427.640    25278426.554
        37.500          23.000
 21 10 14 11 13  0.0000000  0 26G01G17S36G04G19G06G07G09G30E19S23S48
                                E26E07R05S25E13R20R19R21R04R06G03E08
                                G20G02
 128261935.260 6  99944384.09846  24407439.908    24407439.824    24407449.257
        40.250          36.500
 111689088.775 8  87030456.97046  21253727.326    21253727.009    21253727.195
        48.000          41.000
 195851857.762 7                  37269368.801
        46.500
 114793187.934 7  89449240.06346  21844417.581    21844417.385    21844417.916
        45.500          36.250
 108982494.786 8  84921414.58947  20738679.554    20738678.405    20738676.907
        48.250          42.250
 113038419.878 7  88081892.17346  21510496.276    21510496.259    21510498.177
        47.250          40.750
 124988079.492 6  97393327.14746  23784438.334    23784437.937    23784442.474
        41.000          40.000
 107169820.407 8  83508957.36849  20393738.697    20393738.259    20393739.851
        51.500          56.500
 133878950.044 5 104321296.72445  25476317.689    25476316.831    25476329.126
        35.500          32.000
 144471062.612 5                  27491929.122
        33.500
 204665172.558 7                  38946487.474
        43.000
  31432025.207 7                   5981417.280
        43.750
 121299348.860 8                  23082498.834
        49.000
 125853730.927 8                  23949168.552
        48.750
 106727000.853 8                  19965492.788
        52.250
 191382721.289 8                  36419000.652
        48.250
 132306761.894 7                  25177140.392
        45.000
 103653594.357 6                  19383744.906
        41.500
 114133070.461 6                  21335974.829
        41.500
 123551827.422 7                  23088611.366
        46.500
 123993291.338 7                  23154873.041
        44.250
 113255152.447 6                  21223965.526
        41.000
 126490726.029 6  98564215.37546  24070386.381    24070386.314    24070390.285
        37.750          36.000
 135194993.509 6                  25726753.045
        38.250
 131297603.511 6 102309827.18143  24985103.437    24985102.637    24985104.036
        37.000          20.000
 132753523.486 6 103444297.53243  25262154.805    25262153.844    25262153.268
        38.250          23.500
 21 10 14 11 13 30.0000000  0 26G01G17S36G04G19G06G07G09G30E19S23S48
                                E26E07R05S25E13R20R19R21R04R06G03E08
                                G20G02
 128345762.056 6 100009703.21846  24423392.267    24423392.178    24423401.176
        40.750          36.250
 111750564.111 8  87078359.77046  21265425.704    21265425.387    21265425.670
        48.000          40.750
 195851881.903 7                  37269372.982
        46.500
 114862536.980 7  89503278.26946  21857614.047    21857613.851    21857614.591
        45.500          36.000
 109011010.341 8  84943634.47647  20744105.821    20744104.672    20744103.440
        48.250          42.000
 112974570.384 7  88032139.33046  21498346.104    21498346.078    21498347.974
        47.500          40.500
 124914954.104 6  97336346.47546  23770522.696    23770522.290    23770526.928
        41.500          39.500
 107173112.642 8  83511522.75949  20394365.215    20394364.777    20394366.312
        51.500          56.500
 133798532.947 5 104258633.90645  25461015.142    25461014.306    25461026.371
        34.250          31.500
 144392481.688 5                  27476975.868
        34.250
 204665314.435 7                  38946512.497
        43.000
  31431818.696 7                   5981383.842
        43.500
 121280287.931 8                  23078871.555
        48.750
 125889375.771 8                  23955951.580
        48.750
 106781057.332 8                  19975605.369
        52.750
 191383905.021 8                  36419247.633
        48.250
 132360060.125 7                  25187282.742
        44.750
 103622430.766 6                  19377916.949
        41.500
 114230147.691 6                  21354122.134
        41.000
 123429260.860 7                  23065706.502
        46.000
 124099258.758 7                  23174662.505
        44.250
 113197342.309 6                  21213131.436
        41.500
 126560258.817 6  98618396.65646  24083618.151    24083618.093    24083621.870
        37.500          36.750
 135274865.866 6                  25741952.054
        37.750
 131231857.238 6 102258596.36243  24972593.154    24972592.314    24972593.201
        37.750          20.500
 132667934.450 6 103377604.79043  25245868.385    25245867.433    25245866.049
        38.500          23.500
 21 10 14 11 14  0.0000000  0 26G01G17S36G04G19G06G07G09G30E19S23S48
                                E26E07R05S25E13R20R19R21R04R06G03E08
                                G20G02
 128429777.262 6 100075169.13445  24439380.629    24439380.540    24439388.697
        39.750          35.500
 111812485.860 8  87126610.42446  21277209.133    21277208.820    21277209.004
        48.000          40.750
 195851917.250 7                  37269378.594
        46.750
 114932267.616 7  89557613.81346  21870883.477    21870883.276    21870883.813
        45.750          36.000
 109040147.169 8  84966338.46747  20749650.328    20749649.175    20749648.257
        48.250          42.250
 112910917.698 7  87982539.83746  21486233.473    21486233.451    21486235.382
        47.250          41.000
 124841869.516 6  97279397.59846  23756615.249    23756614.847    23756619.305
        40.750          39.750
 107176957.126 8  83514518.46949  20395096.865    20395096.427    20395097.932
        51.250          56.500
 133717912.150 6 104195812.38345  25445672.250    25445671.432    25445684.471
        36.250          31.250
 144314045.063 5                  27462050.227
        33.500
 204665463.090 7                  38946541.473
        43.250
  31431620.772 7                   5981349.951
        44.000
 121261506.742 8                  23075297.606
        48.750
 125925300.965 8                  23962787.962
        48.750
 106835476.098 8                  19985785.379
        52.750
 191385110.391 8                  36419498.424
        48.500
 132413624.849 7                  25197476.055
        44.500
 103591962.760 6                  19372218.822
        41.500
 114327720.281 6                  21372361.623
        41.000
 123306816.713 7                  23042824.935
        45.000
 124205163.372 7                  23194439.914
        44.250
 113139983.418 6                  21202382.334
        41.250
 126629767.563 6  98672559.22346  24096845.582    24096845.529    24096849.524
        37.000          36.250
 135354763.021 6                  25757156.182
        37.000
 131166137.194 6 102207385.93743  24960086.320    24960085.475    24960086.314
        36.000          19.000
 132582279.986 6 103310861.05344  25229568.490    25229567.547    25229566.337
        38.000          24.000
 21 10 14 11 14 30.0000000  0 26G01G17S36G04G19G06G07G09G30E19S23S48
                                E26E07R05S25E13R20R19R21R04R06G03E08
                                G20G02
 128513964.591 6 100140769.15145  24455401.026    24455400.933    24455409.010
        40.000          35.000
 111874835.561 7  87175194.54546  21289073.936    21289073.628    21289073.757
        47.750          40.750
 195851940.867 7                  37269384.179
        46.250
 115002361.737 7  89612232.57446  21884221.882    21884221.686    21884222.547
        45.250          36.500
 109069887.938 8  84989513.06247  20755309.977    20755308.824    20755307.833
        48.250          42.500
 112847448.289 7  87933083.16646  21474155.512    21474155.490    21474158.043
        47.000          41.000
 124768812.873 6  97222470.49946  23742713.461    23742713.064    23742716.923
        41.500          40.000
 107181337.396 8  83517931.67049  20395930.285    20395929.847    20395931.554
        51.250          56.500
 133637074.011 5 104132821.51145  25430289.523    25430288.705    25430301.642
        35.500          31.000
 144235738.107 5                  27447147.819
        33.750
 204665602.974 7                  38946567.529
        42.750
  31431416.297 7                   5981312.568
        43.500
 121242991.068 8                  23071774.232
        49.250
 125961489.477 8                  23969674.427
        49.000
 106890238.448 8                  19996029.688
        52.750
 191386313.697 8                  36419748.616
        48.000
 132467440.261 7                  25207716.506
        44.750
 103562177.121 6                  19366649.172
        41.500
 114425770.167 6                  21390691.320
        41.250
 123184482.696 7                  23019963.669
        42.750
 124310987.104 7                  23214200.605
        44.000
 113083059.885 6                  21191715.096
        41.000
 126699236.636 6  98726690.85546  24110065.051    24110065.007    24110068.933
        37.750          36.000
 135434667.951 6                  25772361.826
        38.500
 131100427.222 6 102156183.36743  24947582.170    24947581.272    24947582.110
        37.500          20.000
 132496545.833 6 103244055.22644  25213254.162    25213253.206    25213251.796
        37.750          24.250
 21 10 14 11 15  0.0000000  0 26G01G17S36G04G19G06G07G09G30E19S23S48
                                E26E07R05S25E13R20R19R21R04R06G03E08
                                G20G02
 128598332.889 6 100206510.17945  24471456.220    24471456.122    24471464.169
        40.250          35.500
 111937620.791 8  87224118.04146  21301021.627    21301021.319    21301021.391
        48.250          40.750
 195851958.845 7                  37269388.329
        46.250
 115072826.427 7  89667140.10546  21897630.720    21897630.524    21897631.508
        46.000          36.500
 109100240.982 8  85013164.75747  20761085.787    20761084.629    20761083.676
        48.250          42.250
 112784173.864 7  87883778.42646  21462114.839    21462114.817    21462117.274
        47.500          41.250
 124695796.548 6  97165574.81746  23728818.732    23728818.335    23728822.143
        41.250          39.750
 107186262.172 8  83521769.16149  20396867.532    20396867.094    20396868.686
        51.500          56.750
 133556030.067 5 104069670.24545  25414867.747    25414866.925    25414879.798
        35.250          31.500
 144157571.368 5                  27432273.538
        33.250
 204665743.495 7                  38946594.337
        43.000
  31431213.865 7                   5981278.884
        43.500
 121224751.727 8                  23068303.390
        48.750
 125997949.460 8                  23976612.609
        48.500
 106945350.801 8                  20006339.507
        52.250
 191387521.627 8                  36419999.733
        48.250
 132521515.685 7                  25218006.946
        44.750
 103533086.106 6                  19361209.182
        41.500
 114524303.895 6                  21409111.436
        40.750
 123062272.399 7                  22997126.505
        44.750
 124416737.687 7                  23233948.959
        43.000
 113026581.257 6                  21181131.401
        41.000
 126768675.404 6  98780798.88045  24123278.967    24123278.932    24123282.255
        37.000          35.250
 135514588.808 6                  25787570.320
        39.000
 131034736.843 6 102104996.11143  24935081.114    24935080.220    24935082.436
        36.000          19.000
 132410742.635 6 103177195.59744  25196926.038    25196925.077    25196924.136
        38.500          24.500
 21 10 14 11 15 30.0000000  0 26G01G17S36G04G19G06G07G09G30E19S23S48
                                E26E07R05S25E13R20R19R21R04R06G03E08
                                G20G02
 128682887.916 6 100272396.68446  24487546.338    24487546.240    24487555.509
        39.000          36.000
 112000845.947 8  87273384.33746  21313052.818    21313052.510    21313052.878
        48.000          40.750
 195851991.346 7                  37269393.449
        46.500
 115143665.699 7  89722339.52546  21911110.844    21911110.648    21911111.635
        45.500          36.000
 109131211.451 8  85037297.56447  20766979.266    20766978.108    20766977.028
        48.250          42.250
 112721103.114 7  87834632.38946  21450112.585    21450112.568    21450114.925
        47.500          41.250
 124622829.696 6  97108717.69646  23714932.992    23714932.577    23714936.928
        41.250          40.000
 107191737.123 8  83526035.35549  20397909.308    20397908.875    20397910.444
        51.250          56.750
 133474788.757 6 104006365.19845  25399408.978    25399408.191    25399419.829
        36.500          32.250
 144079552.406 5                  27417426.813
        34.000
 204665890.309 7                  38946622.821
        43.000
  31431019.488 7                   5981245.914
        43.750
 121206796.531 8                  23064886.734
        49.000
 126034685.979 8                  23983603.325
        49.000
 107000816.264 8                  20016715.999
        52.500
 191388745.760 8                  36420254.352
        48.250
 132575857.361 7                  25228348.072
        45.250
 103504698.881 6                  19355900.668
        41.500
 114623325.771 6                  21427622.383
        40.250
 122940196.406 7                  22974313.833
        46.250
 124522419.598 7                  23253684.523
        43.250
 112970554.233 6                  21170631.762
        41.500
 126838090.394 6  98834888.39545  24136488.043    24136487.999    24136491.777
        36.750          34.750
 135594530.703 6                  25802782.907
        39.250
 130969072.058 6 102053828.76343  24922586.448    24922585.532    24922586.630
        36.500          20.000
 132324878.338 6 103110288.36744  25180586.800    25180585.839    25180584.536
        38.000          24.000
 21 10 14 11 16  0.0000000  0 26G01G17S36G04G19G06G07G09G30E19S23S48
                                E26E07R05S25E13R20R19R21R04R06G03E08
                                G20G02
 128767622.231 6 100338422.90446  24503671.531    24503671.424    24503680.345
        39.250          36.750
 112064502.102 8  87322986.47546  21325166.413    21325166.114    21325166.360
        48.000          40.500
 195852024.665 7                  37269398.801
        46.750
 115214870.269 7  89777823.58546  21924660.988    21924660.792    21924661.841
        45.250          36.250
 109162791.349 8  85061905.25047  20772988.852    20772987.694    20772986.464
        48.250          42.000
 112658231.445 7  87785641.48246  21438148.716    21438148.699    21438150.786
        47.500          41.250
 124549908.127 6  97051895.85346  23701057.129    23701056.727    23701060.504
        41.500          40.500
 107197754.590 8  83530724.28649  20399054.382    20399053.949    20399055.524
        51.500          56.500
 133393345.300 6 103942902.63245  25383910.263    25383909.468    25383921.096
        36.500          32.000
 144001675.411 5                  27402607.740
        32.000
 204666037.536 7                  38946651.498
        43.500
  31430825.585 7                   5981212.713
        44.000
 121189120.028 8                  23061523.034
        49.000
 126071690.850 8                  23990645.081
        48.750
 107056625.104 8                  20027155.899
        52.500
 191389987.716 8                  36420511.323
        48.750
 132630458.296 7                  25238738.262
        45.000
 103477011.153 6                  19350722.315
        41.750
 114722826.278 6                  21446223.527
        40.250
 122818251.317 7                  22951525.780
        47.500
 124628023.716 7                  23273404.322
        44.250
 112914971.666 6                  21160214.606
        41.250
 126907474.687 6  98888953.97245  24149691.435    24149691.391    24149695.200
        36.750          34.500
 135674485.606 6                  25817997.593
        39.250
 130903425.656 6 102002675.75743  24910093.649    24910092.702    24910094.106
        36.250          20.000
 132238947.228 6 103043329.06143  25164234.449    25164233.466    25164232.094
        38.000          22.750
 21 10 14 11 16 30.0000000  0 26G01G17S36G04G19G06G07G09G30E19S23S48
                                E26E07R05S25E13R20R19R21R04R06G03E08
                                G20G02
 128852530.135 6 100404584.36246  24519829.603    24519829.487    24519838.549
        39.000          36.750
 112128581.717 8  87372918.57946  21337360.382    21337360.087    21337360.359
        48.250          40.500
 195852043.105 7                  37269405.066
        46.750
 115286432.692 7  89833586.49445  21938278.926    21938278.734    21938279.487
        45.750          35.750
 109194973.965 8  85086982.58347  20779113.107    20779111.949    20779110.620
        48.750          42.000
 112595556.065 7  87736803.53246  21426222.081    21426222.064    21426223.985
        47.750          41.000
 124477029.587 6  96995107.54346  23687188.139    23687187.742    23687192.035
        41.000          40.000
 107204308.755 8  83535831.42549  20400301.676    20400301.243    20400302.839
        51.750          56.500
 133311696.793 6 103879280.28245  25368373.129    25368372.307    25368385.298
        36.750          31.750
 143923936.449 5                  27387813.596
        31.000
 204666179.725 7                  38946677.464
        43.250
  31430628.127 7                   5981176.448
        44.000
 121171718.579 8                  23058211.553
        49.000
 126108957.735 8                  23997736.777
        48.500
 107112769.022 8                  20037658.889
        52.500
 191391225.576 8                  36420767.641
        48.500
 132685313.332 7                  25249176.780
        44.750
 103450020.313 6                  19345675.088
        41.500
 114822797.888 6                  21464911.877
        39.750
 122696436.062 7                  22928760.781
        46.250
 124733543.220 7                  23293110.196
        43.750
 112859828.546 6                  21149880.848
        41.500
 126976823.343 6  98942991.79145  24162888.157    24162888.108    24162891.951
        37.000          34.750
 135754447.194 6                  25833214.020
        38.250
 130837792.291 6 101951532.89143  24897604.308    24897603.369    24897604.207
        37.250          20.000
 132152945.739 6 102976314.93143  25147869.551    25147868.577    25147866.707
        38.250          23.000
 21 10 14 11 17  0.0000000  0 26G01G17S36G04G19G06G07G09G30E19S23S48
                                E26E07R05S25E13R20R19R21R04R06G03E08
                                G20G02
 128937612.319 6 100470881.62246  24536020.578    24536020.467    24536029.454
        38.500          37.000
 112193083.784 8  87423179.87046  21349634.784    21349634.494    21349634.703
        48.250          40.750
 195852067.283 7                  37269409.202
        46.500
 115358351.912 7  89889627.42545  21951964.628    21951964.436    21951965.090
        45.250          35.750
 109227759.357 8  85112529.61547  20785352.043    20785350.890    20785349.450
        48.500          42.250
 112533080.610 7  87688121.36746  21414333.449    21414333.432    21414335.474
        47.750          41.500
 124404198.337 6  96938356.07846  23673328.878    23673328.489    23673332.276
        41.000          39.750
 107211400.144 8  83541357.18149  20401651.152    20401650.719    20401652.312
        51.250          56.500
 133229846.760 6 103815500.89145  25352797.862    25352797.040    25352810.480
        37.000          33.250
 143846337.960 5                  27373047.318
        32.750
 204666319.001 7                  38946703.632
        43.000
  31430428.657 7                   5981141.368
        43.500
 121154594.898 8                  23054953.098
        49.250
 126146486.619 8                  24004878.275
        48.750
 107169246.424 8                  20048224.156
        52.500
 191392467.081 8                  36421025.103
        48.000
 132740423.611 7                  25259664.078
        45.000
 103423730.504 6                  19340758.389
        41.500
 114923239.024 6                  21483689.004
        39.000
 122574755.711 7                  22906021.096
        44.000
 124838977.086 7                  23312799.429
        44.500
 112805126.145 6                  21139630.363
        41.750
 127046137.612 6  98997002.83045  24176078.018    24176077.969    24176082.186
        36.000          34.250
 135834415.600 6                  25848431.651
        37.000
 130772173.185 6 101900401.16543  24885117.205    24885116.280    24885117.715
        37.000          20.500
 132066876.582 6 102909248.07044  25131490.526    25131489.565    25131488.249
        39.000          24.000
 21 10 14 11 17 30.0000000  0 26G01G17S36G04G19G06G07G09G30E19S23S48
                                E26E07R05S25E13R20R19R21R04R06G03E08
                                G20G02
 129022878.255 6 100537322.04446  24552246.277    24552246.161    24552256.149
