     2.11           OBSERVATION DATA    M (MIXED)           RINEX VERSION / TYPE
teqc  2019Feb25                         20230503 21:10:07UTCPGM / RUN BY / DATE
Linux2.6.32-573.12.1.el6.x86_64|x86_64|gcc|Win64-MinGW64|=+ COMMENT
BIT 2 OF LLI FLAGS DATA COLLECTED UNDER A/S CONDITION       COMMENT
CVBB                                                        MARKER NAME
CVBB                                                        MARKER NUMBER
RFGH                SEGAL                                   OBSERVER / AGENCY
3055330             SEPT POLARX5        5.3.2               REC # / TYPE / VERS
1909270038          TWIVP6050_CONE  NONE                    ANT # / TYPE
  6378137.0000        0.0000        0.0000                  APPROX POSITION XYZ
        0.1190        0.0000        0.0000                  ANTENNA: DELTA H/E/N
     1     1                                                WAVELENGTH FACT L1/2
     7    L1    L2    C1    P1    P2    S1    S2            # / TYPES OF OBSERV
 SNR is mapped to RINEX snr flag value [0-9]                COMMENT
  L1 & L2: min(max(int(snr_dBHz/6), 0), 9)                  COMMENT
  2021    11    12     9    47    0.0000000     GPS         TIME OF FIRST OBS
    18                                                      LEAP SECONDS
                                                            END OF HEADER
 21 11 12  9 47  0.0000000  0 17G17G02G04G19G06G07G20G09G11E09E11E04
                                S36S48E12S23S25
 110718470.97717  86274133.62256  21069024.571    21069024.821    21069024.356
        46.500          38.000
 122100969.02616  95143603.44454  23235041.534    23235041.578    23235039.700
        40.500          29.750
 114245703.30817  89022627.34855  21740234.529    21740234.453    21740234.748
        44.000          31.000
 106329741.30717  82854334.31156  20233877.088    20233877.401    20233874.584
        47.750          41.000
 103489450.27218  80641139.13657  19693387.646    19693387.481    19693389.743
        49.750          44.750
 114756524.91217  89420672.40357  21837440.816    21837440.829    21837441.581
        44.500          44.750
 121337995.09016                  23089852.438
        37.750
 102756756.08118  80070204.42159  19553960.429    19553960.616    19553961.663
        50.750          56.000
 115259302.04017  89812439.62955  21933115.828    21933115.712    21933115.210
        43.500          33.000
 120146226.29817                  22863066.740
        44.750
 112338280.14417                  21377263.896
        45.750
 118510641.23818                  22551825.365
        49.500
 190155243.80817                  36185340.751
        47.000
  25744001.36417                   4898922.093
        44.000
 112504897.62317                  21408970.101
        45.250
 198969624.39417                  37862659.354
        43.500
 175036799.19117                  33308373.449
        47.250
 21 11 12  9 47 30.0000000  0 23G17G02G04G19G06G07G20G09E09G30E11E04
                                S36S48E12R24S23S25R02R18R17R03R04
 115529017.040 7  90022611.01046  21984440.905    21984440.592    21984440.617
        46.000          36.500
 126739476.572 6  98758024.94144  24117719.770    24117718.943    24117717.880
        40.000          28.000
 119060310.661 7  92774269.41845  22656423.700    22656423.472    22656423.665
        42.750          30.750
 111120709.611 7  86587556.32846  21145568.001    21145567.116    21145565.849
        47.500          40.250
 108170343.275 8  84288588.21947  20584131.988    20584131.850    20584133.925
        49.750          44.000
 119416943.450 7  93052167.39247  22724289.054    22724288.603    22724289.347
        44.750          44.500
 125999198.611 6  98181195.40753  23976850.489    23976849.863    23976849.888
        37.500          21.000
 107519124.758 8  83781141.03849  20460208.969    20460208.585    20460210.128
        50.500          55.250
 124814002.860 7                  23751314.945
        44.500
 127041641.864 6  98993507.17056  24175221.000    24175220.419    24175225.826
        39.000          37.750
 117020545.724 7                  22268269.352
        45.500
 123246111.138 8                  23452955.310
        49.250
 194881511.255 7                  37084718.388
        47.000
  30469941.072 7                   5798255.466
        44.000
 117266757.768 7                  22315121.873
        45.000
 115380880.334 8                  21576807.093
        50.000
 203695950.984 7                  38762048.265
        43.500
 179765814.047 7                  34208083.830
        47.250
 108192975.580 8                  20275316.697
        50.750
 111546508.511 8                  20896419.240
        49.000
 101154136.159 8                  18903068.378
        53.250
 108602928.730 8                  20287939.047
        51.500
 126393093.374 7                  23603020.349
        42.750
 21 11 12  9 48  0.0000000  0 23G17G02G04G19G06G07G20G09E09G30E11E04
                                S36S48E12R24S23S25R02R18R17R03R04
 115613508.664 7  90088448.57446  22000518.891    22000518.529    22000518.774
        45.750          36.500
 126651662.701 6  98689598.59344  24101009.178    24101008.150    24101007.400
        40.000          27.500
 119148805.224 7  92843226.17245  22673263.282    22673263.108    22673263.975
        43.250          31.250
 111185829.326 7  86638298.92846  21157959.874    21157958.824    21157957.896
        47.500          40.250
 108125241.243 8  84253443.77847  20575549.352    20575549.223    20575551.294
        50.000          44.500
 119351230.677 7  93000962.66647  22711784.435    22711783.970    22711784.576
        45.250          45.000
 125934062.399 6  98130439.93243  23964455.066    23964454.132    23964454.559
        38.250          21.750
 107555619.240 8  83809578.29149  20467153.693    20467153.269    20467154.513
        50.750          55.250
 124755679.397 7                  23740216.192
        44.750
 126952036.628 6  98923684.95446  24158170.019    24158169.201    24158174.514
        39.500          38.000
 116976726.796 7                  22259930.850
        45.750
 123255540.267 8                  23454749.491
        49.500
 194881443.291 7                  37084705.935
        47.000
  30469552.140 7                   5798196.664
        44.000
 117302620.416 7                  22321946.435
        45.250
 115494889.080 8                  21598127.155
        49.750
 203695945.696 7                  38762049.459
        43.500
 179766901.210 7                  34208413.120
        47.250
 108258177.327 8                  20287535.508
        51.000
 111450346.290 8                  20878405.158
        49.250
 101167446.967 8                  18905556.171
        53.000
 108581550.128 8                  20283945.360
        51.750
 126311040.399 6                  23587697.196
        41.750
 21 11 12  9 48 30.0000000  0 24G17G02G04G19G06G07G20G09E09G30E11E04
                                E19S36S48E12R24S23S25R02R18R17R03R04
 115698270.485 7  90154496.67946  22016648.592    22016648.221    22016648.422
        45.500          36.250
 126563874.166 6  98621191.96644  24084304.106    24084303.074    24084301.633
        41.000          28.000
 119237511.714 7  92912348.07345  22690143.959    22690143.785    22690144.386
        42.750          31.000
 111251427.123 7  86689414.05646  21170442.708    21170441.622    21170440.703
        47.500          40.000
 108080486.954 8  84218570.30649  20567032.695    20567032.557    20567034.709
        50.250          55.000
 119285731.997 7  92949924.77247  22699320.457    22699319.988    22699320.684
        45.250          45.250
 125868928.862 6  98079686.55343  23952060.690    23952059.716    23952060.947
        38.000          22.500
 107592570.092 8  83838371.15249  20474185.231    20474184.807    20474186.202
        51.000          55.500
 124697598.235 7                  23729163.884
        44.500
 126862381.401 6  98853823.78546  24141108.947    24141108.107    24141113.405
        39.250          37.750
 116933165.519 7                  22251641.512
        45.250
 123265262.767 8                  23456599.677
        49.000
 136395452.33516                  25955191.213
        36.750
 194881380.875 7                  37084694.394
        46.500
  30469169.683 7                   5798139.535
        43.500
 117338818.125 7                  22328834.666
        44.750
 115609284.020 8                  21619519.422
        49.750
 203695947.172 7                  38762048.958
        43.000
 179769614.678 7                  34208745.460
        46.750
 108323567.784 8                  20299789.693
        50.750
 111354642.757 8                  20860476.711
        49.250
 101181562.893 8                  18908193.922
        52.750
 108560590.312 8                  20280029.903
        51.750
 126229271.000 7                  23572425.917
        42.000
 21 11 12  9 49  0.0000000  0 24G17G02G04G19G06G07G20G09E09G30E11E04
                                E19S36S48E12R24S23S25R02R18R17R03R04
 115783302.135 7  90220755.04246  22032829.457    22032829.086    22032829.337
        45.500          36.500
 126476115.223 6  98552808.40644  24067604.602    24067603.561    24067601.656
        41.750          28.250
 119326430.368 7  92981635.30045  22707064.716    22707064.524    22707065.010
        43.000          30.500
 111317503.241 7  86740901.91046  21183016.606    21183015.502    21183014.432
        47.500          40.250
 108036085.456 8  84183971.72849  20558583.440    20558583.302    20558585.028
        50.250          55.500
 119220452.922 7  92899057.99047  22686898.014    22686897.541    22686898.480
        45.250          46.000
 125803800.693 6  98028937.36443  23939667.074    23939666.055    23939667.488
        38.250          23.500
 107629978.188 8  83867520.31449  20481303.746    20481303.313    20481304.440
        50.750          55.750
 124639762.518 7                  23718158.019
        44.500
 126772681.496 6  98783927.80746  24124039.543    24124038.707    24124044.376
        39.750          39.000
 116889866.284 7                  22243401.795
        45.000
 123275280.329 8                  23458505.955
        49.000
 136467736.681 6                  25968946.466
        36.000
 194881324.084 7                  37084683.921
        46.750
  30468797.777 7                   5798083.729
        43.750
 117375353.654 7                  22335787.019
        45.000
 115724064.580 8                  21640984.788
        49.500
 203695959.262 7                  38762051.404
        43.250
 179770749.788 7                  34209080.465
        47.000
 108389147.538 8                  20312079.713
        51.000
 111259404.775 8                  20842635.454
        49.250
 101196486.784 8                  18910982.772
        52.750
 108540050.645 8                  20276192.769
        51.250
 126147788.926 6                  23557210.173
        41.750
 21 11 12  9 49 30.0000000  0 24G17G02G04G19G06G07G20G09E09G30E11E04
                                E19S36S48E12R24S23S25R02R18R17R03R04
 115868595.970 7  90287217.70646  22049060.289    22049059.918    22049060.267
        45.250          36.250
 126388382.678 7  98484445.38644  24050909.483    24050908.424    24050906.402
        42.750          28.750
 119415553.844 7  93051082.12945  22724024.089    22724023.888    22724024.274
        42.750          30.500
 111384049.605 7  86792756.18946  21195679.790    21195678.659    21195677.758
        47.500          40.250
 107992034.194 8  84149646.06549  20550200.874    20550200.736    20550202.399
        50.250          55.750
 119155391.220 7  92848360.58947  22674517.355    22674516.877    22674517.483
        45.750          46.000
 125738672.478 6  97978188.13043  23927273.310    23927272.251    23927273.889
        39.000          22.750
 107667836.605 8  83897020.37349  20488508.051    20488507.613    20488508.935
        50.750          56.000
 124582167.716 7                  23707198.104
        44.500
 126682934.606 6  98713995.21446  24106961.291    24106960.446    24106965.886
        39.250          38.250
 116846825.890 7                  22235211.636
        45.250
 123285587.053 8                  23460467.220
        49.000
 136540068.830 6                  25982711.080
        37.000
 194881276.445 7                  37084674.173
        47.000
  30468428.678 7                   5798029.466
        44.000
 117412222.115 7                  22342802.964
        45.000
 115839222.192 8                  21662519.323
        49.000
 203695973.292 7                  38762052.812
        43.250
 179771886.121 7                  34209418.189
        47.250
 108454908.592 8                  20324403.531
        51.500
 111164631.472 8                  20824881.058
        49.500
 101212214.017 8                  18913921.916
        52.500
 108519924.748 8                  20272433.100
        51.500
 126066589.620 7                  23542046.883
        42.250
 21 11 12  9 50  0.0000000  0 24G17G02G04G19G06G07G20G09E09G30E11E04
                                E19S36S48E12R24S23S25R02R18R17R03R04
 115954161.088 7  90353891.75346  22065343.032    22065342.670    22065342.729
        45.250          36.000
 126300690.340 7  98416113.68744  24034222.452    24034221.397    24034218.883
        43.750          29.500
 119504891.490 7  93120695.84445  22741024.407    22741024.215    22741024.859
        43.250          30.500
 111451075.725 8  86844984.30046  21208434.583    21208433.443    21208432.566
        48.000          40.500
 107948347.054 8  84115604.13349  20541887.520    20541887.377    20541889.125
        50.250          55.750
 119090561.429 7  92797843.89647  22662180.546    22662180.068    22662180.688
        45.750          46.000
 125673556.107 6  97927448.11643  23914882.529    23914881.447    23914881.852
        39.000          22.500
 107706155.293 8  83926879.08249  20495799.722    20495799.284    20495800.626
        50.750          55.750
 124524826.089 7                  23696286.293
        45.000
 126593155.185 6  98644037.27046  24089877.012    24089876.172    24089881.506
        40.000          39.000
 116804057.727 7                  22227073.272
        45.750
 123296193.763 8                  23462485.540
        49.250
 136612459.406 6                  25996486.381
        37.000
 194881243.678 7                  37084668.324
        46.750
  30468076.365 7                   5797977.367
        44.000
 117449435.385 7                  22349884.499
        45.500
 115954765.546 8                  21684127.186
        49.500
 203696001.905 7                  38762059.310
        43.250
 179774652.019 7                  34209760.755
        47.000
 108520860.492 8                  20336762.937
        51.250
 111070338.991 8                  20807217.208
        49.250
 101228756.773 8                  18917013.221
        52.500
 108500223.186 8                  20268752.530
        51.750
 125985685.899 7                  23526938.796
        42.500
 21 11 12  9 50 30.0000000  0 24G17G02G04G19G06G07G20G09E09G30E11E04
                                E19S36S48E12R24S23S25R02R18R17R03R04
 116040004.025 7  90420782.28246  22081678.278    22081677.916    22081678.210
        45.000          36.000
 126213049.704 7  98347822.28444  24017544.876    24017543.799    24017541.985
        42.250          28.750
 119594450.345 7  93190481.92745  22758067.149    22758066.939    22758067.702
        42.500          30.750
 111518588.118 7  86897591.32746  21221281.693    21221280.531    21221279.841
        47.500          40.250
 107905035.857 8  84081855.14149  20533645.699    20533645.556    20533647.263
        50.000          55.750
 119025975.704 7  92747517.38847  22649890.363    22649889.876    22649890.371
        45.250          45.750
 125608460.809 6  97876724.56243  23902495.388    23902494.275    23902494.871
        38.500          22.750
 107744941.763 8  83957102.29549  20503180.555    20503180.113    20503181.580
        50.500          55.750
 124467747.452 7                  23685424.510
        44.750
 126503355.267 6  98574063.37446  24072788.541    24072787.683    24072793.259
        39.250          38.250
 116761573.016 7                  22218988.506
        45.500
 123307108.877 8                  23464562.622
        49.000
 136684916.435 6                  26010274.372
        36.500
 194881231.022 7                  37084666.102
        47.000
  30467751.608 7                   5797930.048
        43.750
 117487002.922 7                  22357033.330
        45.000
 116070700.943 8                  21705807.232
        49.000
 203696056.847 7                  38762070.216
        43.250
 179775851.672 7                  34210109.515
        47.250
 108587009.853 8                  20349158.960
        51.500
 110976541.504 8                  20789645.793
        49.750
 101246124.843 8                  18920258.983
        52.500
 108480954.164 8                  20265152.980
        51.500
 125905087.638 7                  23511887.559
        42.500
 21 11 12  9 51  0.0000000  0 24G17G02G04G19G06G07G20G09E09G30E11E04
                                E19S36S48E12R24S23S25R02R18R17R03R04
 116126099.064 7  90487869.26046  22098061.580    22098061.214    22098061.721
        45.500          36.000
 126125440.075 7  98279555.04144  24000873.391    24000872.314    24000870.649
        42.000          29.500
 119684205.481 7  93260420.94645  22775146.903    22775146.698    22775147.932
        42.750          31.250
 111586561.409 7  86950557.49146  21234216.812    21234215.645    21234214.788
        47.500          40.250
 107862080.376 8  84048383.33249  20525471.371    20525471.228    20525473.106
        50.250          55.750
 118961614.523 7  92697365.84747  22637642.605    22637642.109    22637642.816
        45.250          46.000
 125543363.820 6  97825999.65943  23890107.569    23890106.429    23890107.471
        38.500          22.500
 107784171.742 8  83987671.10349  20510645.805    20510645.363    20510646.771
        50.750          55.750
 124410909.793 7                  23674608.897
        44.750
 126413515.121 6  98504058.11146  24055693.187    24055692.333    24055696.699
        40.250          38.250
 116719350.914 7                  22210953.894
        45.500
 123318308.878 8                  23466693.837
        49.000
 136757416.256 6                  26024070.800
        36.750
 194881229.661 7                  37084665.869
        46.750
  30467426.854 7                   5797883.695
        43.750
 117524902.295 7                  22364245.297
        45.000
 116187002.600 8                  21727556.466
        49.000
 203696115.163 7                  38762081.529
        43.000
 179778663.111 7                  34210458.682
        47.000
 108653331.880 8                  20361587.919
        51.250
 110883220.162 8                  20772163.607
        49.750
 101264295.493 8                  18923654.556
        52.250
 108462093.278 8                  20261629.574
        51.500
 125824772.681 7                  23496889.589
        43.000
 21 11 12  9 51 30.0000000  0 24G17G02G04G19G06G07G20G09E09G30E11E04
                                E19S36S48E12R24S23S25R02R18R17R03R04
 116212444.688 7  90555151.49446  22114492.785    22114492.419    22114493.011
        45.500          36.250
 126037864.407 6  98211314.28344  23984208.219    23984207.160    23984205.828
        40.750          29.250
 119774155.636 7  93330511.92345  22792264.133    22792263.932    22792265.008
        42.250          30.750
 111654994.022 7  87003881.57246  21247239.009    21247237.825    21247237.114
        47.500          40.000
 107819484.043 8  84015191.38449  20517365.521    20517365.378    20517367.485
        50.500          56.000
 118897481.569 7  92647392.14647  22625438.619    22625438.128    22625438.908
        45.000          46.000
 125478266.393 6  97775274.42843  23877720.102    23877718.967    23877719.091
        39.500          23.000
 107823844.282 8  84018584.76649  20518195.330    20518194.888    20518196.355
        51.000          55.750
 124354314.644 7                  23663838.925
        44.500
 126323638.474 6  98434024.40746  24038589.668    24038588.819    24038593.467
        39.000          37.500
 116677394.255 7                  22202969.785
        45.250
 123329793.914 8                  23468879.478
        49.000
 136829958.702 6                  26037875.544
        36.500
 194881229.045 7                  37084664.514
        46.750
  30467107.845 7                   5797837.745
        43.750
 117563134.642 7                  22371520.780
        45.000
 116303668.133 8                  21749373.419
        49.000
 203696176.268 7                  38762091.751
        43.000
 179779884.867 7                  34210810.625
        46.750
 108719824.980 8                  20374048.280
        51.000
 110790380.644 8                  20754771.398
        49.750
 101283269.872 8                  18927200.289
        52.250
 108443640.324 8                  20258182.158
        51.500
 125744742.433 6                  23481944.381
        41.750
 21 11 12  9 52  0.0000000  0 24G17G02G04G19G06G07G20G09E09G30E11E04
                                E19S36S48E12R24S23S25R02R18R17R03R04
 116299026.490 7  90622617.76546  22130968.763    22130968.401    22130969.156
        45.500          36.000
 125950313.245 6  98143092.61544  23967547.719    23967546.651    23967545.453
        40.500          29.000
 119864287.246 7  93400744.30344  22809415.045    22809414.840    22809415.679
        42.500          29.500
 111723871.720 7  87057552.46546  21260346.120    21260344.922    21260343.994
        47.250          39.750
 107777237.901 8  83982272.31349  20509326.251    20509326.104    20509328.219
        50.750          55.500
 118833568.231 7  92597589.58247  22613276.352    22613275.856    22613276.667
        45.500          45.750
 125413157.132 6  97724539.96243  23865330.114    23865328.983    23865328.918
        39.750          22.750
 107863946.311 8  84049833.09349  20525826.586    20525826.144    20525827.527
        51.000          55.500
 124297951.206 7                  23653113.396
        44.750
 126233716.847 6  98363955.66846  24021478.376    24021477.522    24021481.707
        39.500          37.500
 116635693.513 7                  22195034.441
        45.250
 123341551.797 8                  23471116.827
        49.000
 136902531.387 6                  26051685.352
        36.500
 194881217.449 7                  37084662.641
        46.750
  30466783.377 7                   5797791.339
        43.750
 117601688.816 7                  22378857.453
        44.750
 116420682.513 8                  21771255.499
        48.750
 203696229.967 7                  38762101.991
        43.000
 179781102.269 7                  34211162.077
        47.000
 108786474.870 8                  20386538.633
        51.000
 110698015.555 8                  20737468.215
        49.750
 101303036.758 8                  18930894.323
        52.500
 108425582.541 8                  20254809.074
        51.750
 125664986.354 7                  23467050.621
        42.500
 21 11 12  9 52 30.0000000  0 24G17G02G04G19G06G07G20G09E09G30E11E04
                                E19S36S48E12R24S23S25R02R18R17R03R04
 116385852.109 7  90690274.01946  22147491.267    22147490.910    22147491.676
        45.250          36.250
 125862799.160 6  98074899.87145  23950894.520    23950893.456    23950892.406
        41.000          30.500
 119954608.072 7  93471124.12745  22826602.945    22826602.731    22826603.130
        42.000          30.000
 111793202.037 7  87111576.05546  21273539.187    21273537.989    21273537.137
        47.500          40.000
 107735354.466 8  83949635.86449  20501356.357    20501356.214    20501357.950
        50.250          55.750
 118769887.450 7  92547968.22547  22601158.163    22601157.672    22601158.494
        45.500          46.250
 125348046.005 6  97673804.05943  23852939.880    23852938.736    23852939.183
        39.250          23.500
 107904486.098 8  84081422.53049  20533540.991    20533540.553    20533541.948
        50.750          56.000
 124241830.124 7                  23642433.818
        45.000
 126143763.127 6  98293861.90946  24004360.388    24004359.534    24004364.104
        40.000          38.000
 116594260.638 7                  22187149.935
        45.250
 123353591.729 8                  23473408.070
        49.250
 136975143.183 6                  26065503.058
        37.000
 194881210.096 7                  37084660.217
        47.000
  30466460.160 7                   5797743.622
        44.000
 117640575.033 7                  22386257.158
        45.250
 116538053.337 8                  21793204.883
        48.750
 203696288.563 7                  38762112.611
        43.250
 179783935.326 7                  34211516.135
        47.500
 108853289.305 8                  20399059.854
        51.500
 110606139.634 8                  20720256.888
        50.000
 101323606.574 8                  18934738.069
        52.500
 108407928.674 8                  20251511.659
        51.750
 125585515.055 7                  23452209.318
        43.250
 21 11 12  9 53  0.0000000  0 24G17G02G04G19G06G07G20G09E09G30E11E04
                                E19S36S48E12R24S23S25R02R18R17R03R04
 116472916.014 7  90758115.95046  22164059.133    22164058.771    22164059.498
        45.250          36.250
 125775321.441 6  98006735.44245  23934248.400    23934247.327    23934245.999
        41.250          31.250
 120045112.993 7  93541647.39045  22843825.877    22843825.654    22843826.085
        42.250          30.500
 111862979.160 7  87165947.80846  21286817.460    21286816.249    21286815.370
        47.000          39.750
 107693833.233 8  83917281.65349  20493455.101    20493454.958    20493456.772
        50.000          55.750
 118706439.457 7  92498528.25947  22589084.647    22589084.151    22589084.671
        45.500          46.500
 125282930.243 6  97623064.52043  23840548.845    23840547.687    23840548.509
        39.500          23.750
 107945458.914 8  84113349.38849  20541337.672    20541337.230    20541339.027
        50.250          55.750
 124185948.994 7                  23631800.086
        45.000
 126053777.206 6  98223743.06846  23987236.332    23987235.452    23987240.615
        39.500          38.250
 116553094.586 7                  22179316.390
        45.250
 123365909.950 8                  23475752.164
        49.250
 137047790.161 6                  26079327.620
        36.500
 194881202.828 7                  37084658.960
        47.000
  30466139.740 7                   5797697.305
        44.000
 117679790.521 7                  22393719.737
        45.000
 116655773.915 8                  21815219.064
        48.500
 203696346.380 7                  38762125.056
        43.500
 179785176.881 7                  34211871.544
        47.500
 108920262.858 8                  20411610.559
        51.250
 110514754.324 8                  20703137.458
        49.750
 101344976.353 8                  18938731.601
        52.500
 108390674.286 8                  20248288.126
        52.000
 125506326.501 7                  23437421.431
        42.500
 21 11 12  9 53 30.0000000  0 24G17G02G04G19G06G07G20G09E09G30E11E04
                                E19S36S48E12R24S23S25R02R18R17R03R04
 116560207.855 7  90826135.49346  22180670.331    22180669.960    22180670.619
        45.000          36.250
 125687874.294 7  97938594.84045  23917607.128    23917606.073    23917605.576
        42.500          32.000
 120135792.254 7  93612306.49345  22861081.301    22861081.073    22861082.108
        42.750          30.500
 111933193.910 7  87220660.56446  21300178.911    21300177.695    21300176.873
        47.000          39.750
 107652669.142 8  83885205.73049  20485621.783    20485621.636    20485623.562
        50.250          56.000
 118643219.758 7  92449266.18447  22577054.283    22577053.792    22577054.383
        45.250          46.500
 125217802.599 6  97572315.75243  23828155.762    23828154.609    23828155.694
        39.000          23.750
 107986855.485 8  84145606.44649  20549215.314    20549214.872    20549216.367
        50.000          55.500
 124130300.852 7                  23621210.635
        45.000
 125963754.499 6  98153595.55046  23970105.797    23970104.912    23970109.928
        39.500          38.750
 116512189.525 7                  22171532.520
        45.500
 123378498.129 8                  23478147.569
        49.250
 137120463.750 6                  26093156.938
        36.250
 194881188.832 7                  37084657.337
        46.750
  30465813.844 7                   5797649.204
        43.750
 117719327.935 7                  22401243.356
        45.000
 116773833.711 8                  21837296.813
        48.000
 203696395.623 7                  38762133.735
        43.000
 179788015.542 7                  34212227.901
        47.000
 108987386.198 8                  20424189.329
        51.000
 110423856.432 8                  20686109.345
        50.000
 101367138.548 8                  18942873.401
        52.500
 108373810.831 8                  20245137.870
        51.750
 125427413.486 7                  23422684.546
        42.500
 21 11 12  9 54  0.0000000  0 24G17G02G04G19G06G07G20G09E09G30E11E04
                                E19S36S48E12R24S23S25R02R18R17R03R04
 116647742.433 7  90894344.17546  22197327.426    22197327.051    22197328.008
        45.000          36.000
 125600477.630 7  97870493.54945  23900976.573    23900975.505    23900973.403
        42.750          30.250
 120226661.369 7  93683113.54244  22878373.244    22878373.016    22878373.939
        42.500          29.500
 112003860.340 7  87275725.27946  21313626.200    21313624.984    21313624.366
        47.250          39.750
 107611882.336 8  83853423.79749  20477860.454    20477860.307    20477862.104
        50.250          55.750
 118580248.741 7  92400197.88747  22565070.966    22565070.470    22565071.364
        45.500          46.500
 125152680.454 6  97521571.24943  23815763.466    23815762.313    23815762.757
        39.000          23.250
 108028691.710 8  84178206.09449  20557176.619    20557176.177    20557177.461
        50.500          55.500
 124074903.973 7                  23610668.914
        44.750
 125873715.541 6  98083435.38146  23952972.054    23952971.165    23952976.302
        40.250          38.500
 116471565.136 7                  22163801.778
        45.000
 123391372.956 8                  23480597.589
        49.250
 137193180.545 6                  26106994.313
        36.750
 194881185.612 7                  37084656.403
        46.750
  30465500.976 7                   5797604.850
        44.000
 117759205.094 7                  22408831.820
        44.500
 116892247.381 8                  21859441.238
        48.500
 203696455.643 7                  38762146.627
        43.250
 179789277.519 7                  34212587.751
        47.250
 109054674.125 8                  20436798.849
        50.750
 110333468.311 8                  20669176.367
        50.250
 101390111.348 8                  18947166.339
        52.500
 108357354.835 8                  20242064.217
        52.000
 125348794.736 7                  23408003.602
        44.000
 21 11 12  9 54 30.0000000  0 24G17G02G04G19G06G07G20G09E09G30E11E04
                                E19S36S48E12R24S23S25R02R18R17R03R04
 116735498.204 7  90962725.21845  22214026.861    22214026.490    22214027.291
        44.500          35.250
 125513114.662 7  97802418.49844  23884351.558    23884350.472    23884348.375
        42.250          29.250
 120317699.205 7  93754052.07444  22895696.695    22895696.459    22895697.358
        42.500          29.000
 112074956.347 7  87331124.72846  21327155.548    21327154.328    21327153.729
        47.500          39.750
 107571456.307 8  83821922.98649  20470167.481    20470167.338    20470168.955
        50.000          55.250
 118517510.003 7  92351310.58647  22553132.471    22553131.984    22553132.517
        45.500          46.500
 125087545.169 6  97470816.48743  23803368.457    23803367.304    23803368.121
        39.500          23.750
 108070946.790 8  84211132.12049  20565217.505    20565217.063    20565218.359
        50.250          55.250
 124019739.937 7                  23600171.465
        44.500
 125783644.298 6  98013250.04546  23935831.670    23935830.785    23935836.260
        39.250          38.500
 116431204.286 7                  22156121.553
        45.250
 123404514.648 8                  23483098.276
        49.000
 137265920.593 6                  26120836.307
        37.000
 194881175.829 7                  37084654.793
        46.500
  30465182.585 7                   5797557.339
        43.750
 117799403.209 7                  22416481.350
        44.500
 117010992.498 8                  21881647.314
        48.250
 203696509.346 7                  38762156.505
        43.000
 179790529.157 7                  34212947.511
        47.250
 109122105.098 8                  20449435.642
        51.000
 110243575.012 8                  20652336.140
        50.250
 101413875.375 8                  18951606.991
        52.250
 108341285.549 8                  20239061.978
        51.500
 125270451.346 7                  23393373.522
        43.500
 21 11 12  9 55  0.0000000  0 24G17G02G04G19G06G07G20G09E09G30E11E04
                                E19S36S48E12R24S23S25R02R18R17R03R04
 116823481.194 7  91031283.31745  22230769.507    22230769.132    22230769.833
        44.750          34.750
 125425796.153 7  97734378.07644  23867735.503    23867734.417    23867731.459
        42.250          28.750
 120408912.203 7  93825127.10444  22913054.475    22913054.234    22913054.418
        42.500          29.250
 112146489.169 7  87386864.55246  21340767.743    21340766.518    21340766.064
        47.750          40.000
 107531402.178 8  83790711.96849  20462545.510    20462545.367    20462547.079
        50.250          55.750
 118455015.948 7  92302613.95047  22541240.053    22541239.575    22541240.371
        46.000          47.000
 125022405.725 6  97420058.49843  23790973.204    23790972.087    23790972.207
        39.500          23.500
 108113627.643 8  84244389.92249  20573339.307    20573338.860    20573340.069
        50.750          55.250
 123964817.958 7                  23589720.063
        44.750
 125693552.333 6  97943048.56746  23918687.951    23918687.071    23918692.274
        39.750          38.500
 116391117.548 7                  22148493.170
        45.250
 123417931.149 8                  23485651.366
        49.000
 137338691.525 6                  26134684.364
        37.000
 194881169.066 7                  37084653.425
        46.750
  30464864.545 7                   5797511.182
        43.750
 117839931.089 7                  22424193.439
        44.750
 117130074.319 8                  21903916.241
        48.500
 203696565.865 7                  38762166.248
        43.000
 179793399.934 7                  34213311.125
        47.250
 109189686.085 8                  20462100.524
        51.000
 110154189.832 8                  20635591.197
        50.000
 101438439.404 8                  18956197.504
        52.500
 108325610.756 8                  20236133.630
        51.000
 125192393.085 7                  23378796.365
        43.250
 21 11 12  9 55 30.0000000  0 24G17G02G04G19G06G07G20G09E09G30E11E04
                                E19S36S48E12R24S23S25R02R18R17R03R04
 116911686.627 7  91100014.74345  22247554.282    22247553.916    22247554.748
        44.500          34.250
 125338522.147 7  97666372.36744  23851127.922    23851126.831    23851124.564
        42.000          28.500
 120500296.009 7  93896335.22045  22930444.419    22930444.174    22930444.665
        42.750          30.000
 112218453.255 8  87442940.42246  21354462.208    21354460.979    21354460.390
        48.000          39.750
 107491720.047 8  83759790.81949  20454994.232    20454994.089    20454996.087
        50.500          55.500
 118392766.687 7  92254108.06247  22529394.395    22529393.913    22529394.761
        46.000          46.750
 124957259.101 6  97369294.90143  23778575.898    23778574.749    23778574.718
        40.000          23.750
 108156730.148 8  84277976.28249  20581541.419    20581540.972    20581542.250
        50.500          54.750
 123910136.272 7                  23579314.457
        44.750
 125603440.249 6  97872831.41046  23901540.023    23901539.143    23901544.607
        40.250          38.750
 116351304.414 7                  22140917.025
        45.500
 123431619.227 8                  23488256.170
        49.000
 137411490.001 6                  26148537.470
        37.250
 194881158.630 7                  37084650.818
        46.750
  30464549.075 7                   5797464.119
        44.000
 117880786.576 7                  22431968.075
        44.750
 117249487.617 8                  21926247.114
        48.000
 203696621.616 7                  38762176.091
        43.250
 179794685.146 7                  34213674.400
        47.250
 109257411.793 8                  20474792.462
        51.500
 110065314.700 8                  20618942.184
        50.000
 101463801.150 8                  18960936.895
        52.750
 108310326.251 8                  20233278.012
        51.250
 125114618.151 7                  23364272.802
        44.250
 21 11 12  9 56  0.0000000  0 24G17G02G04G19G06G07G20G09E09G30E11E04
                                E19S36S48E12R24S23S25R02R18R17R03R04
 117000114.431 7  91168919.44745  22264381.653    22264381.291    22264382.032
        44.500          34.500
 125251297.936 6  97598405.45044  23834529.226    23834528.135    23834526.929
        41.500          29.750
 120591851.585 6  93967677.16545  22947866.898    22947866.639    22947867.654
        41.500          30.500
 112290848.395 7  87499352.17846  21368238.492    21368237.258    21368236.655
        47.250          40.000
 107452415.531 8  83729163.91949  20447514.911    20447514.768    20447516.717
        50.250          56.000
 118330768.083 7  92205797.50047  22517596.487    22517596.014    22517596.756
        46.000          47.000
 124892109.240 6  97318528.77744  23766178.434    23766177.308    23766177.731
        38.750          24.500
 108200255.698 8  84311892.28749  20589823.954    20589823.507    20589824.894
        50.500          55.500
 123855698.629 7                  23568955.372
        45.000
 125513314.206 6  97802603.37446  23884389.262    23884388.391    23884393.873
        39.500          38.750
 116311769.996 7                  22133393.987
        45.750
 123445581.280 8                  23490913.002
        49.250
 137484318.228 6                  26162396.555
        36.500
 194881149.524 7                  37084649.642
        46.750
  30464235.931 7                   5797417.413
        43.750
 117921972.999 7                  22439805.486
        44.750
 117369232.503 8                  21948640.507
        48.250
 203696679.382 7                  38762187.985
        43.000
 179797570.738 7                  34214039.888
        47.250
 109325284.147 8                  20487511.343
        50.750
 109976957.490 8                  20602389.965
        50.000
 101489963.565 8                  18965826.236
        52.750
 108295434.155 8                  20230495.883
        51.250
 125037130.259 7                  23349802.232
        44.250
 21 11 12  9 56 30.0000000  0 24G17G02G04G19G06G07G20G09E09G30E11E04
                                E19S36S48E12R24S23S25R02R18R17R03R04
 117088756.862 7  91237991.39345  22281249.986    22281249.620    22281250.262
        44.500          34.500
 125164120.473 7  97530474.98945  23817940.096    23817939.019    23817937.853
        42.000          30.500
 120683571.399 7  94039147.07445  22965320.433    22965320.183    22965321.743
        42.250          30.500
 112363667.279 7  87556094.12546  21382095.439    21382094.205    21382093.726
        47.500          40.000
 107413485.721 8  83698828.99749  20440106.779    20440106.636    20440108.593
        50.250          56.000
 118269018.122 7  92157680.68047  22505845.492    22505845.019    22505846.052
        45.500          47.000
 124826951.120 6  97267756.23444  23753778.857    23753777.717    23753778.623
        39.500          24.750
 108244197.033 8  84346132.27949  20598185.844    20598185.397    20598186.680
        50.500          55.500
 123801500.213 7                  23558641.790
        45.250
 125423171.750 6  97732362.54246  23867235.758    23867234.882    23867240.139
        40.250          39.000
 116272510.772 7                  22125923.153
        46.000
 123459811.038 8                  23493620.864
        49.500
 137557169.818 6                  26176259.556
        36.250
 194881139.368 7                  37084648.193
        47.000
  30463921.479 7                   5797370.398
        44.000
 117963485.097 7                  22447705.105
        45.000
 117489300.067 8                  21971093.666
        48.250
 203696733.517 7                  38762197.854
        43.250
 179798868.643 7                  34214405.895
        47.250
 109393294.960 8                  20500256.983
        50.500
 109889116.719 8                  20585934.217
        50.250
 101516921.053 8                  18970863.841
        52.750
 108280927.888 8                  20227786.115
        51.250
 124959924.866 7                  23335384.050
        43.250
 21 11 12  9 57  0.0000000  0 24G17G02G04G19G06G07G20G09E09G30E11E04
                                E19S36S48E12R24S23S25R02R18R17R03R04
 117177607.478 7  91307225.56045  22298157.666    22298157.300    22298157.981
        44.500          34.500
 125076988.293 7  97462579.79745  23801359.335    23801358.244    23801357.104
        42.500          31.250
 120775449.704 6  94110740.50044  22982804.399    22982804.140    22982805.246
        41.500          29.000
 112436903.673 7  87613161.40246  21396031.837    21396030.594    21396030.257
        47.500          39.750
 107374929.381 8  83668785.09349  20432769.564    20432769.417    20432771.555
        50.250          56.000
 118207515.789 7  92109756.81847  22494142.095    22494141.622    22494142.300
        46.000          46.750
 124761781.006 6  97216974.32844  23741377.470    23741376.362    23741377.526
        39.500          24.500
 108288548.797 8  84380692.08849  20606625.644    20606625.193    20606626.689
        50.750          55.500
 123747537.878 7                  23548373.121
        45.250
 125333012.231 6  97662108.41846  23850079.453    23850078.555    23850083.368
        39.750          39.000
 116233524.961 7                  22118504.438
        45.750
 123474304.088 8                  23496378.793
        49.250
 137630040.291 5                  26190125.703
        35.750
 194881125.613 7                  37084645.577
        46.750
  30463600.258 7                   5797323.111
        43.750
 118005319.378 7                  22455665.772
        44.750
 117609683.517 7                  21993605.618
        47.750
 203696783.464 7                  38762208.747
        43.000
 179800158.970 7                  34214772.684
        47.250
 109461438.225 8                  20513026.943
        50.750
 109801793.665 8                  20569575.352
        50.000
 101544670.113 8                  18976049.322
        52.500
 108266802.052 8                  20225147.507
        51.500
 124882998.366 7                  23321019.191
        43.750
 21 11 12  9 57 30.0000000  0 24G17G02G04G19G06G07G20G09E09G30E11E04
                                E19S36S48E12R24S23S25R02R18R17R03R04
 117266675.087 7  91376628.81645  22315106.976    22315106.614    22315107.094
        45.000          35.000
 124989914.941 7  97394730.45445  23784789.891    23784788.796    23784787.627
        42.500          31.500
 120867495.835 6  94182464.71344  23000320.053    23000319.799    23000320.238
        41.750          28.250
 112510565.777 7  87670560.40146  21410049.275    21410048.032    21410047.770
        47.750          40.000
 107336760.525 8  83639043.12149  20425506.366    20425506.223    20425508.196
        50.250          55.750
 118146275.357 7  92062037.03247  22482488.654    22482488.185    22482488.616
        46.000          47.000
 124696610.601 6  97166192.19044  23728975.920    23728974.785    23728976.214
        39.250          25.000
 108333320.673 8  84415579.25049  20615145.464    20615145.017    20615146.713
        50.750          55.250
 123693823.728 7                  23538151.577
        45.250
 125242850.064 6  97591852.21946  23832922.093    23832921.199    23832925.878
        40.250          39.000
 116194825.963 7                  22111140.216
        46.250
 123489071.039 8                  23499188.925
        49.500
 137702939.970 6                  26203998.694
        36.000
 194881119.868 7                  37084643.395
        46.750
  30464888.961 7                   5797276.373
        44.000
 118047487.430 7                  22463690.120
        45.250
 117730391.060 7                  22016178.930
        47.750
 203696841.926 7                  38762217.878
        43.250
 179803053.756 7                  34215140.520
        47.250
 109529723.515 8                  20525823.408
        50.500
 109715003.961 8                  20553317.146
        50.500
 101573221.872 8                  18981385.074
        52.750
 108253067.309 8                  20222581.866
        51.500
 124806363.324 7                  23306708.306
        44.000
 21 11 12  9 58  0.0000000  0 24G17G02G04G19G06G07G20G09E09G30E11E04
                                E19S36S48E12R24S23S25R02R18R17R03R04
 117355949.728 7  91446193.38645  22332095.007    22332094.645    22332095.799
        45.000          35.250
 124902895.419 7  97326923.04845  23768231.040    23768229.963    23768228.382
        42.500          31.500
 120959700.261 6  94254312.27044  23017865.853    23017865.599    23017866.357
        41.250          28.250
 112584643.555 7  87728283.29946  21424146.259    21424145.021    21424144.279
        47.500          40.000
 107298974.061 8  83609599.11749  20418315.615    20418315.468    20418317.634
        50.250          56.000
 118085292.492 7  92014517.94947  22470884.043    22470883.574    22470883.821
        46.250          47.000
 124631432.372 6  97115403.97144  23716573.142    23716572.029    23716572.599
        39.500          25.250
 108378503.349 8  84450786.52149  20623743.431    20623742.980    20623744.441
        50.500          55.250
 123640350.747 7                  23527976.006
        44.750
 125152680.783 6  97521590.49346  23815763.457    23815762.541    23815767.502
        40.250          39.250
 116156408.014 7                  22103829.602
        45.250
 123504103.571 8                  23502049.492
        49.000
 137775860.523 5                  26217875.275
        35.750
 194881107.558 7                  37084640.265
        46.750
  30464579.506 7                   5797230.396
        43.750
 118089981.873 7                  22471776.714
        44.750
 117851412.466 7                  22038811.051
        47.500
 203696898.240 7                  38762229.187
        43.250
 179804356.718 7                  34215513.176
        47.250
 109598140.582 8                  20538644.908
        50.750
 109628744.691 8                  20537157.398
        50.250
 101602568.470 8                  18986868.920
        52.750
 108239714.526 8                  20220087.393
        52.000
 124730012.689 7                  23292450.154
        43.500
 21 11 12  9 58 30.0000000  0 24G17G02G04G19G06G07G20G09E09G30E11E04
                                E19S36S48E12R24S23S25R02R18R17R03R04
 117445429.504 7  91515917.80345  22349122.886    22349122.538    22349123.425
        45.250          35.500
 124815932.816 7  97259159.98645  23751682.324    23751681.242    23751679.546
        42.750          30.500
 121052061.795 7  94326282.25144  23035441.549    23035441.313    23035442.839
        42.000          29.500
 112659135.461 8  87786328.89246  21438321.374    21438320.136    21438319.452
        48.000          40.000
 107261573.310 8  83580455.67049  20411198.731    20411198.588    20411200.636
        50.500          56.000
 118024571.045 7  91967202.56647  22459329.063    22459328.590    22459328.773
        46.000          47.000
 124566247.515 6  97064610.59744  23704168.262    23704167.136    23704167.943
        40.000          25.250
 108424095.891 8  84486313.16649  20632419.488    20632419.037    20632420.493
        50.500          55.250
 123587120.470 7                  23517846.627
        45.250
 125062508.278 6  97451326.25246  23798603.746    23798602.843    23798607.918
        40.250          39.750
 116118274.175 7                  22096572.879
        45.500
 123519401.731 8                  23504960.751
        49.000
 137848801.921 5                  26231755.738
        35.750
 194881100.027 7                  37084639.862
        46.750
  30464270.051 7                   5797183.596
        44.000
 118132803.775 7                  22479925.345
        44.750
 117972745.166 8                  22061500.689
        48.000
 203696954.716 7                  38762241.224
        43.000
 179807274.058 7                  34215884.933
        47.250
 109666688.535 8                  20551490.939
        50.500
 109543020.698 8                  20521098.968
        50.250
 101632710.484 8                  18992501.987
        53.000
 108226743.300 8                  20217664.335
        52.000
 124653947.922 7                  23278245.624
        44.000
 21 11 12  9 59  0.0000000  0 24G17G02G04G19G06G07G20G09E09G30E11E04
                                E19S36S48E12R24S23S25R02R18R17R03R04
 117535112.504 7  91585800.57345  22366188.975    22366188.627    22366189.448
        44.500          35.000
 124729030.341 7  97191443.76145  23735145.105    23735144.032    23735141.979
        42.500          30.500
 121144579.120 6  94398373.61645  23053047.514    23053047.282    23053048.704
        41.750          30.000
 112734039.583 7  87844695.69646  21452575.135    21452573.901    21452573.120
        47.250          39.750
 107224561.627 8  83551615.39249  20404155.660    20404155.517    20404157.602
        50.250          55.750
 117964114.862 7  91920093.88647  22447824.529    22447824.056    22447824.460
        45.750          46.750
 124501057.193 6  97013812.94244  23691763.579    23691762.453    23691763.005
        40.000          25.500
 108470097.300 8  84522158.40849  20641173.300    20641172.853    20641174.195
        50.000          54.750
 123534134.150 7                  23507763.720
        45.250
 124972336.370 6  97381062.47846  23781444.617    23781443.723    23781448.657
        40.500          39.250
 116080426.939 7                  22089370.767
        45.750
 123534965.562 8                  23507922.290
        49.500
 137921764.021 6                  26245640.130
        36.250
 194881093.139 7                  37084638.892
        47.000
  30463962.432 7                   5797138.468
        43.750
 118175954.017 7                  22488136.666
        45.000
 118094386.757 7                  22084247.440
        47.000
 203697013.275 7                  38762251.893
        43.250
 179808604.726 7                  34216259.861
        47.250
 109735366.042 8                  20564360.768
        50.750
 109457837.633 8                  20505140.949
        50.000
 101663648.515 8                  18998283.613
        53.000
 108214153.070 8                  20215312.370
        51.750
 124578170.387 7                  23264095.249
        45.000
 21 11 12  9 59 30.0000000  0 24G17G02G04G19G06G07G20G09E09G30E11E04
                                E19S36S48E12R24S23S25R02R18R17R03R04
 117624993.226 7  91655837.41545  22383292.697    22383292.344    22383293.221
        44.500          34.500
 124642187.613 7  97123774.11345  23718619.459    23718618.409    23718616.744
        42.500          30.000
 121237247.501 6  94470582.68044  23070681.764    23070681.541    23070682.820
        41.750          29.500
 112809350.363 7  87903379.37646  21466906.317    21466905.079    21466904.344
        47.500          39.250
 107187938.656 8  83523078.01049  20397186.586    20397186.439    20397188.534
        50.250          55.750
 117903924.145 7  91873192.06247  22436370.488    22436370.019    22436370.654
        46.000          46.750
 124435858.823 6  96963009.03444  23679356.546    23679355.393    23679356.380
        40.000          25.750
 108516503.066 8  84558318.72749  20650004.015    20650003.568    20650004.952
        50.250          55.000
 123481389.696 7                  23497726.552
        45.250
 124882165.400 6  97310799.44246  23764285.696    23764284.816    23764290.062
        41.000          39.750
 116042865.590 7                  22082223.053
        45.500
 123550791.487 8                  23510933.918
        49.000
 137994743.272 5                  26259527.126
        35.750
 194881085.660 7                  37084637.278
        46.500
  30463653.837 7                   5797091.503
        43.500
 118219430.017 7                  22496409.866
        44.500
 118216331.202 7                  22107052.835
        47.250
 203697069.668 7                  38762261.329
        43.000
 179809945.607 7                  34216635.316
        47.000
 109804168.196 8                  20577254.220
        50.750
 109373197.224 8                  20489284.949
        50.500
 101695379.562 8                  19004213.280
        52.750
 108201939.715 8                  20213030.829
        52.000
 124502677.884 7                  23249996.530
        44.000
 21 11 12 10  0  0.0000000  0 24G17G02G04G19G06G07G20G09E09G30E11E04
                                E19S36S48E12R24S23S25R02R18R17R03R04
 117715072.024 7  91726028.60045  22400434.150    22400433.797    22400434.811
        44.750          34.750
 124555409.681 7  97056154.95045  23702106.146    23702105.082    23702103.472
        42.500          30.250
 121330067.783 6  94542910.11744  23088344.593    23088344.370    23088345.559
        41.250          29.000
 112885067.718 7  87962379.86446  21481314.906    21481313.668    21481312.976
        47.250          39.500
 107151709.828 8  83494847.75149  20390292.370    20390292.227    20390294.298
        50.500          56.250
 117844004.613 7  91826501.54447  22424968.214    22424967.754    22424968.101
        46.250          47.000
 124370655.500 6  96912201.25944  23666948.959    23666947.824    23666948.227
        40.000          25.750
 108563314.238 8  84594794.95249  20658911.829    20658911.382    20658912.804
        50.250          55.000
 123428890.503 7                  23487736.403
        45.500
 124792001.277 6  97240541.73446  23747128.069    23747127.189    23747132.259
        41.000          40.000
 116005594.890 7                  22075130.708
        46.000
 123566881.531 8                  23513995.671
        49.000
 138067741.585 6                  26273418.206
        36.250
 194881075.452 7                  37084635.314
        46.750
  30463350.777 7                   5797044.904
        43.750
 118263234.769 7                  22504745.653
        44.750
 118338578.147 7                  22129914.049
        47.500
 203697128.615 7                  38762274.073
        43.000
 179812897.750 7                  34217011.840
        47.250
 109873095.866 8                  20590171.168
        50.500
 109289106.238 8                  20473531.963
        50.000
 101727906.022 8                  19010291.756
        53.000
 108190104.917 8                  20210819.976
        52.000
 124427473.766 7                  23235952.231
        44.000
 21 11 12 10  0 30.0000000  0 24G17G02G04G19G06G07G20G09E09G30E11E04
                                E19S36S48E12R24S23S25R02R18R17R03R04
 117805342.302 7  91796368.99145  22417612.346    22417611.989    22417612.589
        44.250          34.250
 124468694.835 7  96988584.96945  23685604.650    23685603.582    23685602.415
        42.500          30.500
 121423033.956 6  94615351.24044  23106035.437    23106035.214    23106036.336
        41.000          28.500
 112961185.095 7  88021692.06146  21495799.777    21495798.552    21495797.836
        47.750          39.750
 107115873.604 8  83466923.41949  20383473.054    20383472.911    20383474.899
        50.250          56.000
 117784354.886 7  91780021.26647  22413617.086    22413616.630    22413617.012
        46.000          47.000
 124305443.562 6  96861386.79544  23654539.328    23654538.188    23654539.550
        39.500          26.000
 108610525.105 8  84631582.62649  20667895.800    20667895.349    20667896.768
        50.000          55.000
 123376633.161 7                  23477792.006
        45.750
 124701843.090 6  97170288.64846  23729971.705    23729970.829    23729975.492
        41.500          40.250
 115968612.715 7                  22068093.245
        46.250
 123583230.984 8                  23517106.910
        49.750
 138140754.170 6                  26287312.229
        36.750
 194881067.237 7                  37084633.763
        46.750
  30463046.503 7                   5796999.987
        43.750
 118307364.400 7                  22513143.200
        45.000
 118461120.695 7                  22152829.814
        47.000
 203697187.001 7                  38762283.579
        43.000
 179814257.268 7                  34217389.674
        47.250
 109942143.254 8                  20603110.706
        50.500
 109205565.643 8                  20457882.014
        50.500
 101761223.498 8                  19016517.884
        53.000
 108178643.042 8                  20208678.621
        52.000
 124352554.813 7                  23221962.595
        43.500
 21 11 12 10  1  0.0000000  0 24G17G02G04G19G06G07G20G09E09G30E11E04
                                E19S36S48E12R24S23S25R02R18R17R03R04
 117895799.669 7  91866855.15645  22434825.566    22434825.204    22434826.163
        44.000          34.000
 124382043.841 7  96921064.72545  23669115.752    23669114.675    23669113.146
        42.500          30.750
 121516142.351 6  94687903.17544  23123753.674    23123753.451    23123754.009
        40.500          28.000
 113037697.980 7  88081312.44446  21510359.729    21510358.495    21510357.909
        47.250          40.000
 107080430.641 8  83439305.52149  20376728.447    20376728.300    20376730.284
        50.750          56.250
 117724976.519 7  91733752.44047  22402317.888    22402317.446    22402317.714
        46.000          47.000
 124240221.422 6  96810564.37344  23642128.406    23642127.271    23642127.516
        40.500          25.500
 108658132.138 8  84668679.00149  20676955.167    20676954.716    20676956.231
        50.000          55.000
 123324616.528 7                  23467893.620
        45.250
 124611692.236 6  97100041.27646  23712816.654    23712815.769    23712820.023
        40.750          39.750
 115931919.362 7                  22061110.784
        45.750
 123599837.318 8                  23520266.948
        49.250
 138213778.420 6                  26301208.391
        36.000
 194881052.354 7                  37084632.685
        47.000
  30462740.067 7                   5796953.137
        44.000
 118351817.343 7                  22521602.321
        44.500
 118583953.577 7                  22175800.271
        46.500
