     2.11           OBSERVATION DATA    M (MIXED)           RINEX VERSION / TYPE
teqc  2019Feb25                         20230504 17:05:59UTCPGM / RUN BY / DATE
Linux2.6.32-573.12.1.el6.x86_64|x86_64|gcc|Win64-MinGW64|=+ COMMENT
BIT 2 OF LLI FLAGS DATA COLLECTED UNDER A/S CONDITION       COMMENT
-Unknown-                                                   MARKER NAME
-Unknown-           -Unknown-                               OBSERVER / AGENCY
-Unknown-           -Unknown-           -Unknown-           REC # / TYPE / VERS
-Unknown-           -Unknown-                               ANT # / TYPE
        0.0000        0.0000        0.0000                  APPROX POSITION XYZ
        0.0000        0.0000        0.0000                  ANTENNA: DELTA H/E/N
     1     1                                                WAVELENGTH FACT L1/2
     7    L1    L2    C1    P1    P2    S1    S2            # / TYPES OF OBSERV
 SNR is mapped to RINEX snr flag value [0-9]                COMMENT
  L1 & L2: min(max(int(snr_dBHz/6), 0), 9)                  COMMENT
  2021    10    21     0     0    0.0000000     GPS         TIME OF FIRST OBS
    18                                                      LEAP SECONDS
                                                            END OF HEADER
 21 10 21  0  0  0.0000000  0 27G31G16R01G32G04S25G29E30E02E05R03E03
                                S23R23G27S48G25R22E11R21S36E08G26R02
                                E25R12G18
 107064830.221 8  83427151.86549  20373751.610    20373751.320    20373749.535
        50.750          55.750
 125129152.697 6  97503231.36243  23811282.101    23811281.252    23811279.280
        39.000          22.750
 130964092.70016                  24499541.182
        41.500
 122262937.050 7  95269850.98345  23265859.526    23265859.433    23265862.209
        43.500          31.500
 134025992.22115                  25504298.110
        32.500
 183531144.848 7                  34924762.975
        45.250
 116879053.802 7  91074642.38847  22241320.306    22241319.837    22241318.390
        46.500          47.250
 144077148.006 6                  27416969.126
        36.750
 129304166.605 7                  24605749.212
        46.500
 149987609.868 5                  28541693.915
        35.250
 130051064.129 6                  24294631.019
        41.000
 138444848.404 7                  26345172.575
        42.000
 204017913.911 7                  38823308.421
        43.750
 124668714.903 7                  23305499.362
        44.250
 128084053.057 6  99805777.24544  24373580.168    24373579.601    24373581.845
        37.250          24.250
  30856709.321 7                   5871828.933
        43.500
 123824328.242 6  96486559.85246  23562966.124    23562965.315    23562967.052
        40.000          39.000
 103163503.618 7                  19325993.381
        43.000
 122766309.127 7                  23361624.310
        42.750
 110146648.356 8                  20583519.299
        51.000
 195145936.430 7                  37135034.923
        47.500
 129407512.227 6                  24625430.434
        40.500
 113096346.200 7  88127080.28146  21521506.432    21521505.990    21521507.992
        46.500          38.750
 123641746.086 7                  23170409.417
        44.000
 128732022.724 7                  24496864.678
        47.250
 111713349.749 8                  20912969.635
        50.000
 114256764.238 7  89031261.62546  21742331.046    21742330.850    21742330.510
        47.000          37.500
 21 10 21  0  0 30.0000000  0 27G31G16R01G32G04S25G29E30E02E05R03E03
                                S23R23G27S48G25R22E11R21S36E08G26R02
                                E25R12G18
 107050071.115 8  83415651.25149  20370942.885    20370942.599    20370940.762
        50.500          55.250
 125065121.762 6  97453337.14743  23799097.017    23799096.163    23799095.303
        39.750          23.500
 131056094.804 5                  24516751.690
        33.750
 122355904.358 7  95342292.99145  23283551.046    23283550.939    23283552.825
        43.000          30.250
 133958308.028 4 104383096.20851  25491417.089    25491416.987    25491418.046
        29.750           9.000
 183528248.982 7                  34924123.283
        45.000
 116962747.751 7  91139858.46947  22257246.855    22257246.386    22257244.284
        46.500          47.000
 144027060.850 6                  27407437.818
        36.000
 129272571.409 7                  24599736.843
        46.500
 150059910.760 5                  28555452.559
        35.000
 130041073.002 6                  24292765.432
        41.000
 138514519.176 7                  26358430.756
        42.000
 204017830.631 7                  38823293.776
        43.250
 124535221.049 7                  23280544.781
        44.000
 127984712.083 6  99728368.71044  24354676.107    24354675.508    24354678.208
        37.500          25.000
  30857429.870 7                   5871861.651
        42.750
 123888347.137 6  96536444.70446  23575147.855    23575147.046    23575149.496
        38.750          38.250
 103122137.104 7                  19318244.163
        43.000
 122786149.025 7                  23365399.986
        42.500
 110222762.013 8                  20597742.547
        50.750
 195145945.284 7                  37135037.074
        47.000
 129427490.089 6                  24629232.540
        40.500
 113057910.860 7  88097130.66946  21514192.576    21514192.134    21514194.438
        46.750          39.000
 123703146.337 7                  23181917.022
        45.500
 128743011.112 7                  24498955.516
        47.000
 111645912.363 8                  20900345.039
        50.250
 114199270.621 7  88986461.43046  21731390.339    21731390.152    21731389.576
        47.000          37.500
 21 10 21  0  1  0.0000000  0 27G31G16R01G32G04S25G29E30E02E05R03E03
                                S23R23G27S48G25R22E11R21S36E08G26R02
                                E25R12G18
 107035773.042 8  83404509.89349  20368222.232    20368221.942    20368219.659
        50.750          56.000
 125001164.191 6  97403500.09943  23786925.909    23786925.033    23786924.315
        40.250          23.500
 131147891.169 5                  24533924.977
        31.750
 122448942.544 7  95414790.20245  23301255.668    23301255.579    23301257.628
        43.250          30.250
 133891015.912 5 104330660.75042  25478612.340    25478612.269    25478613.171
        33.250          13.000
 183525347.487 7                  34923484.847
        46.000
 117046651.805 7  91205238.25947  22273213.232    22273212.763    22273211.120
        45.750          47.250
 143976919.378 6                  27397896.395
        37.000
 129240977.897 7                  24593724.809
        46.750
 150132017.213 5                  28569173.362
        34.750
 130031722.162 6                  24291018.497
        39.750
 138584284.884 7                  26371706.652
        42.750
 204017755.520 7                  38823280.057
        43.250
 124401866.297 7                  23255616.266
        44.500
 127885579.683 6  99651122.56844  24335811.553    24335810.923    24335814.306
        39.250          27.000
  30858158.883 7                   5871894.670
        43.500
 123952420.462 6  96586371.95046  23587341.262    23587340.453    23587342.045
        39.750          39.000
 103081582.080 7                  19310646.594
        42.750
 122806421.130 7                  23369257.522
        43.000
 110299507.988 8                  20612084.674
        51.000
 195145970.672 7                  37135040.289
        47.000
 129447827.655 6                  24633102.459
        40.750
 113019583.315 7  88067265.05446  21506898.953    21506898.511    21506900.493
        47.250          39.250
 123764952.443 7                  23193499.527
        44.250
 128754063.113 7                  24501058.864
        47.250
 111578556.481 8                  20887735.630
        50.000
 114142197.998 7  88941989.28246  21720529.918    21720529.731    21720528.707
        47.250          37.500
 21 10 21  0  1 30.0000000  0 27G31G16R01G32G04S25G29E30E02E05R03E03
                                S23R23G27S48G25R22E11R21S36E08G26R02
                                E25R12G18
 107021921.461 8  83393716.44249  20365586.311    20365586.016    20365583.829
        50.750          56.000
 124937264.158 6  97353707.87743  23774766.650    23774765.783    23774764.623
        40.000          23.750
 131239458.56116                  24551055.741
        36.250
 122542033.242 7  95487328.33844  23318970.190    23318970.092    23318972.024
        42.000          29.250
 133824102.227 5 104278520.27842  25465880.287    25465880.189    25465880.208
        32.750          13.750
 183520838.767 7                  34922843.240
        45.250
 117130748.872 7  91270768.42447  22289216.157    22289215.679    22289214.646
        45.750          47.250
 143926707.956 6                  27388341.489
        36.250
 129209370.936 7                  24587710.206
        46.750
 150203912.685 5                  28582855.052
        34.000
 130022995.365 6                  24289388.078
        40.500
 138654128.146 7                  26384997.435
        42.500
 204017673.333 7                  38823263.365
        43.500
 124268639.259 7                  23230709.562
        45.000
 127786642.578 6  99574028.82944  24316984.468    24316983.851    24316987.282
        39.000          26.250
  30857278.921 7                   5871927.702
        43.500
 124016533.098 6  96636329.82046  23599541.005    23599540.192    23599542.380
        39.000          38.500
 103041824.242 7                  19303199.132
        42.750
 122827109.551 7                  23373194.536
        43.000
 110376866.899 8                  20626541.172
        51.000
 195145983.115 7                  37135044.179
        47.000
 129468508.424 6                  24637037.803
        41.000
 112981348.372 7  88037471.59346  21499623.175    21499622.742    21499624.171
        46.750          38.750
 123827144.323 7                  23205152.819
        43.500
 128765164.021 7                  24503171.269
        47.250
 111511268.601 8                  20875139.704
        50.250
 114085533.617 7  88897835.24246  21709747.100    21709746.913    21709745.832
        47.000          37.500
 21 10 21  0  2  0.0000000  0 27G31G16R01G32G04S25G29E30E02E05R03E03
                                S23R23G27S48G25R22E11R21S36E08G26R02
                                E25R12G18
 107008521.147 8  83383274.62849  20363036.300    20363036.010    20363034.048
        51.250          56.000
 124873424.713 6  97303962.87243  23762617.565    23762616.720    23762615.565
        39.750          23.250
 131330804.634 4                  24568143.437
        27.250
 122635176.670 7  95559907.56744  23336694.551    23336694.449    23336696.319
        42.500          28.500
 133757572.266 5 104226678.73442  25453219.113    25453219.042    25453219.779
        34.250          15.750
 183517907.553 7                  34922199.832
        45.500
 117215039.304 7  91336449.27247  22305256.379    22305255.901    22305254.370
        46.750          47.500
 143876429.535 6                  27378773.599
        36.250
 129177754.046 7                  24581693.755
        47.000
 150275598.790 5                  28596496.257
        35.500
 130014895.435 6                  24287874.852
        39.250
 138724050.134 7                  26398303.304
        42.750
 204017585.144 7                  38823247.459
        43.500
 124135546.391 7                  23205828.651
        43.750
 127687904.976 6  99497090.48444  24298194.563    24298193.978    24298198.235
        40.000          27.250
  30857995.586 7                   5871958.811
        43.250
 124080688.577 6  96686321.10346  23611749.644    23611748.826    23611750.594
        39.000          38.000
 103002868.684 7                  19295901.205
        42.750
 122848217.000 7                  23377210.999
        43.000
 110454838.228 8                  20641111.213
        50.250
 195145993.046 7                  37135045.423
        47.250
 129489534.632 6                  24641039.199
        40.750
 112943209.447 7  88007752.94746  21492365.728    21492365.290    21492366.937
        47.000          39.000
 123889721.946 7                  23216881.348
        44.500
 128776317.761 7                  24505293.757
        47.250
 111444054.088 8                  20862556.536
        50.000
 114029283.342 7  88854003.87846  21699042.832    21699042.645    21699041.819
        47.250          37.500
 21 10 21  0  2 30.0000000  0 27G31G16R01G32G04S25G29E30E02E05R03E03
                                S23R23G27S48G25R22E11R21S36E08G26R02
                                E25R12G18
 106995576.157 8  83373187.61649  20360573.009    20360572.714    20360570.850
        51.000          56.250
 124809648.294 6  97254266.97343  23750481.906    23750481.052    23750479.483
        39.750          23.000
 131421924.896 6                  24585189.025
        37.750
 122728372.705 6  95632527.79044  23354428.998    23354428.896    23354430.573
        41.750          28.000
 133691430.536 5 104175139.77742  25440633.639    25440633.501    25440633.632
        33.750          13.250
 183514972.128 7                  34921553.101
        45.750
 117299523.616 7  91402281.20347  22321333.024    22321332.546    22321330.854
        46.000          47.000
 143826086.639 6                  27369193.581
        36.000
 129146130.362 7                  24575675.989
        47.000
 150347077.327 5                  28610098.244
        34.750
 130007424.770 6                  24286478.961
        40.500
 138794051.669 7                  26411624.061
        42.750
 204017495.070 7                  38823231.093
        43.500
 124002594.089 7                  23180975.012
        45.250
 127589371.612 6  99420311.39344  24279444.242    24279443.634    24279447.420
        39.750          28.000
  30858708.726 7                   5871989.075
        43.250
 124144890.088 6  96736348.24846  23623966.803    23623965.985    23623967.429
        39.500          38.250
 102964719.652 7                  19288753.838
        42.750
 122869745.747 7                  23381307.783
        43.000
 110533421.181 8                  20655796.667
        50.500
 195146002.973 7                  37135046.925
        47.000
 129510907.964 6                  24645106.169
        40.750
 112905169.569 7  87978111.48446  21485126.752    21485126.310    21485128.579
        47.250          39.250
 123952683.818 7                  23228678.554
        44.000
 128787527.886 7                  24507426.739
        47.500
 111376917.949 8                  20849989.004
        50.500
 113973452.651 7  88810499.47146  21688418.732    21688418.549    21688417.668
        47.250          37.750
 21 10 21  0  3  0.0000000  0 27G31G16R01G32G04S25G29E30E02E05R03E03
                                S23R23G27S48G25R22E11R21S36E08G26R02
                                E25R12G18
 106983090.142 8  83363458.25149  20358196.980    20358196.690    20358194.666
        51.250          56.000
 124745937.003 6  97204621.80443  23738357.905    23738357.047    23738355.563
        38.500          21.750
                                  24602193.922
        32.250
 122821620.649 7  95705188.44844  23372173.443    23372173.341    23372175.997
        42.500          29.250
 133625681.348 5 104123906.61742  25428121.616    25428121.411    25428121.438
        34.750          15.750
 183512036.130 7                  34920906.402
        45.500
 117384201.879 7  91468264.26847  22337446.839    22337446.370    22337444.659
        45.500          46.500
 143775681.255 5                  27359602.364
        35.500
 129114502.415 7                  24569657.335
        47.000
 150418349.579 5                  28623661.028
        34.500
 130000585.447 6                  24285201.620
        39.000
 138864133.045 7                  26424960.002
        42.750
 204017408.130 7                  38823215.093
        43.500
 123869789.247 7                  23156147.567
        44.250
 127491045.812 6  99343693.95544  24260733.996    24260733.375    24260736.502
        39.750          28.000
  30857823.984 7                   5872021.718
        43.500
 124209140.210 6  96786413.26746  23636193.315    23636192.506    23636194.164
        39.250          38.250
 102927380.942 7                  19281759.807
        42.750
 122891697.516 7                  23385485.003
        42.750
 110612614.508 8                  20670596.171
        50.750
 195146016.308 7                  37135048.709
        47.250
 129532629.639 6                  24649239.895
        40.750
 112867231.266 7  87948549.17046  21477907.340    21477906.902    21477908.778
        47.000          39.000
 124016028.219 7                  23240549.920
        42.750
 128798797.398 7                  24509571.412
        47.250
 111309864.404 8                  20837436.268
        49.750
 113918046.399 7  88767325.78846  21677875.193    21677874.997    21677874.195
        47.000          37.500
 21 10 21  0  3 30.0000000  0 26G31G16G32G04S25G29E30E02E05R03E03S23
                                R23G27S48G25R22E11R21S36E08G26R02E25
                                R12G18
 106971065.292 8  83354088.22949  20355908.761    20355908.471    20355906.246
        51.000          56.000
 124682291.829 6  97155028.18243  23726246.939    23726246.072    23726244.147
        39.250          21.750
 122914918.602 7  95777888.08445  23389927.834    23389927.736    23389930.020
        43.250          30.250
 133560327.549 5 104072981.58442  25415685.031    25415684.853    25415685.145
        34.750          16.500
 183507490.288 7                  34920256.465
        46.250
 117469072.389 7  91534397.12547  22353596.899    22353596.426    22353595.015
        46.000          47.000
 143725214.185 6                  27349998.398
        36.250
 129082871.633 7                  24563638.044
        46.750
 150489415.236 6                  28637183.992
        37.500
 129994377.868 6                  24284040.601
        39.500
 138934293.304 7                  26438311.311
        42.500
 204017324.741 7                  38823199.885
        43.750
 123737136.525 7                  23131350.477
        43.750
 127392929.975 6  99267239.90544  24242062.888    24242062.262    24242066.020
        39.250          28.250
  30858542.211 7                   5872052.854
        43.500
 124273440.391 6  96836517.28646  23648429.400    23648428.578    23648430.531
        40.250          39.250
 102890854.858 7                  19274916.902
        42.750
 122914072.841 7                  23389742.652
        42.250
 110692415.287 8                  20685508.432
        50.500
 195146028.525 7                  37135052.506
        47.250
 129554699.644 6                  24653439.561
        41.000
 112829395.849 7  87919067.03146  21470707.618    21470707.176    21470708.598
        47.250          39.000
 124079752.536 7                  23252492.574
        44.000
 128810128.138 7                  24511727.560
        47.000
 111242897.236 8                  20824899.669
        50.250
 113863068.358 7  88724485.78146  21667413.248    21667413.052    21667412.240
        47.250          38.000
 21 10 21  0  4  0.0000000  0 26G31G16G32G04S25G29E30E02E05R03E03S23
                                R23G27S48G25R22E11R21S36E08G26R02E25
                                R12G18
 106959495.560 8  83345072.83649  20353707.078    20353706.788    20353704.736
        51.250          56.250
 124618704.871 6  97105479.92143  23714146.297    23714145.417    23714144.155
        38.500          22.000
 123008255.988 7  95850618.45045  23407689.385    23407689.292    23407691.511
        43.000          30.500
 133495363.424 6 104022360.17743  25403324.080    25403323.870    25403323.071
        36.500          18.750
 183504537.474 7                  34919605.119
        46.250
 117554125.478 7  91600672.24747  22369782.007    22369781.534    22369780.178
        46.250          47.250
 143674677.533 5                  27340381.617
        35.750
 129051230.673 7                  24557617.149
        46.750
 150560265.041 5                  28650666.323
        33.250
 129988793.686 6                  24282998.998
        40.000
 139004522.813 7                  26451675.718
        42.250
 204017236.402 7                  38823183.112
        43.750
 123604631.475 7                  23106580.369
        46.250
 127295018.687 6  99190945.34444  24223431.143    24223430.544    24223433.462
        38.500          28.000
  30859254.608 7                   5872084.329
        43.750
 124337783.300 6  96886654.60946  23660673.335    23660672.513    23660674.893
        40.500          39.500
 102855135.080 7                  19268225.453
        42.750
 122936863.488 7                  23394079.958
        42.500
 110772812.114 8                  20700533.112
        51.000
 195146038.184 7                  37135053.753
        47.500
 129577109.223 6                  24657704.115
        41.250
 112791655.871 7  87889659.25846  21463526.038    21463525.600    21463526.998
        47.500          39.000
 124143844.811 7                  23264503.745
        43.750
 128821513.194 7                  24513894.200
        47.000
 111176010.548 8                  20812378.464
        50.500
 113808513.433 7  88681975.47246  21657031.823    21657031.627    21657030.836
        47.250          38.000
 21 10 21  0  4 30.0000000  0 26G31G16G32G04S25G29E30E02E05R03E03S23
                                R23G27S48G25R22E11R21S36E08G26R02E25
                                R12G18
 106948394.208 8  83336422.42549  20351594.432    20351594.142    20351592.320
        51.250          56.500
 124555187.840 6  97055986.13443  23702059.366    23702058.477    23702057.655
        38.250          21.750
 123101642.073 7  95923386.74145  23425460.638    23425460.549    23425463.035
        44.000          31.750
 133430803.025 5 103972053.41843  25391038.023    25391037.827    25391038.326
        33.750          18.000
 183501578.041 7                  34918953.054
        46.250
 117639370.496 7  91667096.92947  22386003.606    22386003.128    22386001.718
        45.750          47.000
 143624083.248 6                  27330753.957
        36.000
 129019592.126 7                  24551596.513
        46.500
 150630910.292 5                  28664109.166
        30.250
 129983844.610 6                  24282074.111
        39.500
 139074831.812 7                  26465054.959
        42.000
 204017153.350 7                  38823167.573
        43.500
 123472290.923 7                  23081839.548
        44.250
 127197325.503 6  99114820.80044  24204841.143    24204840.535    24204843.339
        38.500          27.500
  30858372.804 7                   5872116.377
        43.500
 124402181.564 6  96936835.06846  23672927.604    23672926.773    23672928.709
        39.750          38.250
 102820235.591 7                  19261687.882
        43.000
 122960081.077 7                  23398498.060
        42.500
 110853813.841 8                  20715669.892
        51.000
 195146051.609 7                  37135057.639
        47.000
 129599869.515 6                  24662035.180
        41.500
 112754023.828 7  87860335.59246  21456364.693    21456364.260    21456366.043
        47.500          39.250
 124208313.464 7                  23276585.578
        44.250
 128832965.552 7                  24516073.606
        47.000
 111109219.106 8                  20799874.781
        50.750
 113754396.460 7  88639806.42646  21646733.601    21646733.396    21646732.528
        46.750          38.000
 21 10 21  0  5  0.0000000  0 26G31G16G32G04S25G29E30E02E05R03E03S23
                                R23G27S48G25R22E11R21S36E08G26R02E25
                                R12G18
 106937742.399 8  83328122.30249  20349567.551    20349567.261    20349565.315
        51.250          56.500
 124491720.988 6  97006531.46043  23689981.786    23689980.861    23689979.127
        38.750          22.250
 123195054.019 7  95996175.20245  23443236.303    23443236.205    23443238.379
        43.750          31.500
 133366628.141 6 103922046.96543  25378825.526    25378825.348    25378824.692
        36.750          20.500
 183497001.746 7                  34918295.757
        46.000
 117724785.432 7  91733654.02447  22402257.732    22402257.250    22402255.199
        46.250          46.750
 143573411.184 6                  27321111.034
        36.000
 128987936.414 7                  24545572.676
        46.250
 150701329.464 5                  28677509.519
        32.500
 129979509.816 6                  24281263.591
        38.750
 139145198.360 6                  26478444.932
        41.500
 204017056.118 7                  38823148.435
        43.750
 123340098.120 7                  23057127.824
        44.000
 127099832.047 6  99038851.96844  24186288.331    24186287.732    24186291.409
        37.500          28.000
  30859077.432 7                   5872146.136
        43.750
 124466615.617 6  96987043.40746  23685188.859    23685188.041    23685189.361
        40.250          37.250
 102786137.242 7                  19255300.270
        43.000
 122983705.136 7                  23402993.425
        42.500
 110935396.097 8                  20730915.342
        50.500
 195146056.202 7                  37135057.840
        47.500
 129622959.492 6                  24666428.953
        40.750
 112716480.083 7  87831080.72846  21449220.586    21449220.153    21449221.781
        47.250          39.500
 124273134.539 7                  23288731.746
        42.750
 128844466.020 7                  24518261.815
        47.250
 111042504.944 8                  20787386.011
        50.500
 113700700.117 7  88597965.14146  21636515.744    21636515.539    21636514.325
        47.000          38.000
 21 10 21  0  5 30.0000000  0 27G31G16G32G04S25G29E30R13E02E05R03E03
                                S23R23G27S48G25R22E11R21S36E08G26R02
                                E25R12G18
 106927554.859 8  83320183.94649  20347628.917    20347628.627    20347626.751
        51.000          56.250
 124428316.859 6  96957125.66143  23677917.424    23677916.512    23677914.511
        38.500          21.750
 123288502.119 7  96068991.83345  23461019.020    23461018.913    23461020.448
        43.250          30.500
 133302853.899 6 103872352.78643  25366689.257    25366689.088    25366690.422
        36.000          21.000
 183494018.056 7                  34917639.269
        46.500
 117810381.154 7  91800351.99747  22418546.101    22418545.619    22418543.527
        46.000          46.250
 143522674.292 6                  27311456.353
        37.000


 128956277.095 7                  24539548.123
        46.750
 150771534.920 5                  28690867.991
        33.250
 129975802.148 6                  24280571.264
        40.000
 139215633.754 6                  26491848.485
        41.750
 204016961.795 7                  38823130.727
        43.750
 123208070.498 7                  23032446.918
        45.500
 127002552.901 6  98963050.12444  24167777.212    24167776.618    24167779.102
        37.000          27.250
  30859783.208 7                   5872175.962
        43.750
 124531098.989 6  97037290.19446  23697459.958    23697459.140    23697460.799
        40.250          38.500
 102752854.455 7                  19249065.453
        42.750
 123007748.280 7                  23407568.586
        42.750
 111017568.775 8                  20746271.782
        50.750
 195146062.497 7                  37135058.869
        47.500
 129646391.266 6                  24670887.825
        41.500
 112679038.131 7  87801905.18046  21442095.563    21442095.130    21442096.939
        47.250          39.000
 124338317.690 7                  23300946.605
        42.750
 128856028.618 7                  24520462.202
        47.250
 110975883.626 8                  20774913.956
        50.250
 113647440.191 7  88556463.92446  21626380.745    21626380.544    21626379.495
        46.500          37.750
 21 10 21  0  6  0.0000000  0 27G31G16G32G04S25G29E30R13E02E05R03E03
                                S23R23G27S48G25R22E11R21S36E08G26R02
                                E25R12G18
 106917841.828 8  83312615.34049  20345780.626    20345780.336    20345778.625
        51.000          56.500
 124364984.827 6  96907776.04943  23665864.847    23665863.944    23665862.343
        39.750          22.750
 123381992.544 7  96141841.44345  23478809.310    23478809.181    23478811.205
        43.250          31.250
 133239491.194 6 103822979.24243  25354632.147    25354631.951    25354632.517
        36.500          20.500
 183491032.880 7                  34916982.718
        46.750
 117896164.047 7  91867195.80347  22434869.905    22434869.418    22434868.164
        45.750          46.500
 143471881.418 6                  27301790.798
        36.000


 128924623.587 7                  24533524.573
        46.250
 150841534.141 5                  28704189.031
        34.250
 129972729.872 6                  24279998.309
        38.750
 139286144.991 6                  26505266.375
        41.000
 204016878.681 7                  38823115.725
        44.000
 123076220.936 7                  23007798.075
        44.750
 126905498.684 6  98887423.59544  24149307.789    24149307.181    24149310.344
        38.250          27.000
  30858897.167 7                   5872206.914
        44.000
 124595641.144 6  97087582.76846  23709742.026    23709741.199    23709743.425
        39.250          38.750
 102720397.870 7                  19242984.937
        42.500
 123032218.961 7                  23412225.532
        42.750
 111100337.069 8                  20761738.433
        50.500
 195146078.804 7                  37135061.731
        47.500
 129670172.785 6                  24675413.268
        40.500
 112641707.276 7  87772816.19946  21434991.807    21434991.374    21434993.149
        46.750          39.250
 124403867.421 7                  23313231.515
        43.750
 128867663.146 7                  24522676.039
        47.250
 110909366.783 8                  20762461.720
        50.000
 113594628.247 7  88515311.78646  21616330.805    21616330.609    21616329.662
        46.750          38.000
 21 10 21  0  6 30.0000000  0 27G31G16G32G04S25G29E30R13E02E05R03E03
                                S23R23G27S48G25R22E11R21S36E08G26R02
                                E25R12G18
 106908589.420 8  83305405.66249  20344019.933    20344019.643    20344017.999
        51.250          56.250
 124301709.542 6  96858470.65043  23653824.201    23653823.347    23653821.632
        39.750          23.000
 123475507.240 7  96214709.95744  23496604.731    23496604.606    23496606.497
        43.000          29.750
 133176526.713 6 103773916.00343  25342651.182    25342650.981    25342650.621
        37.500          20.000
 183488034.925 7                  34916322.702
        46.250
 117982116.431 7  91934171.68047  22451226.327    22451225.836    22451224.291
        45.750          46.250
 143421017.236 6                  27292111.712
        36.500


 128892961.156 7                  24527499.261
        47.000
 150911310.970 5                  28717466.842
        33.500
 129970277.240 6                  24279540.353
        40.000
 139356715.015 6                  26518695.419
        41.750
 204016789.308 7                  38823097.230
        43.500
 122944538.005 7                  22983181.523
        44.250
 126808655.663 6  98811961.59444  24130879.535    24130878.932    24130881.669
        37.250          26.500
  30859604.500 7                   5872238.462
        43.500
 124660227.328 6  97137909.63946  23722032.416    23722031.594    23722033.255
        39.750          37.000
 102688752.968 7                  19237056.490
        42.750
 123057101.370 7                  23416960.413
        42.750
 111183681.782 8                  20777313.339
        50.250
 195146088.970 7                  37135062.880
        47.000
 129694287.730 6                  24680002.324
        41.500
 112604472.707 7  87743802.25346  21427906.147    21427905.709    21427907.470
        47.250          39.000
 124469764.991 7                  23325581.109
        44.250
 128879355.254 8                  24524901.046
        48.000
 110842941.171 8                  20750027.041
        50.500
 113542251.772 7  88474498.96846  21606363.624    21606363.419    21606362.644
        47.000          37.750
 21 10 21  0  7  0.0000000  0 27G31G16G32G04S25G29E30R13E02E05R03E03
                                S23R23G27S48G25R22E11R21S36E08G26R02
                                E25R12G18
 106899809.772 8  83298564.36749  20342349.405    20342349.115    20342347.084
        51.000          56.250
 124238501.406 6  96809217.56543  23641796.109    23641795.269    23641793.915
        40.250          23.750
 123569054.319 7  96287603.73345  23514406.377    23514406.248    23514407.503
        43.500          30.250
 133113973.354 5 103725173.08743  25330747.792    25330747.591    25330746.111
        35.500          19.750
 183483435.198 7                  34915663.737
        46.000
 118068247.712 7  92001286.96447  22467616.474    22467615.978    22467614.321
        46.000          46.250
 143370092.471 6                  27282420.481
        36.250
 130218584.55815                  24385758.043
        31.000
 128861301.222 7                  24521474.817
        46.750
 150980875.091 5                  28730705.173
        32.750
 129968454.374 6                  24279200.319
        40.000
 139427352.872 6                  26532137.428
        40.750
 204016704.433 7                  38823082.461
        43.500
 122813036.723 7                  22958599.736
        46.000
 126712036.340 6  98736673.88144  24112493.044    24112492.436    24112495.055
        38.250          27.000
  30860316.758 7                   5872269.025
        43.750
 124724868.965 6  97188279.75546  23734333.484    23734332.666    23734333.893
        39.750          37.500
 102657932.298 7                  19231283.183
        42.500
 123082405.859 7                  23421775.559
        42.500
 111267610.424 8                  20792997.875
        50.750
 195146105.833 7                  37135066.399
        47.250
 129718746.024 6                  24684656.583
        41.500
 112567345.778 7  87714872.18746  21420841.231    21420840.798    21420842.422
        47.500          39.750
 124536017.642 7                  23337994.954
        42.000
 128891116.770 7                  24527139.169
        47.500
 110776620.448 8                  20737612.191
        50.250
 113490324.308 7  88434036.02946  21596482.366    21596482.165    21596480.837
        47.000          37.750
 21 10 21  0  7 30.0000000  0 27G31G16G32G04S25G29E30R13E02E05R03E03
                                S23R23G27S48G25R22E11R21S36E08G26R02
                                E25R12G18
 106891493.277 8  83292083.97449  20340766.750    20340766.460    20340764.398
        50.750          56.250
 124175349.797 6  96760008.53343  23629778.570    23629777.734    23629776.425
        39.750          23.750
 123662620.193 7  96360512.11044  23532211.773    23532211.644    23532213.678
        42.000          29.250
 133051822.072 5 103676743.56943  25318919.425    25318919.224    25318921.509
        35.750          21.000
 183480425.596 7                  34915003.368
        46.750
 118154544.242 7  92068531.00947  22484038.225    22484037.729    22484036.002
        45.250          45.750
 143319096.255 6                  27272716.776
        36.000
 130126771.744 5                  24368566.046
        31.750
 128829633.483 7                  24515448.559
        46.500
 151050215.036 5                  28743899.414
        34.250
 129967249.633 6                  24278973.614
        39.750
 139498045.868 6                  26545589.746
        40.250
 204016615.345 7                  38823064.279
        43.500
 122681710.024 7                  22934049.043
        45.500
 126615631.568 6  98661553.35844  24094148.131    24094147.505    24094150.572
        39.250          27.000
  30859424.751 7                   5872301.064
        43.500
 124789555.714 6  97238685.02446  23746642.924    23746642.106    23746643.814
        40.250          38.750
 102627926.209 7                  19225661.454
        42.500
 123108121.237 7                  23426669.215
        42.000
 111352108.010 8                  20808787.933
        50.250
 195146116.026 7                  37135068.751
        47.000
 129743535.799 6                  24689373.822
        40.750
 112530316.099 7  87686017.89946  21413794.733    21413794.304    21413796.317
        47.750          40.000
 124602609.704 7                  23350475.975
        44.250
 128902937.763 7                  24529388.764
        47.000
 110710395.993 8                  20725214.523
        50.500
 113438837.669 7  88393916.59346  21586684.848    21586684.652    21586683.427
        46.750          38.000
 21 10 21  0  8  0.0000000  0 27G31G16G32G04S25G29E30R13E02E05R03E03
                                S23R23G27S48G25R22E11R21S36E08G26R02
                                E25R12G18
 106883650.898 8  83285973.01949  20339274.363    20339274.073    20339272.213
        51.000          56.250
 124112264.645 6  96710851.29644  23617774.013    23617773.173    23617771.961
        39.750          24.000
 123756211.721 7  96433440.50944  23550021.084    23550020.968    23550023.212
        42.000          29.750
 132990084.327 5 103628636.22943  25307172.419    25307172.205    25307171.704
        35.750          19.750
 183477417.952 7                  34914340.137
        44.750
 118241013.703 7  92135909.80747  22500492.757    22500492.261    22500490.643
        45.500          46.000
 143268038.080 6                  27263000.459
        36.500
 130034791.381 5                  24351339.731
        32.000
 128797967.993 7                  24509422.825
        46.250
 151119339.052 5                  28757052.310
        30.500
 129966672.142 6                  24278865.271
        38.750
 139568801.715 6                  26559054.147
        40.250
 204016532.637 7                  38823048.543
        43.500
 122550571.675 7                  22909532.864
        44.500
 126519452.451 6  98586608.63844  24075845.121    24075844.531    24075847.559
        39.750          27.000
  30860135.893 7                   5872332.428
        43.250
 124854297.623 6  97289133.27446  23758962.721    23758961.908    23758963.724
        39.250          37.250
 102598745.267 7                  19220194.944
        42.250
 123134256.434 7                  23431642.618
        42.250
 111437180.765 8                  20824686.010
        51.000
 195146127.245 7                  37135072.677
        47.250
 129768665.571 6                  24694156.093
        40.500
 112493393.629 7  87657247.14446  21406768.360    21406767.931    21406770.177
        47.500          39.750
 124669548.196 7                  23363020.249
        44.000
 128914828.710 7                  24531651.325
        47.000
 110644279.960 8                  20712837.220
        50.000
 113387804.052 7  88354150.15646  21576973.523    21576973.340    21576972.180
        47.000          38.000
 21 10 21  0  8 30.0000000  0 27G31G16G32G04S25G29E30R13E02E05R03E03
                                S23R23G27S48G25R22E11R21S36E08G26R02
                                E25R12G18
 106876270.204 8  83280221.82049  20337869.755    20337869.465    20337867.873
        51.000          56.500
 124049231.478 6  96661734.56044  23605779.527    23605778.687    23605777.267
        40.500          24.500
 123849812.542 7  96506376.12244  23567832.863    23567832.747    23567835.442
        42.000          28.750
 132928748.472 5 103580842.06543  25295500.085    25295499.907    25295500.094
        34.500          19.250
 183472793.547 7                  34913675.806
        46.500
 118327640.006 7  92203410.82047  22516977.060    22516976.564    22516975.413
        45.750          46.500
 143216904.156 6                  27253270.306
        36.000
 129942630.591 5                  24334079.165
        30.250
 128766291.616 7                  24503395.047
        46.500
 151188232.335 5                  28770162.768
        34.250
 129966707.166 6                  24278871.985
        39.000
 139639604.921 6                  26572527.505
        40.500
 204016440.179 7                  38823029.780
        43.500
 122419611.600 7                  22885051.655
        45.750
 126423486.979 6  98511830.41544  24057583.688    24057583.125    24057586.164
        40.500          27.250
  30860836.866 7                   5872361.798
        43.500
 124919081.576 6  97339614.25046  23771290.430    23771289.608    23771292.225
        40.250          38.500
 102570376.620 7                  19214880.569
        42.750
 123160797.257 7                  23436692.958
        42.500
 111522810.854 8                  20840687.949
        50.500
 195146138.444 7                  37135074.045
        47.250
 129794120.625 6                  24699000.090
        40.500
 112456565.172 7  87628549.64546  21399760.280    21399759.860    21399761.508
        47.750          39.500
 124736815.239 7                  23375626.584
        44.750
 128926776.869 7                  24533924.904
        47.000
 110578261.102 8                  20700478.613
        50.250
 113337212.401 7  88314728.11546  21567346.088    21567345.905    21567344.916
        47.250          38.250
 21 10 21  0  9  0.0000000  0 27G31G16G32G04S25G29E30R13E02E05R03E03
                                S23R23G27S48G25R22E11R21S36E08G26R02
                                E25R12G18
 106869363.249 8  83274839.77249  20336555.469    20336555.174    20336553.386
        51.250          56.500
 123986261.322 6  96612666.92844  23593796.407    23593795.549    23593794.258
        40.250          24.750
 123943430.519 6  96579325.11044  23585647.660    23585647.549    23585650.105
        41.000          28.250
 132867826.952 5 103533370.80043  25283908.000    25283907.817    25283907.251
        35.000          18.250
 183469766.597 7                  34913008.206
        46.500
 118414431.836 7  92271040.80647  22533493.197    22533492.710    22533491.633
        45.000          46.750
 143165705.228 6                  27243527.471
        37.500
 129850300.927 5                  24316792.683
        31.250
 128734615.638 7                  24497367.392
        46.750
 151256904.707 4                  28783230.446
        29.750
 129967364.959 6                  24278995.264
        37.750
 139710464.342 6                  26586011.960
        40.250
 204016350.437 7                  38823014.648
        43.500
 122288844.872 7                  22860607.015
        46.750
 126327747.447 6  98437228.22644  24039365.123    24039364.538    24039367.030
        41.250          27.250
  30859941.566 7                   5872393.895
        43.750
 124983918.805 6  97390136.73846  23783628.508    23783627.686    23783630.066
        40.000          38.750
 102542832.219 7                  19209720.883
        42.500
 123187753.811 7                  23441822.856
        42.250
 111609005.440 8                  20856795.543
        50.750
 195146153.989 7                  37135074.636
        47.250
 129819910.638 6                  24703907.542
        40.750
 112419841.936 7  87599934.14546  21392772.344    21392771.915    21392773.314
        47.750          40.000
 124804416.680 7                  23388295.292
        44.250
 128938793.893 7                  24536211.798
        47.000
 110512352.696 8                  20688140.148
        50.750
 113287076.053 7  88275660.85346  21557805.339    21557805.156    21557804.070
        47.500          38.500
 21 10 21  0  9 30.0000000  0 27G31G16G32G04S25G29E30R13E02E05R03E03
                                S23R23G27S48G25R22E11R21S36E08G26R02
                                E25R12G18
 106862929.439 8  83269826.41049  20335331.198    20335330.908    20335328.877
        51.000          56.500
 123923352.434 6  96563647.03144  23581825.179    23581824.357    23581823.174
        40.500          24.750
 124037061.244 6  96652284.02144  23603465.250    23603465.143    23603467.893
        41.500          28.500
 132807320.128 5 103486222.65543  25272393.218    25272393.026    25272393.440
        35.000          19.500
 183466731.242 7                  34912341.420
        46.250
 118501385.159 7  92338796.63047  22550039.543    22550039.061    22550038.000
        45.250          46.000
 143114439.420 6                  27233772.017
        36.250
 129757801.921 4                  24299467.422
        29.000
 128702938.905 7                  24491339.365
        46.750
 151325353.902 5                  28796256.763
        31.250
 129968642.913 6                  24279232.995
        38.250
 139781376.501 6                  26599505.804
        40.250
 204016260.219 7                  38822997.719
        43.500
 122158273.587 7                  22836197.586
        46.750
 126232233.732 6  98362802.01044  24021189.676    24021189.073    24021191.646
        40.500          27.750
  30860644.569 7                   5872424.517
        43.500
 125048808.119 6  97440699.83146  23795977.036    23795976.218    23795978.179
        40.000          38.750
 102516111.374 7                  19204714.364
        42.250
 123215123.860 6                  23447030.997
        41.750
 111695758.963 8                  20873007.681
        50.750
 195146161.397 7                  37135077.082
        47.000
 129846032.849 6                  24708878.245
        40.750
 112383222.713 7  87571399.68846  21385803.548    21385803.119    21385805.091
        47.750          40.250
 124872347.797 7                  23401023.847
        44.000
 128950879.037 7                  24538511.715
        46.750
 110446555.498 8                  20675822.863
        50.500
 113237395.895 7  88236949.06446  21548351.527    21548351.340    21548350.447
        47.500          38.750
 21 10 21  0 10  0.0000000  0 27G31G16G32G04S25G29E30R13E02E05R03E03
                                S23R23G27S48G25R22E11R21S36E08G26R02
                                E25R12G18
 106856965.485 8  83265179.17749  20334196.349    20334196.054    20334194.006
        51.250          56.500
 123860500.274 6  96514671.34644  23569864.792    23569863.970    23569862.491
        39.500          24.000
 124130697.339 6  96725247.12044  23621283.233    23621283.135    23621285.981
        41.000          27.250
 132747225.052 5 103439395.32143  25260957.956    25260957.720    25260956.984
        34.750          18.250
 183462084.526 7                  34911669.599
        46.750
 118588493.058 7  92406672.91747  22566615.794    22566615.303    22566613.670
        44.750          45.750
 143063102.083 6                  27224002.391
        37.250
 129665129.647 5                  24282113.270
        30.000
 128671257.330 7                  24485310.491
        46.750
 151393574.062 5                  28809238.163
        32.000
 129970535.642 6                  24279587.986
        38.250
 139852334.861 6                  26613008.844
        40.750
 204016167.179 7                  38822981.125
        43.750
 122027897.034 7                  22811824.318
        45.250
 126136942.717 6  98288549.32244  24003056.491    24003055.892    24003057.879
        40.250          27.750
  30861340.745 7                   5872453.645
        43.750
 125113745.424 6  97491300.31946  23808334.260    23808333.447    23808335.459
        39.250          38.250
 102490210.298 7                  19199863.408
        42.750
 123242902.174 7                  23452316.970
        42.000
 111783063.068 8                  20889322.054
        50.250
 195146169.899 7                  37135078.875
        47.500
 129872481.497 6                  24713911.662
        41.000
 112346703.296 7  87542943.00746  21378854.312    21378853.883    21378855.599
        47.500          40.000
 124940599.356 7                  23413815.244
        43.500
 128963028.560 7                  24540823.612
        47.000
 110380867.470 8                  20663525.888
        50.750
 113188169.840 7  88198591.12046  21538984.114    21538983.931    21538983.113
        47.250          38.750
 21 10 21  0 10 30.0000000  0 28G31G16E07G32G04S25G29E30R13E02E05R03
                                E03S23R23G27S48G25R22E11R21S36E08G26
                                R02E25R12G18
 106851480.952 8  83260905.51549  20333152.616    20333152.326    20333150.495
        51.000          57.000
 123797713.113 6  96465746.29444  23557916.958    23557916.113    23557913.989
        39.000          24.000


 124224344.480 7  96798218.83444  23639104.181    23639104.092    23639106.850
        42.000          29.000
 132687551.864 5 103392896.74843  25249601.485    25249601.226    25249601.312
        34.250          18.500
 183459034.441 7                  34910998.042
        46.500
 118675761.839 7  92474674.56347  22583222.410    22583221.914    22583220.168
        44.750          45.750
 143011701.530 6                  27214221.458
        37.500
 129572293.680 4                  24264726.845
        26.750
 128639579.828 7                  24479282.500
        46.750
 151461572.364 6                  28822177.974
        37.000
 129973050.648 6                  24280058.198
        39.000
 139923345.983 6                  26626521.952
        40.750
 204016080.838 7                  38822963.350
        43.500
 121897727.825 7                  22787491.128
        45.750
 126041884.359 6  98214477.92944  23984966.914    23984966.342    23984968.444
        40.250          27.500
  30860442.804 7                   5872485.845
        43.500
 125178739.551 6  97541945.08246  23820701.863    23820701.054    23820703.108
        39.250          37.250
 102465138.470 7                  19195166.058
        42.750
 123271096.516 7                  23457682.095
        42.250
 111870922.440 8                  20905740.878
        50.500
 195146181.382 7                  37135081.052
        47.250
 129899263.921 6                  24719008.142
        41.000
 112310292.578 7  87514571.02146  21371925.221    21371924.792    21371926.713
        47.250          40.250
 125009176.026 7                  23426666.315
        43.250
 128975251.757 7                  24543149.542
        46.750
 110315299.507 8                  20651251.542
        50.500
 113139408.781 7  88160595.51046  21529705.379    21529705.210    21529704.134
        47.000          39.000
 21 10 21  0 11  0.0000000  0 28G31G16E07G32G04S25G29E30R13E02E05R03
                                E03S23R23G27S48G25R22E11R21S36E08G26
                                R02E25R12G18
 106846472.682 8  83257002.96349  20332199.522    20332199.227    20332197.543
        51.250          56.500
 123734986.796 6  96416868.65944  23545980.634    23545979.785    23545978.187
        39.750          24.250


 124317995.744 6  96871193.74844  23656925.319    23656925.230    23656927.647
        41.750          27.500
 132628298.148 5 103346725.03443  25238325.685    25238325.426    25238325.722
        34.000          18.250
 183455244.23417                  34910323.869
        46.750
 118763185.074 7  92542796.55947  22599858.580    22599858.084    22599856.701
        44.750          46.250
 142960233.507 6                  27204427.520
        36.250
 129479291.029 4                  24247313.838
        28.500
 128607902.774 7                  24473254.537
        46.500
 151529343.577 5                  28835074.554
        34.500
 129976183.005 6                  24280643.303
        38.750
 139994403.795 6                  26640044.033
        40.500
 204015995.461 7                  38822946.179
        43.500
 121767765.635 7                  22763195.776
        46.500
 125947055.945 6  98140585.70044  23966921.867    23966921.273    23966922.961
        40.750          27.500
  30861147.973 7                   5872513.896
        43.500
 125243786.859 6  97592631.29946  23833079.956    23833079.152    23833080.904
        39.000          37.250
 102440892.334 7                  19190623.954
        42.750
 123299702.094 7                  23463125.467
        42.250
 111959328.879 8                  20922261.788
        50.250
 195146191.875 7                  37135085.063
        47.250
 129926374.778 6                  24724167.093
        40.750
 112273986.807 7  87486280.81146  21365016.620    21365016.200    21365018.481
        47.250          40.250
 125078070.701 7                  23439577.444
        43.500
 128987545.375 7                  24545489.040
        47.000
 110249850.112 8                  20638999.127
        50.500
 113091111.083 7  88122960.95946  21520514.402    21520514.233    21520513.287
        47.250          38.500
 21 10 21  0 11 30.0000000  0 28G31G16E07G32G04S25G29E30R13E02E05R03
                                E03S23R23G27S48G25R22E11R21S36E08G26
                                R02E25R12G18
 106841934.395 8  83253466.62949  20331335.978    20331335.683    20331333.863
        51.250          56.500
 123672313.458 6  96368032.30644  23534054.055    23534053.206    23534052.048
        39.750          24.000


 124411640.908 7  96944163.91844  23674745.739    23674745.646    23674747.989
        42.000          28.750
 132569458.165 6 103300875.72743  25227128.596    25227128.351    25227128.735
        36.250          19.250
 183452172.385 7                  34909648.345
        46.000
 118850752.733 7  92611031.08547  22616522.251    22616521.764    22616520.573
        44.500          46.000
 142908690.378 6                  27194619.201
        36.750
 129386114.633 4                  24229864.571
        28.750
 128576219.232 7                  24467225.467
        46.500
 151596878.711 4                  28847925.347
        28.250
 129979923.805 6                  24281343.159
        40.500
 140065498.994 6                  26653572.760
        40.250
 204015902.090 7                  38822929.352
        43.750
 121638006.659 7                  22738938.509
        45.500
 125852451.534 6  98066868.01544  23948918.771    23948918.181    23948920.701
        40.500          27.750
  30861843.935 7                   5872545.054
        43.500
 125308880.376 6  97643353.50546  23845467.135    23845466.335    23845468.148
        40.000          38.250
 102417465.153 7                  19186234.959
        42.500
 123328710.759 7                  23468645.936
        42.000
 112048271.084 8                  20938882.744
        50.500
 195146208.022 7                  37135086.790
        47.250
 129953805.510 6                  24729387.307
        41.250
 112237779.003 7  87458066.94046  21358126.858    21358126.429    21358128.542
        47.250          40.250
 125147270.658 7                  23452545.829
        44.000
 128999902.865 7                  24547840.331
        47.000
 110184513.916 8                  20626768.197
        51.000
 113043271.785 7  88085683.60446  21511410.805    21511410.640    21511409.627
        47.500          38.500
 21 10 21  0 12  0.0000000  0 28G31G16E07G32G04S25G29E30R13E02E05R03
                                E03S23R23G27S48G25R22E11R21S36E08G26
                                R02E25R12G18
 106837876.512 8  83250304.63949  20330563.899    20330563.604    20330561.663
        51.500          56.750
 123609702.515 6  96319244.56243  23522140.084    23522139.239    23522137.186
        40.250          23.750


 124505286.474 7  97017134.39144  23692566.291    23692566.193    23692568.187
        42.000          28.000
 132511043.107 5 103255357.50343  25216013.194    25216012.953    25216013.010
        34.500          18.500
 183449099.857 7                  34908972.473
        46.750
 118938472.345 7  92679384.02447  22633214.614    22633214.127    22633212.725
        45.250          45.250
 142857081.367 6                  27184798.080
        36.750
 129292774.625 5                  24212384.904
        30.000
 128544538.950 7                  24461196.767
        47.000
 151664186.905 5                  28860733.615
        31.250
 129984281.535 6                  24282156.513
        39.000
 140136638.900 6                  26667110.638
        40.750
 204015812.090 7                  38822911.130
        44.000
 121508464.182 7                  22714721.279
        44.500
 125758081.877 6  97993333.26144  23930961.152    23930960.594    23930962.374
        39.000          27.000
  30860941.088 7                   5872575.515
        44.000
 125374029.770 6  97694119.25446  23857864.451    23857863.651    23857865.784
        40.000          38.250
 102394867.238 7                  19182001.735
        42.750
 123358131.043 7                  23474244.251
        42.250
 112137754.258 8                  20955604.755
        50.000
 195146222.106 7                  37135088.721
        47.500
 129981564.106 7                  24734669.520
        42.000
 112201678.844 7  87429936.95846  21351257.024    21351256.591    21351258.802
        47.750          40.250
 125216782.290 7                  23465570.961
        43.250
 129012334.335 7                  24550206.159
        47.500
 110119303.149 8                  20614560.590
        51.000
 112995902.538 7  88048772.52346  21502396.684    21502396.524    21502395.596
        47.250          38.500
 21 10 21  0 12 30.0000000  0 28G31G16E07G32G04S25G29E30R13E02E05R03
                                E03S23R23G27S48G25R22E11R21S36E08G26
                                R02E25R12G18
 106834294.888 8  83247513.75649  20329882.204    20329881.905    20329880.112
        51.500          56.750
 123547148.605 6  96270501.26544  23510236.029    23510235.175    23510234.129
        39.750          24.250


 124598924.519 6  97090099.01444  23710385.059    23710384.970    23710387.067
        41.750          29.000
 132453049.430 5 103210167.67342  25204977.252    25204977.007    25204977.815
        35.000          17.500
 183444419.944 7                  34908295.460
        46.000
 119026336.390 7  92747849.51247  22649934.432    22649933.941    22649932.501
        45.000          45.000
 142805401.249 6                  27174963.740
        36.750
 129199267.441 5                  24194873.862
        32.250
 128512857.360 7                  24455167.952
        46.500
 151731261.365 5                  28873498.354
        33.250
 129989249.872 6                  24283083.536
        37.750
 140207816.511 6                  26680655.208
        40.500
 204015721.582 7                  38822894.755
        43.500
 121379137.049 7                  22690545.471
        45.500
 125663943.305 6  97919978.59644  23913046.846    23913046.288    23913048.728
        39.500          27.500
  30861635.052 7                   5872605.559
        43.750
 125439230.423 6  97744924.95846  23870271.467    23870270.658    23870272.905
        39.250          38.250
 102373093.938 7                  19177922.752
        42.750
 123387957.129 7                  23479919.980
        42.250
 112227769.457 8                  20972426.142
        50.000
 195146230.477 7                  37135091.780
        47.250
 130009644.299 6                  24740012.940
        41.000
 112165681.651 7  87401887.20546  21344406.929    21344406.500    21344408.612
        47.750          40.250
