     2.11           OBSERVATION DATA    M (MIXED)           RINEX VERSION / TYPE
teqc  2019Feb25                         20230504 17:05:55UTCPGM / RUN BY / DATE
Linux2.6.32-573.12.1.el6.x86_64|x86_64|gcc|Win64-MinGW64|=+ COMMENT
BIT 2 OF LLI FLAGS DATA COLLECTED UNDER A/S CONDITION       COMMENT
CVBB                                                        MARKER NAME
CVBB                                                        MARKER NUMBER
RFGH                SEGAL                                   OBSERVER / AGENCY
3055330             SEPT POLARX5        5.3.2               REC # / TYPE / VERS
1909270038          TWIVP6050_CONE  NONE                    ANT # / TYPE
  6378137.0000        0.0000        0.0000                  APPROX POSITION XYZ
        0.1190        0.0000        0.0000                  ANTENNA: DELTA H/E/N
     1     1                                                WAVELENGTH FACT L1/2
     7    L1    L2    C1    P1    P2    S1    S2            # / TYPES OF OBSERV
    18                                                      LEAP SECONDS
 SNR is mapped to RINEX snr flag value [0-9]                COMMENT
  L1 & L2: min(max(int(snr_dBHz/6), 0), 9)                  COMMENT
  2021    10    20    10    14    0.0000000     GPS         TIME OF FIRST OBS
                                                            END OF HEADER
 21 10 20 10 14  0.0000000  0 24G01G17G03G04R04G06G07G19G09S23R24E04
                                R17S48E12S25E19E26S36R02R18R03G28G14
 122203284.46716  95223352.49756  23254512.326    23254512.264    23254514.980
        41.500          41.000
 107868175.36718  84053119.93957  20526631.369    20526631.097    20526630.221
        49.250          43.500
 120811366.83216  94138736.69957  22989638.660    22989638.709    22989640.806
        41.750          42.250
 110285921.48017  85937083.83756  20986713.200    20986713.057    20986713.170
        47.250          39.500
 114972013.19918                  21470212.138
        49.250
 116955537.12217  91134193.96056  22255898.431    22255898.453    22255900.562
        44.750          36.000
 129234193.43916 100701991.24856  24592449.014    24592448.903    24592454.932
        39.000          36.500
 107787803.11218  83990485.63156  20511337.269    20511336.169    20511334.086
        48.250          41.750
 107535580.00518  83793963.15159  20463340.585    20463340.085    20463341.441
        51.000          56.000
 203886918.17917                  38798391.882
        43.500
 125152966.32217                  23404234.962
        44.250
 139073205.78317                  26464751.141
        42.500
 104311778.05718                  19493149.321
        53.250
  30708369.37217                   5843659.816
        43.500
 120796343.72917                  22986780.143
        43.750
 179820091.26918                  34218633.594
        48.750
 121276860.36617                  23078219.203
        43.750
 138512559.56416                  26358064.086
        41.500
 195093433.84517                  37125047.093
        46.500
 114014903.46618                  21366344.033
        49.000
 105863703.35618                  19831838.285
        51.500
 103606627.56418                  19354588.182
        52.750
 128339662.13416                  24422225.541
        37.000
 132110244.70715                  25139743.335
        32.500
 21 10 20 10 14 30.0000000  0 23G01G17G03G04R04G06G07G19G09S25S23R24
                                E04R17S48E12E19E26S36R02R18R03G14
 122273035.226 6  95277703.60846  23267785.248    23267785.034    23267788.205
        41.250          40.250
 107894476.586 8  84073614.36947  20531636.399    20531636.069    20531635.175
        49.250          43.000
 120881859.415 7  94193665.94946  23003053.062    23003052.973    23003054.851
        42.000          41.750
 110323530.308 7  85966389.39746  20993869.990    20993869.785    20993869.989
        47.250          39.000
 114890349.936 8                  21454961.783
        49.250
 116883225.488 7  91077847.23246  22242137.972    22242138.016    22242140.387
        44.500          36.000
 129164562.080 6 100647733.22246  24579198.506    24579198.265    24579204.343
        39.750          36.000
 107772139.815 8  83978280.44946  20508356.789    20508355.573    20508353.320
        48.250          41.500
 107500179.077 8  83766378.01149  20456604.015    20456603.533    20456604.799
        51.000          55.750
 179820515.78618                  34218710.555
        49.000
 203886720.173 7                  38798352.917
        43.750
 125264890.036 7                  23425164.941
        42.750
 138994732.815 7                  26449818.287
        42.250
 104352941.228 8                  19500841.670
        53.000
  30707520.477 7                   5843551.782
        43.500
 120742544.623 7                  22976542.336
        44.000
 121266644.129 7                  23076275.182
        43.750
 138571995.377 6                  26369374.168
        41.500
 195093148.696 7                  37124994.691
        47.000
 114116132.799 8                  21385314.882
        49.500
 105794167.398 8                  19818812.105
        51.500
 103621258.912 8                  19357321.612
        52.750
 132175428.38716                  25152149.106
        38.250
 21 10 20 10 15  0.0000000  0 24G01G17G03G04R04G06G07G19G09S25R19S23
                                R24E04R17S48E12E19E26S36R02R18R03G14
 122343227.387 6  95332398.66646  23281142.085    23281141.866    23281145.536
        40.750          40.250
 107921559.074 8  84094717.57547  20536790.039    20536789.704    20536788.858
        49.250          43.000
 120952581.321 7  94248773.89447  23016511.420    23016511.318    23016513.223
        42.000          42.000
 110361892.837 7  85996282.26046  21001169.982    21001169.768    21001170.074
        47.250          39.000
 114809377.096 8                  21439841.343
        49.500
 116811206.599 7  91021728.63445  22228433.581    22228433.607    22228435.981
        43.750          35.750
 129095023.582 6 100593547.55346  24565966.410    24565966.142    24565971.524
        39.500          36.250
 107757342.427 8  83966750.00246  20505540.805    20505539.585    20505537.517
        48.500          41.500
 107465554.788 8  83739398.03849  20450015.232    20450014.750    20450015.961
        51.000          56.000
 179821114.828 8                  34218832.514
        49.250
 124438847.75815                  23262528.584
        32.500
 203886750.642 7                  38798358.399
        43.750
 125377313.540 7                  23446189.707
        42.000
 138916668.313 7                  26434962.831
        42.000
 104395001.042 8                  19508701.558
        52.750
  30706902.378 7                   5843486.474
        43.750
 120689074.987 7                  22966367.413
        43.250
 121257032.300 7                  23074446.027
        43.500
 138631853.940 6                  26380765.254
        41.250
 195093094.082 7                  37124982.631
        47.000
 114217738.473 8                  21404355.642
        48.500
 105725341.354 8                  19805919.000
        51.750
 103636690.371 8                  19360204.207
        52.500
 132240672.953 5 103044692.88252  25164564.687    25164564.495    25164567.720
        31.750          17.750
 21 10 20 10 15 30.0000000  0 24G01G17G03G04R04G06G07G19G09S25R19S23
                                R24E04R17S48E12E19E26S36R02R18R03G14
 122413644.217 6  95387268.77746  23294542.417    23294542.216    23294545.920
        41.250          41.000
 107949205.522 8  84116260.23147  20542050.972    20542050.637    20542049.964
        49.250          43.250
 121023315.257 7  94303891.20146  23029971.435    23029971.328    23029973.272
        42.000          41.750
 110400790.842 7  86026592.37646  21008572.092    21008571.873    21008572.223
        47.250          39.000
 114728875.218 8                  21424807.850
        49.000
 116739265.464 7  90965670.62446  22214743.184    22214743.188    22214745.760
        44.500          36.000
 129025363.314 6 100539266.99546  24552709.831    24552709.541    24552715.510
        39.750          37.000
 107743194.893 8  83955725.93346  20502848.506    20502847.286    20502845.180
        48.250          41.500
 107431491.377 8  83712855.11349  20443533.167    20443532.685    20443534.067
        51.250          56.000
 179821735.765 8                  34218957.617
        48.750
 124318853.098 5                  23240099.323
        32.750
 203886796.793 7                  38798365.151
        43.500
 125490014.510 7                  23467266.618
        42.250
 138838796.875 7                  26420144.329
        42.000
 104437736.849 8                  19516688.039
        52.500
  30706298.864 7                   5843425.646
        43.500
 120635719.687 7                  22956214.347
        43.250
 121247807.921 7                  23072690.515
        43.750
 138691918.433 6                  26392195.133
        41.000
 195093051.591 7                  37124974.573
        46.750
 114319496.925 8                  21423425.022
        48.250
 105657009.005 8                  19793118.022
        51.750
 103652699.187 8                  19363195.118
        52.500
 132305747.556 6 103095400.07044  25176949.399    25176949.189    25176953.359
        40.250          24.750
 21 10 20 10 16  0.0000000  0 24G01G17G03G04R04G06G07G19G09S25R19S23
                                R24E04R17S48E12E19E26S36R02R18R03G14
 122484273.721 6  95442304.61146  23307982.476    23307982.284    23307986.732
        40.250          40.500
 107977402.625 8  84138231.97147  20547416.682    20547416.347    20547415.737
        49.000          43.250
 121094048.590 6  94359008.03546  23043431.284    23043431.168    23043432.941
        41.750          41.250
 110440210.765 7  86057309.17846  21016073.334    21016073.111    21016073.545
        46.750          39.250
 114648833.463 8                  21409860.581
        49.250
 116667391.791 7  90909665.17546  22201065.925    22201065.938    22201068.328
        44.500          36.000
 128955571.675 6 100484884.08646  24539428.785    24539428.481    24539434.952
        39.500          37.750
 107729685.972 8  83945199.48646  20500277.981    20500276.756    20500274.789
        48.000          41.750
 107397977.712 8  83686740.56349  20437155.565    20437155.078    20437156.778
        51.000          56.250
 179822369.335 8                  34219083.292
        48.500
 124198858.263 5                  23217665.331
        34.250
 203886846.637 7                  38798376.093
        43.250
 125602978.112 7                  23488391.226
        42.250
 138761107.710 7                  26405360.441
        42.000
 104481136.535 8                  19524797.936
        52.500
  30705697.864 7                   5843361.863
        43.250
 120582468.232 7                  22946080.922
        43.750
 121238958.703 7                  23071006.708
        43.750
 138752176.728 6                  26403662.280
        41.500
 195093010.442 7                  37124967.463
        46.250
 114421392.936 8                  21442519.782
        48.000
 105589162.019 8                  19780407.702
        51.250
 103669270.551 8                  19366290.729
        52.750
 132370638.098 5 103145964.02342  25189296.054    25189295.907    25189299.920
        35.750          14.750
 21 10 20 10 16 30.0000000  0 25G01G17G03G04R04G06G07G19G09S25R19S23
                                R24E04G20R17S48E12E19E26S36R02R18R03
                                G14
 122555103.786 6  95497496.71446  23321461.168    23321460.963    23321465.133
        40.000          40.250
 108006138.296 8  84160623.37547  20552884.789    20552884.454    20552883.914
        48.750          43.000
 121164768.690 6  94414114.57146  23056889.384    23056889.264    23056890.682
        41.750          41.500
 110480139.006 7  86088422.07446  21023671.427    21023671.204    21023671.766
        46.750          39.000
 114569240.653 8                  21394997.068
        49.000
 116595575.244 7  90853704.24246  22187400.117    22187400.117    22187402.428
        44.750          36.000
 128885639.626 6 100430391.75446  24526120.597    24526120.293    24526126.925
        39.000          37.000
 107716805.010 8  83935162.36046  20497826.550    20497825.325    20497823.602
        48.000          41.750
 107365002.637 8  83661045.69249  20430880.737    20430880.255    20430881.848
        51.000          56.250
 179822997.148 8                  34219207.912
        49.000
 124078854.924 5                  23195232.066
        34.750
 203886887.138 7                  38798382.890
        43.500
 125716189.842 6                  23509563.652
        41.750
 138683590.114 7                  26390609.506
        42.000
 134790423.77016                  25649764.769
        38.250
 104525187.080 8                  19533030.249
        52.500
  30706685.960 7                   5843298.456
        43.500
 120529310.166 7                  22935965.197
        43.750
 121230472.334 7                  23069391.628
        43.750
 138812616.720 6                  26415163.834
        40.750
 195092960.480 7                  37124957.657
        46.750
 114523410.846 8                  21461638.575
        48.500
 105521791.906 8                  19767786.963
        51.750
 103686390.059 8                  19369488.852
        52.500
 132435330.388 6 103196373.32444  25201608.623    25201608.530    25201613.279
        36.250          24.750
 21 10 20 10 17  0.0000000  0 24G01G17G03G04R04G06G07G19G09S25R19S23
                                R24E04R17S48E12E19E26S36R02R18R03G14
 122626151.842 6  95552858.67846  23334981.591    23334981.386    23334985.044
        39.750          40.000
 108035428.849 8  84183447.15847  20558458.651    20558458.312    20558457.765
        49.000          43.000
 121235492.462 6  94469223.96047  23070347.080    23070346.960    23070349.560
        41.750          42.000
 110520591.423 7  86119943.41946  21031369.532    21031369.309    21031369.566
        46.750          39.250
 114490116.144 8                  21380221.425
        48.750
 116523835.005 7  90797802.77146  22173748.483    22173748.479    22173750.770
        44.750          36.000
 128815586.314 6 100375804.93346  24512790.106    24512789.807    24512795.959
        39.250          37.500
 107704569.822 8  83925628.43547  20495498.498    20495497.273    20495495.318
        48.000          42.000
 107332584.475 8  83635784.78049  20424711.756    20424711.278    20424712.708
        51.000          56.250
 179823642.661 8                  34219334.508
        48.750
 123958863.947 5                  23172801.348
        34.500
 203886936.810 7                  38798393.291
        43.500
 125829665.062 6                  23530785.013
        41.500
 138606262.800 6                  26375894.464
        41.500
 104569906.508 8                  19541386.987
        52.250
  30706082.119 7                   5843235.276
        43.500
 120476264.526 7                  22925870.978
        43.250
 121222365.993 7                  23067849.201
        43.250
 138873255.744 6                  26426703.075
        40.750
 195092917.181 7                  37124949.393
        46.750
 114625565.709 8                  21480782.246
        48.250
 105454920.400 8                  19755259.798
        51.750
 103704073.271 8                  19372792.305
        52.500
 132499846.80115 103246658.15653  25213882.617    25213883.010    25213888.040
        34.500          20.500
 21 10 20 10 17 30.0000000  0 25G01G17G03G04R04G06G07G19G09S25R19G11
                                S23R24E04R17S48E12E19E26S36R02R18R03
                                G14
 122697414.447 6  95608387.80446  23348542.035    23348541.839    23348546.500
        39.750          40.000
 108065269.918 8  84206699.90747  20564137.229    20564136.894    20564136.328
        49.000          43.000
 121306215.975 6  94524333.14446  23083805.696    23083805.571    23083808.097
        41.000          41.750
 110561562.954 7  86151869.26846  21039166.209    21039165.986    21039166.350
        47.000          39.250
 114411457.438 8                  21365532.253
        48.750
 116452169.343 7  90741959.39145  22160110.858    22160110.845    22160112.182
        44.250          35.250
 128745410.937 6 100321123.00246  24499435.935    24499435.618    24499441.994
        39.500          38.500
 107692977.359 8  83916595.33247  20493292.501    20493291.276    20493289.243
        48.250          42.000
 107300720.611 8  83610955.78949  20418648.270    20418647.792    20418649.224
        51.000          56.500
 179824293.076 8                  34219462.432
        48.750
 123838884.610 5                  23150372.921
        33.750
 131221347.12416                  24970592.480
        36.750
 203886989.818 7                  38798401.250
        43.500
 125943397.981 7                  23552054.548
        42.000
 138529123.565 6                  26361215.164
        41.750
 104615291.166 8                  19549868.041
        52.250
  30705482.320 7                   5843174.095
        43.500
 120423329.421 7                  22915797.774
        43.500
 121214635.891 7                  23066378.213
        43.500
 138934090.223 6                  26438279.693
        41.000
 195092880.345 7                  37124942.221
        46.750
 114727850.784 8                  21499950.888
        48.500
 105388547.718 8                  19742826.313
        51.750
 103722314.468 8                  19376199.689
        52.500
 132564167.789 6 103296778.06843  25226123.092    25226123.642    25226129.021
        36.500          21.250
 21 10 20 10 18  0.0000000  0 25G01G17G03G04R04G06G07G19G09S25R19S23
                                R24E04R17S48E12E19E26G20S36R02R18R03
                                G14
 122768889.342 6  95664082.36246  23362143.923    23362143.736    23362147.611
        39.500          40.000
 108095658.730 8  84230379.47247  20569919.977    20569919.642    20569918.936
        48.750          43.000
 121376936.279 6  94579439.83946  23097262.910    23097262.781    23097265.664
        41.000          41.500
 110603049.861 7  86184196.70746  21047060.811    21047060.588    21047060.995
        46.750          39.500
 114333263.723 8                  21350930.265
        48.500
 116380577.889 7  90686173.84145  22146487.374    22146487.352    22146488.382
        44.500          35.500
 128675113.996 6 100266346.35546  24486059.205    24486058.884    24486064.755
        39.750          38.250
 107682026.538 8  83908062.20847  20491208.476    20491207.251    20491205.632
        48.000          42.250
 107269409.676 8  83586557.65249  20412690.052    20412689.574    20412691.024
        50.750          56.500
 179824954.202 8                  34219591.143
        49.000
 123718918.178 5                  23127944.681
        31.750
 203887042.013 7                  38798412.112
        43.500
 126057384.022 6                  23573370.688
        41.500
 138452171.550 7                  26346571.579
        42.250
 104661338.560 8                  19558473.321
        52.500
  30704885.525 7                   5843114.028
        43.500
 120370504.285 7                  22905745.625
        43.250
 121207279.577 7                  23064978.209
        43.500
 138995117.927 6                  26449893.059
        40.750
 134587123.77015 104873082.98851  25611077.310    25611077.217    25611078.769
        32.250          11.500
 195092846.195 7                  37124935.397
        46.750
 114830260.495 8                  21519142.162
        48.500
 105322675.859 8                  19730485.939
        51.500
 103741109.183 8                  19379710.875
        52.250
 132628296.099 6 103346748.13743  25238328.128    25238328.521    25238330.161
        38.000          18.500
 21 10 20 10 18 30.0000000  0 26G01G17G03G04R04G06G07G19G09S25R19E11
                                S23R24E04R17S48E12E19E26G20S36R02R18
                                R03G14
 122840574.955 6  95719941.10246  23375784.664    23375784.477    23375789.167
        38.750          39.750
 108126592.735 8  84254483.86447  20575806.726    20575806.391    20575805.384
        48.750          43.000
 121447651.437 6  94634542.51546  23110719.760    23110719.640    23110722.297
        41.500          41.750
 110645048.982 7  86216923.27546  21055052.934    21055052.706    21055053.095
        47.000          39.250
 114255534.459 8                  21336414.847
        48.750
 116309060.860 7  90630446.29346  22132878.063    22132878.041    22132879.929
        45.250          36.500
 128604696.020 6 100211475.38546  24472658.741    24472658.411    24472663.808
        39.250          37.250
 107671716.615 8  83900028.48447  20489246.656    20489245.436    20489243.681
        48.000          42.250
 107238650.982 8  83562589.83449  20406836.817    20406836.339    20406837.827
        51.000          56.500
 179825629.399 8                  34219720.901
        49.250
 123598966.681 5                  23105521.048
        31.750


 203887094.218 7                  38798422.272
        43.750
 126171619.167 6                  23594734.126
        40.750
 138375406.482 7                  26331963.659
        42.250
 104708046.877 8                  19567201.818
        52.500
  30704290.711 7                   5843052.655
        43.750
 120317789.176 7                  22895714.017
        43.500
 121200295.222 7                  23063649.134
        43.750
 139056337.182 6                  26461542.819
        40.750
 134519449.111 6 104820349.61943  25598200.769    25598200.005    25598201.140
        36.500          19.750
 195092814.612 7                  37124928.475
        47.000
 114932790.392 8                  21538356.200
        48.000
 105257306.897 8                  19718240.068
        51.500
 103760453.338 8                  19383324.502
        52.250
 132692228.238 6 103396565.08144  25250493.589    25250493.933    25250498.801
        36.250          24.000
 21 10 20 10 19  0.0000000  0 27G01G17G03G04R04G06G07G19G09S25R19E11
                                S23R24E04R17S48E12G02E19E26G20S36R02
                                R18R03G14
 122912472.751 6  95775965.18046  23389466.374    23389466.191    23389470.986
        38.750          39.500
 108158072.449 8  84279013.48147  20581797.254    20581796.919    20581795.919
        48.500          43.000
 121518362.410 6  94689641.93046  23124176.094    23124175.969    23124178.111
        41.000          41.750
 110687560.163 7  86250048.85346  21063142.485    21063142.257    21063142.792
        47.000          39.250
 114178272.604 8                  21321986.317
        49.000
 116237621.547 7  90574779.30246  22119283.586    22119283.564    22119285.808
        45.000          36.250
 128534160.978 6 100156513.21746  24459235.915    24459235.567    24459241.236
        39.750          37.750
 107662049.379 8  83892495.55747  20487407.050    20487405.825    20487403.953
        48.000          42.000
 107208446.782 8  83539054.08949  20401089.208    20401088.730    20401090.200
        51.000          56.500
 179826306.529 8                  34219850.654
        49.000
 123479034.669 5                  23083103.000
        34.500


 203887150.793 7                  38798433.106
        43.500
 126286102.945 7                  23616144.069
        42.250
 138298831.081 7                  26317391.973
        42.500
 104755417.401 8                  19576054.312
        52.500
  30703699.431 7                   5842994.877
        43.500
 120265187.213 7                  22885704.353
        43.750
 137017117.09315                  26073490.730
        35.500
 121193683.982 7                  23062391.267
        43.500
 139117749.362 6                  26473229.492
        40.750
 134451820.669 5 104767651.98941  25585330.879    25585329.954    25585331.940
        31.500           7.000
 195092777.894 7                  37124921.173
        46.750
 115035438.530 7                  21557592.239
        47.500
 105192446.463 8                  19706089.915
        51.500
 103780346.207 8                  19387040.584
        52.000
 132755963.390 5 103446228.75542  25262620.825    25262621.129    25262627.974
        33.500          15.250
 21 10 20 10 19 30.0000000  0 27G01G17G03G04R04G06G07G19G09S25R19E11
                                S23R24E04R17S48E12G02E19E26G20S36R02
                                R18R03G14
 122984573.584 6  95832147.46246  23403187.497    23403187.314    23403191.990
        38.500          39.500
 108190087.942 8  84303960.58747  20587889.547    20587889.208    20587888.371
        48.750          42.750
 121589059.642 6  94744730.64546  23137628.973    23137628.857    23137631.296
        41.500          41.750
 110730572.661 7  86283565.06946  21071327.570    21071327.347    21071327.664
        47.000          39.000
 114101469.875 8                  21307644.081
        49.250
 116166252.668 7  90519167.18746  22105702.400    22105702.374    22105704.515
        45.000          36.250
 128463502.125 6 100101454.56246  24445790.555    24445790.216    24445795.272
        40.000          37.750
 107653016.174 8  83885456.67647  20485688.070    20485686.850    20485685.191
        48.000          42.000
 107178788.761 8  83515943.94049  20395445.442    20395444.964    20395446.570
        51.000          56.500
 179826981.187 8                  34219980.389
        48.750
 123359116.223 5                  23060683.408
        35.500


 203887203.019 7                  38798441.549
        43.250
 126400823.245 7                  23637598.412
        42.750
 138222437.572 7                  26302854.865
        42.750
 104803440.432 8                  19585028.580
        52.250
  30704700.537 7                   5842930.280
        43.250
 120212690.904 7                  22875714.579
        43.500
 136937605.380 6 106704621.44353  26058360.462    26058360.082    26058357.777
        36.000          20.250
 121187436.484 7                  23061202.403
        43.250
 139179345.260 6                  26484951.217
        40.750
 134384228.494 5 104714982.80243  25572468.969    25572468.102    25572469.961
        34.500          21.250
 195092735.373 7                  37124915.440
        46.500
 115138193.837 8                  21576849.103
        48.250
 105128088.913 8                  19694033.307
        51.750
 103800776.350 8                  19390857.030
        52.000
 132819485.73516 103495729.24754  25274711.913    25274712.190    25274716.608
        40.750          28.500
 21 10 20 10 20  0.0000000  0 27G01G17G03G04R04G06G07G19G09S25R19E11
                                S23R24E04R17S48E12G02E19E26G20S36R02
                                R18R03G14
 123056881.923 6  95888491.43946  23416946.976    23416946.798    23416951.719
        39.000          39.250
 108222643.059 8  84329328.17947  20594084.724    20594084.385    20594083.352
        48.500          42.750
 121659747.158 6  94799811.77846  23151080.295    23151080.179    23151082.787
        41.500          41.500
 110774089.392 7  86317474.18646  21079608.605    21079608.377    21079608.720
        47.000          39.000
 114025132.313 8                  21293388.375
        49.250
 116094960.571 7  90463614.91046  22092136.054    22092136.028    22092138.596
        44.750          36.750
 128392726.863 6 100046305.20346  24432321.844    24432321.500    24432327.250
        39.500          37.250
 107644622.678 8  83878916.27147  20484090.951    20484089.731    20484088.097
        48.000          42.250
 107149682.180 8  83493263.48649  20389906.660    20389906.182    20389907.835
        51.250          56.500
 179827663.804 8                  34220109.641
        48.750
 123239219.507 5                  23038272.360
        35.250
 142306315.65914                  27079991.829
        29.250
 203887254.962 7                  38798453.300
        43.250
 126515782.613 7                  23659096.602
        42.750
 138146231.767 7                  26288353.309
        42.750
 104852120.327 8                  19594125.299
        52.500
  30704101.795 7                   5842869.770
        43.250
 120160306.432 7                  22865746.104
        43.250
 136857964.813 5 106642563.84942  26043204.922    26043204.261    26043203.265
        33.250          17.750
 121181556.893 7                  23060083.404
        43.250
 139241129.322 6                  26496708.282
        40.750
 134316693.02115 104662364.44151  25559614.153    25559614.033    25559618.049
        34.750           9.000
 195092697.212 7                  37124906.291
        46.500
 115241056.481 8                  21596125.651
        48.750
 105064242.992 8                  19682073.122
        51.500
 103821746.142 8                  19394774.751
        52.500
 132882807.714 5 103545070.77243  25286761.341    25286761.341    25286766.607
        34.500          22.000
 21 10 20 10 20 30.0000000  0 27G01G17G03G04R04G06G07G19G09S25R19E11
                                S23R24E04R17S48E12G02E19E26G20S36R02
                                R18R03G14
 123129405.384 6  95945003.03246  23430748.274    23430748.091    23430752.174
        39.000          38.750
 108255744.532 8  84355121.50347  20600383.576    20600383.237    20600382.294
        48.500          42.500
 121730432.147 6  94854890.94546  23164531.052    23164530.936    23164533.852
        40.750          41.000
 110818116.336 7  86351780.87746  21087986.527    21087986.308    21087986.604
        46.750          38.750
 113949268.616 8                  21279221.587
        49.500
 116023754.732 7  90408129.85846  22078586.433    22078586.407    22078588.717
        44.500          36.500
 128321845.502 6  99991073.17646  24418833.414    24418833.061    24418838.994
        40.000          38.000
 107636877.307 8  83872880.89747  20482617.025    20482615.800    20482614.188
        48.000          42.250
 107121135.451 8  83471019.27749  20384474.322    20384473.849    20384475.453
        50.750          56.500
 179828359.239 8                  34220240.838
        49.000
 123119355.599 5                  23015863.858
        34.500
 142232034.289 5                  27065856.354
        31.000
 203887315.045 7                  38798462.883
        43.750
 126630987.034 7                  23680640.954
        42.750
 138070222.584 7                  26273889.299
        43.000
 104901464.561 8                  19603346.898
        52.500
  30703510.196 7                   5842809.627
        43.500
 120108043.071 7                  22855800.626
        43.500
 136778204.090 5 106580412.61743  26028026.502    26028025.787    26028025.084
        35.750          19.000
 121176052.557 7                  23059036.019
        43.500
 139303109.045 6                  26508502.769
        40.750
 134249190.206 5 104609764.69643  25546768.013    25546767.839    25546770.353
        34.500          19.000
 195092663.939 7                  37124901.480
        46.750
 115344031.920 8                  21615422.648
        48.000
 105000919.920 8                  19670210.352
        51.500
 103843260.826 8                  19398793.803
        52.750
 132945929.086 6 103594253.93154  25298773.547    25298773.636    25298777.613
        39.750          27.000
 21 10 20 10 21  0.0000000  0 27G01G17G03G04R04G06G07G19G09S25R19E11
                                S23R24E04R17S48E12G02E19E26G20S36R02
                                R18R03G14
 123202133.189 6  96001673.87646  23444587.556    23444587.382    23444591.784
        39.750          38.500
 108289380.597 8  84381331.39247  20606784.332    20606783.984    20606783.091
        48.750          42.750
 121801103.383 6  94909959.39846  23177980.095    23177979.984    23177981.752
        41.250          40.500
 110862641.065 7  86386475.45346  21096459.546    21096459.327    21096459.390
        46.750          39.000
 113873869.171 8                  21265141.082
        49.000
 115952626.306 7  90352705.10946  22065051.031    22065050.996    22065052.440
        44.500          36.500
 128250849.574 6  99935751.85546  24405323.189    24405322.818    24405328.067
        39.750          37.500
 107629769.539 8  83867342.35647  20481264.564    20481263.335    20481261.460
        48.000          42.250
 107093138.566 8  83449203.52149  20379146.793    20379146.320    20379147.676
        51.250          56.500
 179829054.906 8                  34220371.209
        49.250
 122999517.321 5                  22993461.889
        31.250
 142157649.093 4                  27051701.995
        29.750
 203887368.533 7                  38798471.969
        43.750
 126746422.270 7                  23702230.396
        44.500
 137994400.542 7                  26259461.031
        43.000
 104951461.708 8                  19612690.177
        52.500
  30702914.428 7                   5842747.511
        43.750
 120055891.738 7                  22845876.593
        44.000
 136698313.402 6 106518160.11043  26012824.094    26012823.370    26012822.399
        36.250          20.000
 121170912.403 7                  23058057.970
        43.500
 139365273.619 6                  26520332.661
        40.750
 134181707.41916 104557175.18153  25533931.005    25533931.063    25533931.023
        37.500          18.500
 195092623.004 7                  37124892.612
        47.000
 115447106.536 7                  21634738.794
        47.250
 104938113.288 8                  19658444.654
        51.750
 103865307.157 8                  19402912.018
        52.750
 133008838.961 5 103643274.21443  25310744.008    25310744.025    25310750.208
        33.250          22.500
 21 10 20 10 21 30.0000000  0 27G01G17G03G04R04G06G07G19G09S25R19E11
                                S23R24E04R17S48E12G02E19E26G20S36R02
                                R18R03G14
 123275071.668 6  96058508.85946  23458467.866    23458467.688    23458471.740
        39.750          37.750
 108323556.732 8  84407962.11547  20613287.816    20613287.472    20613286.762
        48.750          43.000
 121871766.909 6  94965021.84746  23191426.214    23191426.107    23191428.569
        40.750          41.000
 110907668.324 7  86421561.60846  21105027.900    21105027.677    21105028.159
        47.250          39.500
 113798941.476 8                  21251148.893
        49.250
 115881583.510 7  90297347.09746  22051532.346    22051532.297    22051533.880
        44.750          37.000
 128179747.938 6  99880348.19746  24391792.681    24391792.301    24391797.639
        40.250          38.250
 107623306.215 8  83862305.98147  20480034.471    20480033.246    20480031.437
        48.500          42.750
 107065698.579 8  83427821.71149  20373925.142    20373924.669    20373925.997
        51.500          56.750
 179829772.756 8                  34220505.845
        49.000
 122879713.872 5                  22971065.982
        32.250
 142083167.527 4                  27037527.676
        29.500
 203887421.382 7                  38798484.065
        43.500
 126862092.743 7                  23723861.052
        43.500
 137918773.291 7                  26245069.511
        43.000
 105002117.858 8                  19622156.354
        52.500
  30702320.041 7                   5842686.036
        43.500
 120003860.514 7                  22835975.397
        43.750
 136618300.125 5 106455812.07743  25997598.921    25997598.175    25997597.204
        34.750          20.500
 121166142.482 7                  23057150.133
        43.500
 139427629.298 6                  26532198.473
        40.000
 134114285.355 5 104504638.15342  25521098.699    25521098.333    25521101.052
        34.250          13.750
 195092585.539 7                  37124885.945
        46.750
 115550282.900 7                  21654074.461
        47.750
 104875832.727 8                  19646777.208
        52.000
 103887889.451 8                  19407130.753
        52.500
 133071540.836 6 103692132.83943  25322675.992    25322675.881    25322681.463
        37.250          19.500
 21 10 20 10 22  0.0000000  0 27G01G17G03G04R04G06G07G19G09S25R19E11
                                S23R24E04R17S48E12G02E19E26G20S36R02
                                R18R03G14
 123348218.665 6  96115506.32846  23472387.243    23472387.069    23472391.047
        40.250          36.750
 108358269.586 8  84435011.06147  20619893.518    20619893.179    20619892.422
        49.000          42.500
 121942420.146 6  95020076.26046  23204871.353    23204871.269    23204873.660
        41.250          40.750
 110953194.277 7  86457036.35346  21113691.140    21113690.917    21113691.454
        47.000          38.750
 113724484.712 8                  21237244.533
        48.750
 115810626.135 7  90242055.64346  22038029.122    22038029.069    22038031.261
        45.500          37.000
 128108541.138 6  99824862.58446  24378242.065    24378241.685    24378247.501
        40.250          37.750
 107617485.678 8  83857770.47847  20478926.785    20478925.556    20478923.924
        48.500          42.250
 107038814.082 8  83406872.75249  20368809.205    20368808.732    20368809.964
        51.500          56.250
 179830488.485 8                  34220642.162
        49.000
 122759947.456 5                  22948676.489
        34.750
 142008588.173 5                  27023336.782
        30.000
 203887474.332 7                  38798493.540
        43.500
 126977994.401 7                  23745536.546
        44.000
 137843339.996 7                  26230714.965
        43.250
 105053430.425 8                  19631745.517
        52.500
  30701726.481 7                   5842625.275
        43.500
 119951948.903 7                  22826096.935
        43.750
 136538162.366 5 106393367.06743  25982348.253    25982347.440    25982346.775
        35.750          18.750
 121161740.320 7                  23056312.524
        43.500
 139490173.822 6                  26544100.682
        40.500
 134046904.660 6 104452133.82343  25508278.273    25508277.893    25508279.100
        38.000          18.750
 195092548.747 7                  37124878.549
        46.750
 115653556.884 7                  21673427.997
        47.750
 104814080.391 8                  19635209.236
        52.250
 103911002.845 8                  19411448.435
        52.500
 133134030.649 6 103740825.82344  25334568.949    25334568.829    25334573.501
        38.000          24.750
 21 10 20 10 22 30.0000000  0 27G01G17G03G04R04G06G07G19G09S25R19E11
                                S23R24E04R17S48E12G02E19E26G20S36R02
                                R18R03G14
 123421573.904 6  96172666.05846  23486346.399    23486346.230    23486350.885
        39.000          36.750
 108393518.157 8  84462477.44447  20626601.028    20626600.689    20626600.035
        48.750          42.750
 122013062.480 6  95075122.19246  23218314.228    23218314.152    23218316.507
        40.500          40.750
 110999217.047 7  86492898.22646  21122449.180    21122448.957    21122449.400
        46.500          39.000
 113650499.549 8                  21223428.388
        48.750
 115739755.875 7  90186832.06046  22024542.874    22024542.821    22024544.870
        45.000          37.250
 128037231.373 6  99769296.74246  24364672.362    24364671.982    24364677.539
        39.750          38.000
 107612308.504 8  83853736.29647  20477941.819    20477940.590    20477938.946
        48.000          42.500
 107012485.519 8  83386356.98549  20363799.032    20363798.563    20363799.789
        51.250          56.500
 179831210.821 8                  34220778.363
        48.750
 122640220.932 5                  22926294.655
        35.500
 141933911.874 5                  27009125.836
        32.000
 203887527.102 7                  38798504.612
        43.250
 127094124.418 7                  23767254.357
        44.250
 137768101.767 7                  26216397.609
        43.000
 105105398.765 8                  19641457.206
        52.500
  30702733.673 7                   5842563.620
        43.250
 119900158.417 7                  22816241.497
        43.750
 136457901.078 6 106330825.82743  25967075.600    25967074.831    25967074.731
        36.000          20.250
 121157705.397 7                  23055544.614
        43.500
 139552906.917 6                  26556038.589
        39.750
                                  25495462.701
        32.750
 195092515.339 7                  37124871.886
        46.500
 115756924.774 8                  21692799.369
        48.250
 104752859.891 8                  19623740.370
        52.000
 103934645.046 8                  19415865.041
        52.250
 133196306.278 5 103789352.17142  25346418.299    25346418.170    25346422.684
        33.000          15.000
 21 10 20 10 23  0.0000000  0 27G01G17G03G04R04G06G07G19G09S25R19E11
                                S23R24E04R17S48E12G02E19E26G20S36R02
                                R18R03G14
 123495139.267 6  96229989.52246  23500345.293    23500345.137    23500350.055
        39.500          36.500
 108429303.445 8  84490362.05247  20633410.935    20633410.600    20633409.900
        48.750          42.750
 122083695.513 6  95130160.88146  23231755.297    23231755.230    23231757.887
        40.000          41.000
 111045736.821 7  86529147.37846  21131301.472    21131301.253    21131301.553
        46.750          39.250
 113576989.250 8                  21209700.654
        49.250
 115668976.593 7  90131679.37746  22011073.977    22011073.928    22011076.159
        45.000          37.500
 127965822.841 6  99713653.93246  24351083.895    24351083.529    24351088.269
        40.250          38.000
 107607776.955 8  83850205.19847  20477079.545    20477078.311    20477076.800
        48.000          42.750
 106986715.503 8  83366276.44949  20358895.271    20358894.802    20358896.015
        51.250          56.750
 179831958.628 8                  34220916.952
        48.500
 122520539.794 5                  22903920.627
        35.750
 141859141.239 5                  26994897.354
        30.250
 203887584.718 7                  38798516.864
        43.250
 127210482.563 7                  23789013.710
        44.500
 137693061.786 7                  26202117.637
        42.750
 105158024.374 8                  19651291.471
        52.250
  30702143.736 7                   5842503.428
        43.250
 119848492.685 7                  22806409.864
        43.750
 136377518.889 5 106268190.32743  25951780.032    25951779.219    25951778.357
        33.500          18.000
 121154039.282 7                  23054847.010
        43.500
 139615830.418 6                  26568012.553
        39.500
 133912261.95116 104347232.98953  25482658.626    25482657.898    25482659.837
        36.500          21.750
 195092479.670 7                  37124864.938
        46.500
 115860386.473 8                  21712188.275
        48.000
 104692176.945 8                  19612372.530
        52.000
 103958815.404 8                  19420380.306
        52.500
 133258390.03216 103837724.75154  25358229.508    25358229.169    25358234.332
        39.000          27.500
 21 10 20 10 23 30.0000000  0 27G01G17G03G04R04G06G07G19G09S25R19E11
                                S23R24E04R17S48E12G02E19E26G20S36R02
                                R18R03G14
 123568906.749 6  96287470.47146  23514382.780    23514382.637    23514387.333
        40.000          36.500
 108465616.368 8  84518657.80047  20640320.940    20640320.605    20640320.118
        48.500          42.750
 122154310.845 6  95185185.77246  23245192.906    23245192.835    23245195.278
        40.000          40.750
 111092743.897 7  86565776.24346  21140246.358    21140246.139    21140246.820
        46.750          39.000
 113503946.582 8                  21196060.420
        49.250
 115598282.244 7  90076592.86846  21997621.625    21997621.585    21997623.301
        45.000          37.250
 127894310.532 6  99657930.27446  24337475.311    24337474.945    24337479.990
        40.250          38.000
 107603883.465 8  83847171.29547  20476338.651    20476337.417    20476335.932
        48.000          42.500
 106961496.660 8  83346625.39649  20354096.058    20354095.589    20354097.047
        51.250          56.750
 179832698.353 8                  34221056.297
        48.750
 122400899.799 5                  22881556.689
        34.750
 141784269.392 5                  26980649.722
        31.250
 203887639.599 7                  38798526.984
        43.750
 127327058.590 7                  23810814.881
        45.000
 137618213.350 7                  26187874.515
        42.500
 105211298.549 8                  19661246.955
        52.500
  30701547.922 7                   5842442.949
        43.250
 119796945.405 7                  22796600.769
        43.750
 136297008.938 5 106205455.24843  25936459.203    25936458.309    25936458.010
        35.500          18.500
 121150733.626 7                  23054217.993
        43.250
 139678936.183 6                  26580021.609
        38.750
 133844999.222 6 104294820.33442  25469859.026    25469858.231    25469858.632
        40.250          13.250
 195092434.251 7                  37124858.566
        46.750
 115963929.839 8                  21731592.251
        48.000
 104632027.338 8                  19601104.556
        52.000
 103983503.584 8                  19424992.350
        52.750
 133320227.647 5 103885909.69043  25369995.599    25369995.376    25370001.478
        34.500          19.500
 21 10 20 10 24  0.0000000  0 27G01G17G03G04R04G06G07G19G09S25R19E11
                                S23R24E04R17S48E12G02E19E26G20S36R02
                                R18R03G14
 123642887.607 6  96345117.70646  23528461.959    23528461.825    23528465.405
        39.750          36.500
 108502467.363 8  84547372.82947  20647333.544    20647333.209    20647332.534
        48.750          42.750
 122224919.478 6  95240205.45446  23258629.581    23258629.505    23258631.350
        39.750          40.250
 111140247.941 7  86602792.35446  21149286.568    21149286.354    21149286.612
        46.500          38.750
 113431384.093 8                  21182510.056
        49.250
 115527686.120 7  90021582.91346  21984187.355    21984187.311    21984189.393
        44.750          37.000
 127822708.227 6  99602136.46946  24323849.602    24323849.231    24323853.968
        40.250          38.000
 107600639.523 8  83844643.53047  20475721.314    20475720.080    20475718.486
        48.000          42.500
 106936840.984 8  83327413.17349  20349404.202    20349403.729    20349405.269
        51.250          56.500
 179833455.497 8                  34221199.098
        48.750
 122281315.673 5                  22859200.679
        32.250
 141709308.643 5                  26966385.100
        31.750
 203887702.584 7                  38798537.438
        43.500
 127443861.574 7                  23832657.492
        44.500
 137543569.095 7                  26173670.197
        42.750
 105265232.305 8                  19671325.824
        52.500
  30700958.922 7                   5842381.138
        43.500
 119745529.675 7                  22786816.772
        44.000
 136216383.273 5 106142630.01643  25921116.509    25921115.642    25921114.241
        35.000          18.500
 121147799.440 7                  23053659.721
        43.750
 139742235.431 6                  26592067.161
        38.750
 133777782.537 5 104242443.63043  25457067.088    25457066.212    25457068.759
        32.750          18.750
 195092397.395 7                  37124852.046
        46.750
 116067564.368 7                  21751012.559
        47.000
 104572426.438 8                  19589939.024
        52.000
 104008718.452 8                  19429702.912
        52.500
 133381850.653 5 103933927.44443  25381722.734    25381722.560    25381728.170
        31.750          23.000
 21 10 20 10 24 30.0000000  0 27G01G17G03G04R04G06G07G19G09S25R19E11
                                S23R24E04R17S48E12G02E19E26G20S36R02
                                R18R03G14
 123717072.518 6  96402923.92146  23542578.490    23542578.343    23542582.728
        41.000          37.750
 108539845.802 8  84576498.84947  20654446.491    20654446.161    20654445.178
        49.500          42.750
 122295511.797 6  95295212.41146  23272062.592    23272062.512    23272064.802
        40.000          40.750
 111188237.918 7  86640187.12346  21158418.497    21158418.283    21158418.595
        47.750          39.000
 113359293.548 8                  21169047.931
        49.750
 115457180.921 7  89966643.80446  21970770.953    21970770.904    21970772.884
        45.750          37.500
 127751009.510 6  99546267.54646  24310205.763    24310205.392    24310210.149
        41.000          38.500
 107598036.728 8  83842615.35547  20475225.976    20475224.747    20475223.080
        48.750          42.750
 106912739.752 8  83308632.98749  20344817.961    20344817.488    20344818.900
        52.000          56.750
 179834210.549 8                  34221342.449
        48.750
 122161781.519 5                  22836854.853
        33.250
 141634250.499 5                  26952102.597
        31.250
 203887759.213 7                  38798550.209
        43.500
 127560879.548 7                  23854541.245
        42.750
 137469121.003 7                  26159503.211
        43.500
 105319815.601 8                  19681525.926
        52.250
  30700369.323 7                   5842319.233
        43.500
 119694237.904 7                  22777056.268
        44.750
 136135633.717 6 106079708.24343  25905750.871    25905749.941    25905749.129
        36.000          19.750
 121145227.065 7                  23053170.174
        44.000
 139805718.785 6                  26604147.912
        38.500
 133710601.873 6 104190095.01742  25444283.223    25444282.253    25444284.985
        39.000          12.500
 195092367.889 7                  37124844.565
        46.750
 116171277.500 7                  21770448.306
        46.500
 104513368.561 8                  19578875.716
        52.000
 104034448.550 8                  19434509.245
        52.500


 21 10 20 10 25  0.0000000  0 27G01G17G03G04R04G06G07G19G09S25R19E11
                                S23R24E04R17S48E12G02E19E26G20S36R02
                                R18R03G14
 123791465.594 6  96460892.33746  23556735.163    23556735.025    23556739.465
        40.500          38.000
 108577755.234 8  84606038.62947  20661660.310    20661659.980    20661659.153
        48.500          42.500
 122366091.699 6  95350209.68746  23285493.606    23285493.517    23285496.385
        40.000          41.250
 111236716.295 7  86677962.45946  21167643.622    21167643.399    21167643.848
        46.750          38.750
 113287680.094 8                  21155674.567
        49.750
 115386772.837 7  89911780.36646  21957372.429    21957372.376    21957374.365
        45.250          37.000
 127679221.121 6  99490328.73846  24296544.789    24296544.423    24296549.186
        40.250          38.750
 107596079.597 8  83841090.29647  20474853.638    20474852.409    20474850.782
        48.250          42.750
 106889197.770 8  83290288.57849  20340338.183    20340337.714    20340338.996
        51.250          56.500
 179834966.145 8                  34221487.598
        48.750
 122042304.979 5                  22814520.305
        34.750
 141559100.315 5                  26937801.919
        30.500
 203887814.318 7                  38798561.267
        43.500
 127678114.832 7                  23876463.967
        43.750
 137394874.606 7                  26145374.674
        43.000
 105375052.180 8                  19691848.063
        52.000
  30699782.376 7                   5842259.085
        43.250
 119643076.050 7                  22767320.358
        44.250
 136054765.586 6 106016694.06043  25890361.508    25890360.632    25890360.518
        36.250          20.500
 121143020.339 7                  23052750.177
        44.000
 139869390.322 6                  26616263.953
        37.250
 133643461.612 5 104137777.91842  25431505.226    25431504.180    25431508.634
        34.000          15.000
 195092337.188 7                  37124837.245
        46.750
 116275071.331 7                  21789899.995
        47.500
 104454862.093 8                  19567915.355
        52.000
 104060695.643 8                  19439412.312
        52.500
 133504415.21815 104029439.43653  25405047.743    25405047.314    25405051.808
        35.250          22.000
 21 10 20 10 25 30.0000000  0 27G01G17G03G04R04G06G07G19G09S25R19E11
                                S23R24E04R17S48E12G02E19E26G20S36R02
                                R18R03G14
 123866067.635 6  96519023.59546  23570932.015    23570931.886    23570936.259
        41.250          39.000
 108616195.185 8  84635991.79847  20668975.284    20668974.954    20668974.258
        49.000          42.500
 122436659.741 6  95405197.71747  23298922.033    23298921.949    23298925.410
        40.500          42.000
 111285682.166 7  86716117.66146  21176961.493    21176961.279    21176961.699
        47.000          38.500
 113216545.933 8                  21142390.850
        49.750
 115316464.704 7  89856994.80246  21943993.285    21943993.236    21943994.461
        45.250          36.750
 127607346.462 6  99434322.70946  24282867.505    24282867.125    24282872.218
        40.000          38.500
 107594769.339 8  83840069.29047  20474604.243    20474603.014    20474601.498
        48.500          42.500
 106866216.478 8  83272381.07249  20335964.862    20335964.393    20335965.888
        51.500          56.500
 179835730.480 8                  34221635.314
        48.500
 121922891.133 6                  22792198.101
        36.750
 141483859.829 5                  26923483.415
        31.000
 203887873.068 7                  38798572.263
        43.250
 127795565.885 7                  23898427.842
        44.000
 137320831.991 7                  26131284.811
        43.250
 105430942.154 8                  19702292.645
        52.000
  30700797.538 7                   5842198.530
        43.000
 119592046.698 7                  22757610.104
        44.250
 135973780.511 5 105953588.76543  25874950.708    25874949.832    25874948.762
        34.500          19.500
 121141179.742 7                  23052399.927
        43.750
 139933250.814 6                  26628416.767
        37.000
 133576362.560 5 104085492.98142  25418738.536    25418737.495    25418740.394
        35.000          15.750
 195092300.100 7                  37124831.821
        46.500
 116378943.149 7                  21809365.240
        47.750
 104396911.417 8                  19557059.346
        52.000
 104087457.992 8                  19444411.907
        52.750
                                  25416644.978    25416644.674    25416654.958
        32.000          20.000
 21 10 20 10 26  0.0000000  0 27G01G17G03G04R04G06G07G19G09S25R19E11
                                S23R24E04R17S48E12G02E19E26G20S36R02
                                R18R03G14
 123940874.625 6  96577314.52246  23585167.604    23585167.479    23585172.255
        41.000          40.750
 108655160.501 8  84666354.33747  20676390.068    20676389.733    20676389.223
        48.500          42.750
 122507211.619 6  95460173.16347  23312347.608    23312347.519    23312350.911
        39.750          42.250
 111335129.774 7  86754648.24046  21186371.342    21186371.128    21186371.218
        46.500          38.500
 113145887.733 8                  21129195.749
        50.000
 115246254.553 7  89802285.59946  21930632.679    21930632.635    21930634.670
        44.500          37.500
 127535384.230 6  99378248.41346  24269172.820    24269172.431    24269178.093
        39.500          38.750
 107594101.955 8  83839549.23147  20474477.417    20474476.192    20474474.557
        48.000          42.750
 106843792.397 8  83254907.75249  20331697.859    20331697.386    20331698.789
        51.250          57.000
 179836502.519 8                  34221782.748
        48.750
 121803539.654 6                  22769885.661
        36.250
 141408526.109 5                  26909148.521
        31.250
 203887933.735 7                  38798584.457
        43.500
 127913225.775 7                  23920430.545
        43.750
 137246990.458 7                  26117233.091
        43.500
 105487480.938 8                  19712858.470
        52.000
  30700209.377 7                   5842139.000
        43.500
 119541147.629 7                  22747924.199
        44.500
 135892675.518 5 105890390.04143  25859516.933    25859516.026    25859514.156
        35.000          19.000
 121139700.905 7                  23052118.589
        43.750
 139997296.102 6                  26640604.268
        37.500
 133509305.33616 104033250.57352  25405976.379    25405975.901    25405982.305
        36.250          16.750
 195092260.369 7                  37124824.246
        46.500
 116482886.629 8                  21828844.633
        48.000
 104339516.470 8                  19546307.464
        52.000
 104114729.279 8                  19449506.518
        52.500
 133626093.298 6 104124266.97542  25428202.083    25428201.757    25428206.706
        40.250          16.000
 21 10 20 10 26 30.0000000  0 27G01G17G03G04R04G06G07G19G09S25R19E11
                                S23R24E04R17S48E12G02E19E26G20S36R02
                                R18R03G14
 124015886.653 6  96635765.21446  23599442.067    23599441.938    23599446.828
        41.000          40.750
 108694650.396 8  84697125.64447  20683904.775    20683904.445    20683903.763
        48.750          42.250
 122577747.317 6  95515135.98747  23325770.501    23325770.408    23325773.130
        40.250          42.000
 111385057.584 7  86793553.00446  21195872.242    21195872.037    21195872.173
        46.500          38.250
 113075706.571 8                  21116089.859
        49.750
 115176144.662 7  89747654.51746  21917291.273    21917291.224    21917293.240
        45.000          37.250
 127463337.404 6  99322108.21646  24255463.035    24255462.651    24255467.785
        39.250          38.000
 107594078.422 8  83839530.87147  20474472.832    20474471.607    20474469.961
        48.000          42.250
 106821926.283 8  83237869.21349  20327536.801    20327536.332    20327537.823
        51.250          56.500
 179837291.534 8                  34221933.433
        48.750
 121684254.045 5                  22747587.675
        34.500
 141333100.255 5                  26894795.697
        30.250
 203887994.292 7                  38798594.317
        43.500
 128031092.441 7                  23942471.070
        42.000
 137173351.477 7                  26103220.037
        43.250
 105544667.951 8                  19723545.077
        52.000
  30699623.533 7                   5842078.861
        43.500
 119490380.804 7                  22738263.637
        44.250
 135811451.746 6 105827098.76443  25844059.831    25844058.968    25844059.411
        36.500          20.250
 121138583.652 7                  23051905.892
        43.500
 140061526.310 6                  26652826.916
        36.000
 133442280.727 5 103981023.60842  25393222.275    25393221.207    25393224.332
        34.500          17.250
 195092227.288 7                  37124818.509
        46.750
 116586898.627 7                  21848336.211
        47.250
 104282680.994 8                  19535659.937
        51.750
 104142507.181 8                  19454695.553
        52.750
