     2.11           OBSERVATION DATA    M (MIXED)           RINEX VERSION / TYPE
teqc  2019Feb25                         20230504 17:05:26UTCPGM / RUN BY / DATE
Linux2.6.32-573.12.1.el6.x86_64|x86_64|gcc|Win64-MinGW64|=+ COMMENT
BIT 2 OF LLI FLAGS DATA COLLECTED UNDER A/S CONDITION       COMMENT
CVBB                                                        MARKER NAME
CVBB                                                        MARKER NUMBER
RFGH                SEGAL                                   OBSERVER / AGENCY
3055330             SEPT POLARX5        5.3.2               REC # / TYPE / VERS
1909270038          TWIVP6050_CONE  NONE                    ANT # / TYPE
  6378137.0000        0.0000        0.0000                  APPROX POSITION XYZ
        0.1190        0.0000        0.0000                  ANTENNA: DELTA H/E/N
     1     1                                                WAVELENGTH FACT L1/2
     7    L1    L2    C1    P1    P2    S1    S2            # / TYPES OF OBSERV
 SNR is mapped to RINEX snr flag value [0-9]                COMMENT
  L1 & L2: min(max(int(snr_dBHz/6), 0), 9)                  COMMENT
  2021    10    13    12    12    0.0000000     GPS         TIME OF FIRST OBS
    18                                                      LEAP SECONDS
                                                            END OF HEADER
 21 10 13 12 12  0.0000000  0 24G17G02G04G19G06G07G20G09G11G30E09E11
                                E04R05S48S36E12R20R19S23S25R06R18R04
 121407801.382 7  94603491.58055  23103136.803    23103136.656    23103138.751
        44.250          32.250
 124115367.798 7  96713264.24045  23618369.285    23618368.525    23618366.652
        44.250          33.250
 125002474.416 6  97404531.20544  23787179.817    23787179.558    23787181.300
        40.250          27.750
 116257419.574 7  90590191.29956  22123051.466    22123051.109    22123050.104
        46.500          38.250
 108540939.335 8  84577364.59149  20654653.974    20654653.738    20654656.057
        51.000          56.250
 118640460.592 7  92447112.78947  22576528.627    22576528.230    22576529.076
        46.750          47.750
 125019079.136 6  97417465.09254  23790339.291    23790338.567    23790339.718
        39.000          24.000
 111406367.659 8  86810160.87149  21199926.702    21199926.363    21199927.747
        50.000          54.250
 117690106.791 7  91706574.29245  22395682.335    22395682.134    22395682.006
        46.000          35.500
 125168353.577 6  97533800.67556  23818745.744    23818745.329    23818750.534
        41.500          40.750
 124155324.635 7                  23625972.704
        45.750
 116838339.841 7                  22233596.771
        45.250
 125817684.100 8                  23942309.288
        48.500
 109191409.449 8                  20426511.453
        52.250
  32318204.571 7                   6149938.591
        44.250
 196758287.698 7                  37441857.518
        47.000
 121096643.887 7                  23043925.034
        44.000
 110116818.116 6                  20592399.817
        40.500
 107102114.316 7                  20021611.313
        43.500
 205577919.989 7                  39120176.885
        43.500
 192642397.920 8                  36658593.100
        48.250
 127661957.624 5                  23923795.656
        34.250
 124327704.043 7                  23290767.446
        45.000
 114795944.210 8                  21437332.462
        49.500
 21 10 13 12 12 30.0000000  0 24G17G02G04G19G06G07G20G09G30E09E11E04
                                R05S48S36E12R20R19G13S23S25R06R18R04
 119925731.040 7  93448631.40845  22821108.090    22821107.791    22821109.970
        43.750          31.750
 122455376.266 7  95419764.35445  23302483.623    23302482.582    23302480.600
        44.250          33.750
 123522064.437 6  96250964.92844  23505467.026    23505466.781    23505468.390
        40.000          27.250
 114764639.367 7  89426985.86846  21838984.888    21838983.882    21838983.497
        46.500          37.500
 106935371.939 8  83326273.10049  20349124.581    20349124.362    20349126.700
        50.500          56.250
 117011445.731 7  91177750.59247  22266537.213    22266536.748    22266537.630
        46.250          47.250
 123377822.648 6  96138563.96143  23478018.532    23478017.571    23478018.990
        39.250          23.750
 109885039.273 8  85624710.15949  20910427.413    20910426.980    20910428.397
        49.250          54.000
 123502680.685 6  96235873.90146  23501779.366    23501778.544    23501783.755
        41.750          40.750
 122532615.347 7                  23317181.316
        45.750
 115232366.739 7                  21927990.246
        45.250
 124263636.513 8                  23646583.905
        48.750
 107589730.747 8                  20126884.142
        52.000
  30742404.332 7                   5850054.881
        43.750
 195182535.378 7                  37142002.856
        46.500
 119572104.006 7                  22753814.802
        44.000
 108438369.235 6                  20278522.461
        40.500
 105566608.632 7                  19734564.651
        43.250
 135227668.36414                  25732969.062
        29.500
 204002298.287 7                  38820344.974
        42.750
 191069108.229 7                  36359151.262
        47.750
 125988393.069 6                  23610169.865
        36.000
 122856620.827 7                  23015185.104
        45.750
 113264072.337 8                  21151266.057
        49.000
 21 10 13 12 13  0.0000000  0 25G17G02E19G04G19G06G07G20G09G30E09E11
                                E04R05S48S36E12R20R19G13S23S25R06R18
                                R04
 120019522.312 7  93521715.33845  22838956.159    22838955.851    22838958.139
        43.500          31.750
 122371236.808 7  95354201.15345  23286472.434    23286471.352    23286469.352
        44.750          33.750
 140109790.97915                  26662004.794
        34.000
 123617485.929 6  96325319.26844  23523625.340    23523625.086    23523626.965
        40.000          27.500
 114847929.151 7  89491886.92446  21854834.576    21854833.481    21854832.989
        46.250          37.750
 106905969.159 8  83303361.82649  20343529.431    20343529.217    20343531.425
        50.750          56.250
 116958491.305 7  91136487.43847  22256460.612    22256460.152    22256460.533
        46.250          47.250
 123312293.984 6  96087502.66844  23465549.193    23465548.165    23465549.061
        40.750          25.000
 109939799.257 8  85667380.25649  20920847.929    20920847.478    20920848.878
        49.500          54.000
 123412799.686 7  96165836.90946  23484674.582    23484673.715    23484679.781
        42.000          41.250
 122485886.809 7                  23308289.165
        46.000
 115202452.290 7                  21922297.750
        45.750
 124285555.106 8                  23650754.819
        49.250
 107591271.221 8                  20127172.677
        52.500
  30742339.958 7                   5850024.711
        44.000
 195182520.440 7                  37141999.712
        46.750
 119623613.387 7                  22763616.597
        44.250
 108363983.942 6                  20264610.809
        40.750
 105635807.071 7                  19747500.189
        43.250
 135119622.86615                  25712409.903
        31.500
 204002411.255 7                  38820367.050
        43.500
 191071554.326 7                  36359562.540
        47.750
 125915146.594 5                  23596444.182
        35.000
 122986348.126 7                  23039486.987
        45.250
 113337949.760 8                  21165062.199
        49.250
 21 10 13 12 13 30.0000000  0 24G17G02E19G04G19G06G07G20G09G30E09E11
                                E04R05S48S36E12R20R19S23S25R06R18R04
 120113456.779 7  93594910.85245  22856831.517    22856831.204    22856833.387
        43.500          32.250
 122287230.115 7  95288741.38645  23270486.440    23270485.354    23270482.980
        44.250          33.500
 140182790.839 5                  26675896.369
        35.000
 123713021.134 6  96399762.20944  23541805.313    23541805.054    23541806.968
        39.500          28.000
 114931569.725 7  89557061.32146  21870751.001    21870749.888    21870749.305
        46.500          38.000
 106877013.271 8  83280798.78149  20338019.243    20338019.029    20338021.237
        51.000          56.250
 116905879.177 7  91095491.01047  22246448.333    22246447.877    22246448.704
        46.750          47.500
 123246772.482 6  96036446.96344  23453081.234    23453080.206    23453080.456
        41.500          25.750
 109994928.435 8  85710338.03449  20931338.617    20931338.170    20931339.613
        49.750          54.250
 123322991.751 6  96095856.85646  23467585.012    23467584.154    23467589.476
        41.750          40.750
 122439418.753 7                  23299446.469
        45.750
 115172878.175 7                  21916669.945
        45.500
 124307720.652 8                  23654972.842
        49.000
 107593162.211 8                  20127526.360
        52.250
  30742289.988 7                   5849998.632
        44.000
 195182527.393 7                  37141998.863
        46.750
 119675454.463 7                  22773481.611
        44.500
 108290234.045 6                  20250819.736
        40.500
 105705717.930 7                  19760569.309
        43.250
 204002538.761 7                  38820391.058
        43.500
 191074029.294 7                  36359980.234
        47.750
 125842162.552 5                  23582765.552
        35.500
 123116271.042 7                  23063826.478
        45.750
 113411897.478 8                  21178872.130
        49.500
 21 10 13 12 14  0.0000000  0 25G17G02E19G04G19G06G07G20G09G30G13E09
                                E11E04R05S48S36E12R20R19S23S25R06R18
                                R04
 120207520.499 7  93668207.07745  22874731.159    22874730.842    22874733.435
        44.000          32.250
 122203348.481 7  95223379.09545  23254524.280    23254523.176    23254521.957
        44.750          34.000
 140255782.587 6                  26689786.655
        36.000
 123808657.617 6  96474284.06544  23560004.733    23560004.479    23560006.043
        40.000          27.500
 115015548.242 7  89622499.05346  21886731.524    21886730.398    21886730.097
        46.500          38.000
 106848495.992 8  83258577.51349  20332592.651    20332592.432    20332594.601
        51.000          56.500
 116853601.646 7  91054755.30447  22236500.426    22236499.970    22236500.842
        47.000          47.750
 123181247.704 7  95985388.70344  23440612.431    23440611.390    23440612.258
        42.000          27.250
 110050414.314 8  85753573.76449  20941897.363    20941896.907    20941898.317
        50.000          54.500
 123233249.451 7  96025927.94446  23450507.281    23450506.418    23450511.903
        42.250          41.250
 134903760.60816 105119879.17852  25671332.707    25671332.439    25671346.933
        36.250          12.750
 122393200.992 7                  23290651.572
        46.500
 115143635.631 7                  21911105.280
        46.250
 124330121.703 8                  23659235.673
        49.500
 107595391.653 8                  20127943.220
        52.250
  30742243.295 7                   5849972.044
        44.000
 195182532.845 7                  37141998.111
        47.000
 119727616.541 7                  22783407.803
        44.750
 108217113.571 6                  20237145.917
        40.750
 105776328.414 7                  19773769.310
        43.250
 204002672.567 7                  38820416.886
        43.500
 191076517.542 8                  36360398.523
        48.000
 125769430.325 6                  23569136.402
        36.500
 123246375.428 7                  23088199.460
        44.750
 113485902.922 8                  21192691.982
        49.750
 21 10 13 12 14 30.0000000  0 25G17G02E19G04G19G06G07G20G09G30G13E09
                                E11E04R05S48S36E12R20R19S23S25R06R18
                                R04
 120301717.898 7  93741607.45745  22892656.447    22892656.108    22892658.748
        43.500          31.500
 122119600.869 7  95158121.22645  23238587.418    23238586.305    23238584.808
        43.750          32.750
 140328772.174 5                  26703675.890
        35.500
 123904400.134 6  96548888.54544  23578223.700    23578223.446    23578225.539
        39.250          27.500
 115099867.986 7  89688202.66846  21902777.401    21902776.257    21902775.629
        46.500          37.500
 106820426.191 8  83236704.92549  20327251.203    20327250.984    20327252.958
        51.000          56.250
 116801667.933 7  91014287.51147  22226617.808    22226617.361    22226618.100
        46.750          47.750
 123115726.837 7  95934333.49144  23428144.262    23428143.221    23428144.345
        42.000          27.500
 110106261.575 8  85797091.09349  20952524.727    20952524.267    20952525.580
        49.500          54.000
 123143582.485 6  95956057.72846  23433444.091    23433443.224    23433448.495
        41.750          40.750
 134795949.26015                  25650817.242
        30.750
 122347240.435 7                  23281905.634
        46.000
 115114732.973 7                  21905605.283
        45.750
 124352763.921 8                  23663544.301
        49.000
 107597964.249 8                  20128424.732
        52.250
  30742205.045 7                   5849948.975
        44.000
 195182550.827 7                  37142001.997
        46.750
 119780106.019 7                  22793396.191
        44.250
 108144633.084 6                  20223591.345
        40.750
 105847643.150 7                  19787100.830
        43.250
 204002818.690 7                  38820443.152
        43.250
 191077425.294 7                  36360822.459
        47.750
 125696956.987 5                  23555556.009
        33.500
 123376664.581 7                  23112607.663
        44.500
 113559971.126 8                  21206523.580
        50.000
 21 10 13 12 15  0.0000000  0 25G17G02E19G04G19G06G07G20G09G30G13E09
                                E11E04R05S48S36E12R20R19S23S25R06R18
                                R04
 120396041.429 7  93815106.12545  22910605.892    22910605.553    22910608.101
        43.000          31.250
 122035985.162 7  95092966.13745  23222676.238    23222675.125    23222673.241
        44.000          33.000
 140401754.216 5                  26717564.017
        35.750
 124000242.081 6  96623570.51744  23596462.194    23596461.926    23596463.445
        40.000          27.750
 115184520.932 7  89754165.92546  21918886.114    21918884.961    21918884.413
        46.500          37.250
 106792801.496 8  83215179.17749  20321994.252    20321994.038    20321996.243
        50.750          56.000
 116750076.163 7  90974086.16747  22216800.276    22216799.829    22216800.210
        47.000          47.500
 123050205.422 7  95883277.85844  23415675.492    23415674.460    23415675.691
        42.000          27.500
 110162463.600 8  85840884.85948  20963219.548    20963219.088    20963220.623
        49.750          53.750
 123053989.434 7  95886245.10146  23416395.283    23416394.420    23416399.455
        42.000          41.000
 134688214.780 5 104951902.79652  25630315.270    25630315.253    25630326.106
        35.000          13.750
 122301532.769 7                  23273207.734
        46.500
 115086167.292 7                  21900169.422
        46.250
 124375641.786 8                  23667897.767
        49.250
 107600873.960 8                  20128968.823
        52.250
  30742173.840 7                   5849925.771
        44.000
 195182569.406 7                  37142008.396
        46.750
 119832918.049 7                  22803446.116
        44.500
 108072792.046 6                  20210157.270
        40.750
 105919655.251 7                  19800563.510
        43.500
 204002972.044 7                  38820471.994
        43.000
 191079942.016 7                  36361249.790
        47.750
 125624738.102 5                  23542022.107
        34.500
 123507130.828 7                  23137048.281
        45.000
 113634095.542 8                  21220365.282
        49.250
 21 10 13 12 15 30.0000000  0 25G17G02E19G04G19G06G07G20G09G30G13E09
                                E11E04R05S48S36E12R20R19S23S25R06R18
                                R04
 120490532.318 7  93888735.20245  22928587.251    22928586.916    22928589.184
        43.000          31.500
 121952548.059 7  95027950.22045  23206798.380    23206797.276    23206795.395
        44.750          33.250
 140474772.207 5                  26731458.689
        35.000
 124096225.954 6  96698363.06544  23614727.193    23614726.925    23614728.557
        39.250          27.000
 115269548.770 7  89820421.30746  21935066.464    21935065.297    21935064.648
        46.500          37.000
 106765668.410 8  83194036.50049  20316831.076    20316830.862    20316832.946
        50.750          56.000
 116698873.202 7  90934187.79447  22207056.695    22207056.248    22207056.670
        46.750          47.750
 122984728.287 6  95832256.72244  23403215.824    23403214.769    23403215.662
        40.500          27.000
 110219062.768 8  85884988.08848  20973990.105    20973989.645    20973990.991
        49.500          53.750
 122964517.658 7  95816526.96446  23399368.990    23399368.119    23399373.622
        43.000          41.750
 134580601.03216                  25609837.821
        37.750
 122256122.568 7                  23264566.440
        46.250
 115057984.591 7                  21894806.414
        45.750
 124398798.631 8                  23672304.464
        49.000
 107604163.820 8                  20129584.500
        52.250
  30742190.344 7                   5849915.759
        43.750
 195182643.228 7                  37142021.994
        46.750
 119886096.734 7                  22813565.736
        44.250
 108001639.518 6                  20196851.038
        41.250
 105992407.466 7                  19814163.465
        43.500
 204003177.987 7                  38820510.969
        43.250
 191082520.894 7                  36361686.699
        47.500
 125552818.911 5                  23528544.745
        34.750
 123637815.536 7                  23161530.084
        44.250
 113708319.777 8                  21234226.789
        49.250
 21 10 13 12 16  0.0000000  0 25G17G02E19G04G19G06G07G20G09G30G13E09
                                E11E04R05S48S36E12R20R19S23S25R06R18
                                R04
 120585117.592 7  93962437.81745  22946586.096    22946585.757    22946588.319
        42.250          31.500
 121869221.339 7  94963020.31345  23190941.961    23190940.857    23190938.945
        44.000          33.250
 140547754.522 5                  26745346.770
        34.250
 124192278.959 6  96773209.48744  23633005.187    23633004.919    23633006.989
        39.500          27.500
 115354877.662 7  89886911.28146  21951304.044    21951302.860    21951302.263
        46.000          37.250
 106738958.197 8  83173223.33449  20311748.384    20311748.170    20311750.071
        50.500          56.000
 116647990.605 7  90894539.06048  22197374.042    22197373.591    22197374.145
        46.500          48.000
 122919224.807 6  95781215.07744  23390751.474    23390750.388    23390750.370
        40.250          27.000
 110275986.064 8  85929343.88648  20984822.241    20984821.781    20984823.247
        49.000          53.750
 122875099.350 7  95746850.49946  23382353.136    23382352.265    23382357.757
        42.000          41.500
 134473060.89416 104784239.99651  25589369.828    25589369.475    25589380.884
        37.250           8.750
 122210939.160 7                  23255968.230
        46.000
 115030115.563 7                  21889503.054
        45.500
 124422162.583 8                  23676750.439
        49.000
 107607760.081 8                  20130257.344
        52.500
  30742186.967 7                   5849899.067
        43.500
 195182703.454 7                  37142033.223
        46.500
 119939570.851 7                  22823741.532
        44.250
 107931107.077 6                  20183661.661
        40.750
 106065825.480 7                  19827887.974
        43.500
 204003365.693 7                  38820548.137
        43.000
 191085092.936 7                  36362122.128
        47.500
 125481127.697 5                  23515107.252
        33.500
 123768643.650 7                  23186039.575
        45.000
 113782569.442 8                  21248092.544
        49.500
 21 10 13 12 16 30.0000000  0 25G17G02E19G04G19G06G07G20G09G30G13E09
                                E11E04R05S48S36E12R20R19S23S25R06R18
                                R04
 120679799.813 7  94036215.96645  22964603.853    22964603.527    22964606.212
        42.750          31.750
 121786012.575 7  94898182.32345  23175107.812    23175106.726    23175104.818
        44.250          33.500
 140620705.530 5                  26759229.144
        34.750
 124288404.360 6  96848112.33644  23651297.347    23651297.084    23651298.939
        39.250          26.500
 115440509.654 7  89953637.43146  21967599.245    21967598.061    21967597.786
        46.500          37.250
 106712678.181 8  83152745.38649  20306747.425    20306747.211    20306749.214
        51.000          56.250
 116597436.179 7  90855146.04348  22187753.800    22187753.349    22187754.026
        46.750          48.250
 122853700.512 6  95730157.21744  23378281.673    23378280.565    23378282.494
        39.500          26.750
 110333236.678 8  85973954.73448  20995716.724    20995716.264    20995717.675
        49.500          53.750
 122785742.825 7  95677222.18646  23365349.029    23365348.171    23365353.853
        42.500          41.750
 134365565.421 5 104700477.78843  25568913.409    25568913.096    25568924.150
        35.250          19.000
 122165987.971 7                  23247414.251
        46.250
 115002567.077 7                  21884260.809
        45.500
 124445737.804 8                  23681236.562
        49.000
 107611666.094 8                  20130987.998
        52.000
  30742166.376 7                   5849881.426
        43.750
 195182751.958 7                  37142041.844
        46.500
 119993345.307 7                  22833974.478
        44.000
 107861204.194 6                  20170588.912
        41.250
 106139911.607 7                  19841737.938
        43.500
 204003540.354 7                  38820582.278
        43.000
 191087655.992 7                  36362556.501
        47.750
 125409669.818 5                  23501717.254
        34.500
 123899616.657 7                  23210575.128
        43.750
 113856848.368 8                  21261963.196
        49.500
 21 10 13 12 17  0.0000000  0 25G17G02E19G04G19G06G07G20G09G30G13E09
                                E11E04R05S48S36E12R20R19S23S25R06R18
                                R04
 120774582.398 7  94110072.32345  22982640.374    22982640.039    22982642.904
        43.000          32.000
 121702930.670 7  94833443.18545  23159297.945    23159296.854    23159294.873
        44.000          33.750
 140693631.000 5                  26773106.351
        35.000
 124384606.759 6  96923075.17044  23669604.353    23669604.090    23669605.802
        39.250          26.750
 115526448.464 7  90020602.66246  21983953.079    21983951.872    21983951.511
        46.000          37.250
 106686837.012 8  83132609.39649  20301829.915    20301829.701    20301831.940
        50.500          56.250
 116547219.239 7  90816016.00548  22178197.792    22178197.345    22178198.070
        46.750          48.250
 122788162.342 6  95679088.54944  23365809.967    23365808.841    23365810.691
        40.000          26.500
 110390819.106 8  86018824.14748  21006674.351    21006673.891    21006675.181
        48.750          53.500
 122696457.685 6  95607649.49046  23348358.379    23348357.525    23348363.141
        41.750          41.750
                                  25548471.105
        31.000
 122121275.716 7                  23238905.770
        46.500
 114975347.260 7                  21879081.114
        46.000
 124469529.830 8                  23685764.122
        49.500
 107615886.910 8                  20131777.446
        52.250
  30742135.670 7                   5849862.158
        44.000
 195182790.843 7                  37142050.385
        46.500
 120047426.294 7                  22844265.723
        44.500
 107791941.458 6                  20157636.586
        40.750
 106214670.599 7                  19855712.838
        43.000
 204003709.685 7                  38820613.664
        43.000
 191090224.265 7                  36362992.471
        47.750
 125338452.086 5                  23488370.707
        35.500
 124030738.458 7                  23235139.346
        44.750
 113931161.460 8                  21275840.839
        49.000
 21 10 13 12 17 30.0000000  0 25G17G02E19G04G19G06G07G20G09G30G13E09
                                E11E04R05S48S36E12R20R19S23S25R06R18
                                R04
 120869465.539 7  94184007.04945  23000696.159    23000695.806    23000698.591
        43.750          32.250
 121619980.829 7  94768806.95945  23143512.899    23143511.817    23143510.595
        44.750          34.500
 140766532.866 5                  26786978.757
        34.250
 124480886.906 6  96998098.58844  23687925.703    23687925.444    23687927.252
        40.250          27.250
 115612693.632 7  90087806.60946  22000365.128    22000363.917    22000363.498
        46.500          37.500
 106661439.457 8  83112819.07849  20296996.879    20296996.669    20296998.979
        51.250          56.500
 116497344.905 7  90777152.93648  22168707.269    22168706.818    22168707.168
        47.250          48.250
 122722612.978 6  95628011.16144  23353337.379    23353336.262    23353336.291
        40.000          26.250
 110448733.954 8  86063952.58448  21017694.992    21017694.532    21017696.174
        49.250          53.750
 122607249.652 7  95538136.88147  23331383.128    23331382.283    23331387.095
        42.500          42.000
 134150771.56015 104533108.21753  25528042.256    25528041.698    25528051.696
        35.750          18.250
 122076805.245 7                  23230443.302
        46.250
 114948460.382 7                  21873964.805
        45.500
 124493540.325 8                  23690333.224
        49.000
 107620423.539 8                  20132626.354
        52.250
  30742097.341 7                   5849842.631
        44.250
 195182827.507 7                  37142057.428
        46.750
 120101816.131 7                  22854615.801
        44.250
 107723325.449 6                  20144804.894
        41.000
 106290102.512 7                  19869814.185
        43.000
 204003876.405 7                  38820646.173
        43.250
 191091194.908 8                  36363429.201
        48.000
 125267477.379 5                  23475070.224
        34.000
 124162007.946 7                  23259730.297
        44.000
 114005509.633 8                  21289725.324
        49.500
 21 10 13 12 18  0.0000000  0 25G17G02E19G04G19G06G07G20G09G30G13E09
                                E11E04R05S48S36E12R20R19S23S25R06R18
                                R04
 120964449.502 7  94258020.33045  23018771.242    23018770.889    23018773.234
        44.000          31.000
 121537168.341 7  94704277.76145  23127754.084    23127753.002    23127751.623
        45.000          34.500
 140839413.158 5                  26800847.947
        34.500
 124577245.843 6  97073183.40644  23706262.118    23706261.864    23706263.610
        40.250          27.000
 115699245.187 7  90155249.30346  22016835.422    22016834.211    22016833.744
        46.250          37.000
 106636490.540 8  83093378.34949  20292249.416    20292249.206    20292251.413
        51.000          56.500
 116447818.684 7  90738561.12048  22159282.612    22159282.156    22159282.400
        47.000          48.250
 122657055.889 6  95576927.75044  23340861.635    23340860.518    23340861.537
        41.500          26.750
 110506982.082 8  86109340.71748  21028779.358    21028778.898    21028780.562
        49.250          53.500
 122518124.730 7  95468689.02247  23314422.896    23314422.051    23314426.830
        42.750          42.000
 134043500.411 5 104449520.92843  25507628.761    25507628.113    25507637.656
        34.250          19.000
 122032579.633 7                  23222027.564
        46.250
 114921910.917 7                  21868912.626
        45.500
 124517771.183 8                  23694944.224
        49.250
 107625276.893 8                  20133534.430
        52.250
  30742053.531 7                   5849823.845
        44.000
 195182867.767 7                  37142064.054
        47.000
 120156517.383 7                  22865025.253
        44.250
 107655363.004 6                  20132095.706
        41.250
 106366207.834 7                  19884041.656
        43.250
 204004043.184 7                  38820677.014
        43.500
 191093772.509 8                  36363866.275
        48.000
 125196748.712 5                  23461816.221
        34.250
 124293424.767 7                  23284349.913
        44.000
 114079894.111 8                  21303615.584
        49.000
 21 10 13 12 18 30.0000000  0 25G17G02E19G04G19G06G07G20G09G30G13E09
                                E11E04R05S48S36E12R20R19S23S25R06R18
                                R04
 121059529.221 7  94332108.22445  23036864.577    23036864.206    23036866.765
        43.250          31.250
 121454493.514 7  94639855.83045  23112021.369    23112020.283    23112018.894
        44.750          34.750
 140912268.966 5                  26814711.915
        34.500
 124673679.391 6  97148326.36244  23724613.269    23724613.010    23724614.353
        39.250          27.500
 115786097.644 7  90222926.46246  22033362.939    22033361.728    22033361.331
        45.750          37.500
 106611990.153 8  83074287.12749  20287587.155    20287586.945    20287589.045
        50.750          56.750
 116398640.728 7  90700240.67448  22149924.203    22149923.752    22149923.970
        46.250          48.250
 122591489.256 6  95525836.89544  23328384.917    23328383.817    23328384.302
        41.250          26.750
 110565559.220 8  86154985.22349  21039926.169    21039925.709    21039927.110
        48.750          54.000
 122429083.776 7  95399306.58947  23297478.820    23297477.966    23297482.797
        42.250          42.000
 133936307.705 5 104365994.71341  25487230.856    25487230.172    25487239.156
        33.500          11.250
 121988596.861 7                  23213657.802
        46.250
 114895698.307 7                  21863924.456
        45.250
 124542219.187 8                  23699596.489
        49.000
 107630442.980 8                  20134500.524
        52.250
  30742002.984 7                   5849804.291
        43.750
 195182903.543 7                  37142069.899
        46.750
 120211527.472 7                  22875493.380
        44.250
 107588056.083 6                  20119509.251
        41.000
 106442981.884 7                  19898394.025
        43.250
 204004208.522 7                  38820710.055
        43.250
 191096353.417 8                  36364305.089
        48.000
 125126264.141 5                  23448606.172
        35.250
 124424983.095 7                  23308995.707
        44.000
 114154311.130 8                  21317512.464
        49.500
 21 10 13 12 19  0.0000000  0 25G17G02E19G04G19G06G07G20G09G30G13E09
                                E11E04R05S48S36E12R20R19S23S25R06R18
                                R04
 121154699.891 7  94406266.98745  23054974.927    23054974.588    23054977.404
        42.750          31.000
 121371957.374 7  94575541.96745  23096315.418    23096314.350    23096312.892
        44.750          34.500
 140985097.991 5                  26828570.928
        34.250
 124770184.172 6  97223524.81444  23742977.677    23742977.400    23742978.390
        38.500          25.750
 115873246.360 7  90290834.46946  22049946.831    22049945.615    22049945.215
        46.250          37.250
 106587938.787 8  83055545.79149  20283010.278    20283010.077    20283012.236
        50.750          56.500
 116349812.211 7  90662192.51948  22140632.446    22140631.995    22140632.278
        47.000          48.250
 122525911.691 6  95474737.50244  23315905.900    23315904.800    23315905.036
        41.750          26.250
 110624461.738 8  86200883.26648  21051135.013    21051134.553    21051136.135
        49.000          53.750
 122340128.299 7  95329990.75646  23280550.936    23280550.091    23280554.991
        42.500          41.500
                                  25466848.942
        30.250
 121944855.543 7                  23205334.241
        46.000
 114869822.491 7                  21859000.440
        45.750
 124566881.749 8                  23704289.568
        49.000
 107635918.454 8                  20135525.323
        52.250
  30741944.067 7                   5849785.023
        43.750
 195182939.115 7                  37142076.866
        46.500
 120266844.474 7                  22886020.012
        44.000
 107521406.703 6                  20107044.939
        41.000
 106520420.649 7                  19912870.431
        43.000
 204004371.259 7                  38820739.308
        43.000
 191098947.111 7                  36364744.046
        47.500
 125056021.875 5                  23435444.169
        35.000
 124556678.423 7                  23333668.110
        44.500
 114228757.182 8                  21331415.491
        49.500
 21 10 13 12 19 30.0000000  0 25G17G02E19G04G19G06G07G20G09G30G13E09
                                E11E04R05S48S36E12R20R19S23S25R06R18
                                R04
 121249965.131 7  94480499.45945  23073103.455    23073103.125    23073105.268
        43.250          30.500
 121289568.494 7  94511342.84045  23080637.220    23080636.156    23080634.525
        45.000          34.250
 141057905.550 5                  26842425.597
        34.250
 124866764.380 6  97298782.03744  23761356.199    23761355.931    23761357.331
        39.250          26.750
 115960694.317 7  90358975.65346  22066587.824    22066586.613    22066586.157
        46.500          37.250
 106564344.591 8  83037160.69549  20278520.551    20278520.346    20278522.575
        51.250          56.500
 116301341.643 7  90624423.28648  22131408.793    22131408.342    22131408.689
        47.250          48.500
 122460329.764 7  95423634.71844  23303425.974    23303424.892    23303425.136
        42.000          26.500
 110683693.732 8  86247038.04748  21062406.517    21062406.057    21062407.459
        49.250          53.500
 122251267.529 7  95260748.72347  23263641.439    23263640.599    23263645.398
        43.000          42.000
 133722164.13515 104199113.98352  25446479.155    25446479.062    25446488.983
        34.750          16.250
 121901361.936 7                  23197057.668
        46.250
 114844291.157 7                  21854142.015
        45.750
 124591763.932 8                  23709024.493
        49.000
 107641707.605 8                  20136607.653
        52.250
  30741887.229 7                   5849765.629
        43.750
 195182972.129 7                  37142084.011
        46.500
 120322474.081 7                  22896605.790
        44.000
 107455424.508 6                  20094706.444
        41.250
 106598527.585 7                  19927472.007
        43.250
 204004537.015 7                  38820770.296
        43.250
 191101546.761 7                  36365185.225
        47.750
 124986028.472 6                  23422328.357
        36.250
 124688513.317 7                  23358364.183
        44.250
 114303236.949 8                  21345323.578
        49.250
 21 10 13 12 20  0.0000000  0 25G17G02E19G04G19G06G07G20G09G30G13E09
                                E11E04R05S48S36E12R20R19S23S25R06R18
                                R04
 121345319.185 7  94554801.11145  23091248.958    23091248.623    23091251.068
        42.500          30.250
 121207325.708 7  94447257.56245  23064986.947    23064985.892    23064984.553
        44.500          34.250
 141130687.483 5                  26856275.833
        34.000
 124963414.793 6  97374093.97644  23779748.268    23779748.000    23779749.110
        39.000          26.750
 116048434.847 7  90427344.81646  22083284.010    22083282.776    22083282.677
        46.000          37.000
 106541206.232 8  83019130.79149  20274117.373    20274117.168    20274119.453
        50.750          56.500
 116253228.268 7  90586932.37648  22122253.012    22122252.565    22122253.060
        47.000          48.500
 122394740.179 6  95372525.96044  23290944.739    23290943.639    23290943.732
        41.000          26.250
 110743249.680 8  86293445.26748  21073739.513    21073739.053    21073740.567
        48.750          53.500
 122162501.159 7  95191580.24847  23246749.400    23246748.555    23246753.715
        42.500          42.000
 133615225.513 6 104115785.70743  25426129.189    25426129.113    25426138.065
        36.000          19.250
 121858112.798 7                  23188827.413
        46.250
 114819102.502 7                  21849348.788
        45.750
 124616861.317 8                  23713800.433
        49.000
 107647805.100 8                  20137748.586
        52.000
  30741826.408 7                   5849747.618
        43.750
 195183012.077 7                  37142090.549
        46.500
 120378412.532 7                  22907250.565
        44.000
 107390110.367 6                  20082491.601
        41.000
 106677296.521 7                  19942196.303
        43.500
 204004703.447 7                  38820802.523
        43.000
 191104155.093 7                  36365629.284
        47.750
 124916280.510 5                  23409257.191
        35.250
 124820481.089 7                  23383086.713
        43.500
 114377745.295 8                  21359237.534
        49.250
 21 10 13 12 20 30.0000000  0 26G17G02E19G04G19G06G07G20G09G30G13E09
                                E11E04R05S48S36E12R20R19S23S25R06R18
                                R04G05
 121440756.426 6  94629167.57844  23109410.014    23109409.670    23109412.550
        41.500          29.500
 121125229.544 7  94383286.53445  23049364.827    23049363.777    23049361.647
        44.250          33.500
 141203440.250 5                  26870120.155
        34.000
 125060130.721 6  97449456.95744  23798152.743    23798152.484    23798153.553
        39.250          26.250
 116136462.595 7  90495937.78646  22100035.237    22100034.003    22100033.675
        45.750          36.750
 106518522.931 8  83001455.48149  20269800.938    20269800.737    20269803.037
        50.750          56.250
 116205471.598 7  90549719.42248  22113165.059    22113164.608    22113165.225
        46.750          48.250
 122329140.651 6  95321409.46844  23278461.656    23278460.561    23278461.015
        40.750          26.250
 110803124.766 8  86340101.15348  21085133.459    21085132.999    21085134.570
        48.750          53.000
 122073829.499 7  95122485.57747  23229875.887    23229875.042    23229880.060
        42.750          42.250
 133508353.27116                  25405796.301    25405796.252    25405806.129
        37.250          16.000
 121815105.440 7                  23180643.379
        46.250
 114794255.250 7                  21844620.496
        45.750
 124642170.107 8                  23718616.511
        49.000
 107654206.511 8                  20138946.225
        52.250
  30741756.333 7                   5849725.635
        43.750
 195183042.865 7                  37142096.563
        46.500
 120434656.617 7                  22917953.454
        44.250
 107325464.742 6                  20070403.153
        41.250
 106756721.916 7                  19957043.936
        43.000
 204004867.285 7                  38820835.613
        43.000
 191105166.684 7                  36366073.463
        47.500
 124846775.042 5                  23396230.874
        34.750
 124952575.321 7                  23407833.134
        43.500
 114452277.628 8                  21373155.813
        49.500
 135064028.77215                  25701828.343
        34.000
 21 10 13 12 21  0.0000000  0 25G17G02E19G04G19G06G07G20G09G30G13E09
                                E11E04R05S48S36E12R20R19S23S25R06R18
                                R04
 121536282.076 6  94703602.95844  23127588.168    23127587.833    23127590.160
        41.750          28.750
 121043289.435 7  94319437.10145  23033771.920    23033770.883    23033769.032
        44.750          34.250
 141276171.178 5                  26883960.674
        33.750
 125156918.320 6  97524875.78744  23816570.879    23816570.616    23816571.773
        38.750          26.250
 116224782.232 7  90564758.20046  22116842.115    22116840.886    22116840.483
        46.250          37.000
 106496304.711 8  82984142.57449  20265573.065    20265572.869    20265574.952
        51.000          56.500
 116158082.223 7  90512792.67148  22104147.312    22104146.861    22104147.223
        47.250          48.500
 122263539.505 6  95270291.71444  23265977.790    23265976.673    23265977.394
        40.750          26.250
 110863324.912 8  86387010.34348  21096588.969    21096588.509    21096590.049
        49.000          53.250
 121985263.624 7  95053473.32247  23213022.348    23213021.499    23213026.403
        43.000          42.500
 133401595.686 6 103949342.04142  25385480.953    25385480.743    25385488.914
        37.250          17.000
 121772348.047 7                  23172507.063
        46.250
 114769759.019 7                  21839959.045
        45.500
 124667697.274 8                  23723474.161
        48.750
 107660918.142 8                  20140201.601
        52.000
  30741690.037 7                   5849707.547
        44.000
 195183085.391 7                  37142104.384
        46.750
 120491213.937 7                  22928716.094
        44.000
 107261499.729 6                  20058441.707
        41.250
 106836809.581 7                  19972016.082
        43.250
 204005037.445 7                  38820868.587
        43.500
 191107799.768 7                  36366521.153
        47.500
 124777520.454 5                  23383253.219
        35.500
 125084801.158 7                  23432603.643
        42.750
 114526840.538 8                  21387080.125
        48.750
 21 10 13 12 21 30.0000000  0 25G17G02E19G04G19G06G07G20G09G30G13E09
                                E11E04R05S48S36E12R20R19S23S25R06R18
                                R04
 121631879.628 6  94778094.33944  23145779.686    23145779.347    23145782.782
        41.500          29.250
 120961494.431 7  94255700.75345  23018206.946    23018205.914    23018204.736
        45.000          34.750
 141348865.660 5                  26897793.854
        34.000
 125253761.990 6  97600338.31144  23834999.657    23834999.389    23835000.796
        39.000          26.250
 116313377.027 7  90633793.02246  22133701.265    22133700.031    22133699.668
        46.250          37.000
 106474539.807 8  82967182.89949  20261431.255    20261431.054    20261433.134
        51.000          56.500
 116111048.696 7  90476143.20448  22095197.200    22095196.749    22095197.159
        47.000          49.000
 122197923.541 6  95219162.41144  23253491.678    23253490.561    23253490.871
        41.000          26.500
 110923834.262 8  86434160.46648  21108103.574    21108103.114    21108104.710
        49.000          53.250
 121896792.873 7  94984535.19147  23196186.800    23196185.960    23196190.753
        43.250          42.500
 133294922.138 6 103866220.27743  25365180.633    25365180.575    25365188.562
        37.750          18.250
 121729826.918 7                  23164415.305
        46.250
 114745601.506 7                  21835362.110
        45.250
 124693428.010 8                  23728370.549
        48.750
 107667924.013 8                  20141512.333
        52.000
  30741612.024 7                   5849688.905
        44.000
 195183121.199 7                  37142110.577
        46.750
 120548070.267 7                  22939535.462
        43.750
 107198205.065 6                  20046605.376
        41.250
 106917542.424 7                  19987108.380
        43.500
 204005200.498 7                  38820899.862
        43.500
 191110431.816 8                  36366968.021
        48.000
 124708502.758 5                  23370318.599
        35.000
 125217140.853 7                  23457396.419
        43.500
 114601418.561 8                  21401007.168
        49.000
 21 10 13 12 22  0.0000000  0 25G17G02E19G04G19G06G07G20G09G30G13E09
                                E11E04R05S48S36E12R20R19S23S25R06R18
                                R04
 121727558.144 6  94852648.81645  23163987.483    23163987.144    23163990.027
        41.750          30.000
 120879859.039 7  94192088.76345  23002672.485    23002671.457    23002669.604
        44.750          34.750
 141421534.805 5                  26911622.685
        33.750
 125350671.645 6  97675852.24444  23853440.786    23853440.541    23853442.197
        38.750          26.250
 116402255.563 7  90703048.93346  22150614.427    22150613.189    22150612.860
        46.000          37.000
 106453241.941 8  82950587.14949  20257378.328    20257378.132    20257380.498
        51.000          56.750
 116064385.084 7  90439781.98248  22086317.291    22086316.835    22086317.420
        46.750          49.000
 122132304.794 6  95168030.94044  23241005.017    23241003.886    23241004.151
        40.000          26.750
 110984662.528 8  86481559.09248  21119679.050    21119678.590    21119680.086
        48.750          53.250
 121808432.089 7  94915682.74947  23179372.087    23179371.242    23179375.896
        43.000          42.500
 133188333.55116 103783169.78053  25344898.689    25344898.627    25344910.057
        37.750          18.500
 121687553.930 7                  23156371.017
        46.250
 114721795.983 7                  21830832.024
        45.500
 124719373.016 8                  23733307.712
        49.000
 107675234.273 8                  20142879.820
        52.250
  30741536.037 7                   5849670.701
        44.000
 195183152.970 7                  37142117.303
        46.750
 120605236.949 7                  22950414.049
        43.750
 107135596.237 6                  20034896.452
        41.000
 106998929.778 7                  20002322.655
        43.500
 204005367.932 7                  38820930.573
        43.250
 191113073.805 8                  36367417.191
        48.000
 124639733.748 6                  23357430.463
        36.000
 125349603.144 7                  23482210.957
        42.750
 114676021.747 8                  21414939.043
        49.500
 21 10 13 12 22 30.0000000  0 25G17G02E19G04G19G06G07G20G09G30G13E09
                                E11E04R05S48S36E12R20R19S23S25R06R18
                                R04
 121823309.031 7  94927259.68945  23182208.208    23182207.882    23182210.923
        42.500          30.500
 120798379.594 7  94128598.30345  22987167.171    22987166.134    22987164.740
        44.750          34.750
 141494171.857 5                  26925444.383
        33.500
 125447639.421 6  97751411.47044  23871893.097    23871892.883    23871894.450
        39.250          26.250
 116491408.610 7  90772518.75546  22167579.507    22167578.264    22167578.111
        46.000          37.000
 106432407.049 8  82934352.16149  20253413.572    20253413.371    20253415.904
        51.000          57.000
 116018088.153 7  90403706.49448  22077507.168    22077506.712    22077507.201
        46.750          49.000
 122066677.509 6  95116892.81344  23228516.570    23228515.439    23228516.031
        41.000          27.000
 111045801.535 8  86529199.85248  21131313.229    21131312.764    21131314.466
        48.750          53.500
 121720178.314 7  94846913.68447  23162578.000    23162577.160    23162581.551
        43.000          42.500
 133081851.321 6 103700197.19041  25324634.736    25324634.482    25324643.251
        37.250          10.250
 121645523.162 7                  23148373.031
        46.500
 114698337.948 7                  21826368.110
        45.750
 124745525.232 8                  23738284.369
        49.250
 107682841.170 8                  20144302.666
        52.000
  30741455.542 7                   5849652.421
        43.750
 195183186.778 7                  37142124.801
        46.500
 120662707.480 7                  22961350.270
        44.250
 107073671.003 6                  20023316.966
        41.500
 107080963.045 7                  20017658.539
        43.250
 204005534.727 7                  38820961.718
        43.250
 191115716.560 8                  36367868.431
        48.000
 124571207.478 5                  23344590.021
        35.250
 125482178.361 7                  23507048.043
        44.250
 114750642.839 8                  21428874.017
        49.500
 21 10 13 12 23  0.0000000  0 25G17G02E19G04G19G06G07G20G09G30G13E09
                                E11E04R05S48S36E12R20R19S23S25R06R18
                                R04
 121919129.557 7  95001924.81045  23200442.065    23200441.721    23200445.363
        42.500          30.750
 120717058.571 7  94065231.27245  22971692.108    22971691.071    22971689.080
        45.250          34.250
 141566776.094 5                  26939261.164
        34.250
 125544663.537 6  97827014.60244  23890356.725    23890356.511    23890357.972
        39.500          26.500
 116580833.303 7  90842200.25346  22184596.365    22184595.122    22184594.987
        46.250          36.750
 106412037.152 8  82918479.50349  20249537.441    20249537.245    20249539.656
        51.000          57.000
 115972160.276 7  90367918.56948  22068767.554    22068767.103    22068767.339
        46.750          49.000
 122001042.098 6  95065748.36744  23216026.078    23216024.938    23216025.649
        41.000          26.750
 111107249.301 8  86577081.20948  21143006.532    21143006.067    21143007.665
        48.750          53.250
 121632034.723 7  94778230.47847  23145804.709    23145803.873    23145808.544
        43.500          43.000
 132975464.888 6 103617299.25142  25304391.421    25304391.001    25304397.940
        36.000          15.750
 121603734.761 7                  23140420.849
        46.250
 114675228.918 7                  21821970.537
        45.750
 124771883.641 8                  23743300.224
        49.000
 107690742.544 8                  20145780.920
        52.500
  30741370.943 7                   5849633.502
        43.750
 195183222.634 7                  37142132.734
        46.750
 120720481.443 7                  22972344.221
        43.750
 107012433.074 7                  20011864.965
        42.000
 107163639.183 7                  20033113.782
        43.500
 204005701.186 7                  38820995.532
        43.250
 191118372.545 8                  36368319.729
        48.000
 124502923.937 6                  23331791.355
        36.000
 125614863.336 7                  23531905.373
        44.250
 114825279.815 8                  21442811.833
        49.500
 21 10 13 12 23 30.0000000  0 26G17G02E19G04G19G06G07G20G09G05G30G13
                                E09E11E04R05S48S36E12R20R19S23S25R06
                                R18R04
 122015018.900 7  95076643.55945  23218690.112    23218689.782    23218692.946
        42.000          30.750
 120635900.578 7  94001991.28345  22956248.557    22956247.520    22956245.361
        44.750          34.750
 141639348.782 5                  26953070.866
        33.500
 125641744.172 6  97902661.77944  23908830.556    23908830.346    23908831.765
        39.500          26.250
 116670528.494 7  90912092.52346  22201665.146    22201663.899    22201663.519
        46.000          36.500
 106392136.097 8  82902972.18149  20245750.551    20245750.350    20245752.554
        51.000          56.750
 115926605.455 7  90332421.34148  22060098.345    22060097.894    22060098.468
        46.750          49.000
 121935401.128 6  95014599.57844  23203535.519    23203534.375    23203534.127
        41.250          26.500
 111169005.687 8  86625203.04048  21154758.315    21154757.850    21154759.415
        48.500          53.000
 134640135.38216 104914396.36754  25621163.273    25621163.037    25621166.968
        38.000          24.000
 121544006.376 7  94709637.07347  23129053.543    23129052.703    23129057.210
        43.500          43.250
 132869178.187 5 103534478.77443  25284164.446    25284164.044    25284172.169
        34.500          18.000
 121562190.746 7                  23132515.150
        46.500
 114652472.352 7                  21817640.138
        45.750
 124798449.185 8                  23748355.458
        48.750
 107698938.863 8                  20147314.017
        52.000
  30741281.696 7                   5849613.455
        44.000
 195183257.639 7                  37142139.075
        46.500
 120778560.296 7                  22983396.385
        43.750
 106951887.741 6                  20000542.063
        41.750
 107246957.183 7                  20048689.018
        43.500
 204005868.899 7                  38821027.629
        43.250
 191119431.956 7                  36368772.870
        47.750
 124434885.129 5                  23319041.268
        35.750
 125747656.734 7                  23556782.060
        43.500
 114899933.590 8                  21456752.566
        49.250
 21 10 13 12 24  0.0000000  0 26G17G02E19G04G19G06G07G20G09G05G30G13
                                E09E11E04R05S48S36E12R20R19S23S25R06
                                R18R04
 122110968.550 6  95151409.29846  23236948.791    23236948.465    23236951.569
        41.500          37.000
 120554902.362 7  93938875.80445  22940834.767    22940833.735    22940832.761
        45.250          35.500
 141711883.576 5                  26966873.951
        33.500
 125738873.801 6  97978347.13644  23927313.433    23927313.214    23927314.958
        39.250          26.000
 116760485.103 7  90982188.49846  22218783.144    22218781.897    22218781.968
        45.750          36.500
 106372700.220 8  82887827.33549  20242051.867    20242051.671    20242053.927
        51.250          56.750
 115881420.750 7  90297212.51448  22051500.095    22051499.653    22051500.061
        47.250          49.000
 121869749.309 6  94963442.33344  23191042.257    23191041.126    23191040.592
        41.000          26.250
 111231062.977 8  86673559.34148  21166567.492    21166567.027    21166568.657
        48.750          53.000
 134569410.903 6 104859286.40342  25607708.451    25607708.384    25607707.898
        38.000          17.000
 121456090.713 7  94641131.46847  23112323.342    23112322.497    23112327.135
        43.250          43.000
 132762988.386 6 103451733.81342  25263957.263    25263956.915    25263963.825
        37.000          14.250
 121520885.579 7                  23124655.120
        46.500
 114630064.089 7                  21813376.017
        45.750
 124825215.162 8                  23753448.786
        49.000
 107707422.354 8                  20148901.140
        52.500
  30741186.791 7                   5849595.658
        43.500
 195183293.715 7                  37142145.009
        46.500
 120836937.936 7                  22994505.282
        44.000
 106892032.993 6                  19989349.189
        41.500
 107330908.846 7                  20064383.121
        43.750
 204006031.981 7                  38821061.618
        43.000
 191122098.841 7                  36369226.972
        47.500
 124367085.395 5                  23306334.578
        35.000
 125880549.717 7                  23581677.817
        43.500
 114974596.623 8                  21470695.713
        49.500
 21 10 13 12 24 30.0000000  0 26G17G02E19G04G19G06G07G20G09G05G30G13
                                E09E11E04R05S48S36E12R20R19S23S25R06
                                R18R04
 122206980.698 7  95226223.73746  23255219.516    23255219.195    23255222.002
        42.250          41.500
 120474071.175 7  93875890.47845  22925453.075    22925452.034    22925450.781
        45.250          35.000
 141784384.417 5                  26980670.681
        34.500
 125836055.268 6  98054072.88444  23945806.410    23945806.196    23945807.992
        38.500          25.500
 116850705.148 7  91052489.74346  22235951.649    22235950.402    22235950.454
        46.000          36.250
 106353735.966 8  82873049.98849  20238443.087    20238442.891    20238445.019
        51.250          57.000
 115836613.134 7  90262297.51648  22042973.485    22042973.034    22042973.383
        47.500          49.000
 121804091.710 6  94912280.58644  23178547.966    23178546.844    23178546.141
        41.250          26.500
 111293423.677 8  86722152.06548  21178434.374    21178433.905    21178435.736
        48.750          53.000
 134498665.435 6 104804160.29443  25594244.101    25594244.030    25594245.564
        39.250          20.750
 121368295.430 7  94572719.66847  23095616.282    23095615.437    23095619.915
        43.500          42.750
 132656901.318 6 103369068.95241  25243769.808    25243769.487    25243776.224
        36.750          11.250
 121479823.871 7                  23116841.275
        46.500
 114608010.224 7                  21809179.359
        46.000
 124852185.129 8                  23758581.146
        48.750
 107716195.852 8                  20150542.680
        52.250
  30741090.441 7                   5849578.241
        43.000
 195183329.434 7                  37142151.671
        46.500
 120895618.468 7                  23005671.853
        43.750
 106832876.797 6                  19978286.121
        41.500
 107415495.865 7                  20080195.662
        43.750
 204006196.052 7                  38821092.034
        43.000
 191124770.135 7                  36369684.102
        47.500
 124299529.193 5                  23293676.635
        35.750
 126013543.265 7                  23606592.716
        43.500
 115049271.969 8                  21484640.542
        49.000
 21 10 13 12 25  0.0000000  0 26G17G02E19G04G19G06G07G20G09G05G30G13
                                E09E11E04R05S48S36E12R20R19S23S25R06
                                R18R04
 122303057.634 7  95301088.65146  23273502.140    23273501.810    23273505.076
        42.500          41.000
 120393414.864 7  93813041.42445  22910104.895    22910103.858    22910102.456
        45.000          34.500
 141856855.789 5                  26994461.336
        33.250
 125933292.030 6  98129841.71644  23964309.818    23964309.599    23964311.642
        38.500          24.750
 116941190.818 7  91122997.96045  22253170.517    22253169.274    22253169.349
        45.500          35.750
 106335250.556 8  82858645.76449  20234925.574    20234925.373    20234927.404
        51.000          56.500
 115792190.267 7  90227682.32048  22034520.086    22034519.639    22034520.000
        47.250          48.750
 121738434.016 6  94861118.76544  23166053.733    23166052.611    23166052.566
        41.250          26.500
 111356090.989 8  86770983.71248  21190359.566    21190359.101    21190360.703
        49.000          52.750
 134427904.216 3 104749021.57142  25580778.990    25580778.977    25580779.886
        23.250          12.250
 121280628.913 7  94504408.20047  23078933.988    23078933.143    23078937.414
        42.750          42.500
 132550924.293 6 103286489.95741  25223601.690    25223601.400    25223609.578
        38.000          11.750
 121439010.999 7                  23109074.897
        46.500
 114586317.434 7                  21805051.361
