     2.11           OBSERVATION DATA    M (MIXED)           RINEX VERSION / TYPE
teqc  2019Feb25                         20230504 17:05:24UTCPGM / RUN BY / DATE
Linux2.6.32-573.12.1.el6.x86_64|x86_64|gcc|Win64-MinGW64|=+ COMMENT
BIT 2 OF LLI FLAGS DATA COLLECTED UNDER A/S CONDITION       COMMENT
-Unknown-                                                   MARKER NAME
-Unknown-           -Unknown-                               OBSERVER / AGENCY
-Unknown-           -Unknown-           -Unknown-           REC # / TYPE / VERS
-Unknown-           -Unknown-                               ANT # / TYPE
        0.0000        0.0000        0.0000                  APPROX POSITION XYZ
        0.0000        0.0000        0.0000                  ANTENNA: DELTA H/E/N
     1     1                                                WAVELENGTH FACT L1/2
     7    L1    L2    C1    P1    P2    S1    S2            # / TYPES OF OBSERV
 SNR is mapped to RINEX snr flag value [0-9]                COMMENT
  L1 & L2: min(max(int(snr_dBHz/6), 0), 9)                  COMMENT
  2021    10    12     0     0    0.0000000     GPS         TIME OF FIRST OBS
    18                                                      LEAP SECONDS
                                                            END OF HEADER
 21 10 12  0  0  0.0000000  0 26G31G16S48G32G25G18E05E09R09R22E31E12
                                G29E26R10S36S23R08E04R01S25R20E24E01
                                R21G26
 110339228.612 8  85978641.38247  20996844.736    20996844.450    20996842.329
        49.750          43.750
 130843882.242 5 101956290.34443  24898764.081    24898763.277    24898762.356
        35.500          18.750
  31871342.342 7                   6065094.946
        44.750
 116853835.969 7  91054958.72646  22236533.939    22236533.841    22236535.949
        46.000          38.500
 120386846.711 7  93808057.87747  22908816.530    22908815.712    22908817.590
        42.750          43.500
 120441094.570 7  93850247.55745  22919165.214    22919165.018    22919166.180
        44.500          33.750
 145476904.443 6                  27683334.751
        36.500
 125501575.469 7                  23882146.818
        45.000
 120529643.727 7                  22571295.403
        45.500
                                  24433273.857
        28.000
 128540819.879 8                  24460458.447
        48.000
 131507100.489 5                  25024965.300
        31.750
 112317112.203 8  87519890.83748  21373224.614    21373224.123    21373223.232
        48.750          53.000
 137041887.087 6                  26078178.194
        40.500
 109715458.463 8                  20582289.275
        50.250
 196145182.245 7                  37325181.032
        47.500
 205021202.632 7                  39014036.480
        44.000
 123740197.255 7                  23107609.988
        43.500
 140403993.646 7                  26717985.440
        45.750
 122539062.634 6                  22923465.560
        41.500
 195687403.597 7                  37238080.746
        46.750
 108443319.791 6                  20279430.797
        40.000
 141318743.845 6                  26892037.179
        41.000
 136508172.712 7                  25976605.110
        42.750
 110975845.733 8                  20738493.402
        51.500
 117271558.798 7  91380518.16646  22316007.251    22316006.836    22316010.241
        44.250          36.500
 21 10 12  0  0 30.0000000  0 26G31G16S48G32G25G18E05E09R09R22E31E12
                                G29E26R10S36S23R08E04R01S25R20E24E01
                                R21G26
 110295137.881 8  85944284.96747  20988454.544    20988454.258    20988452.327
        49.750          43.500
 130774404.283 6 101902151.73243  24885542.394    24885541.523    24885541.114
        37.750          20.250
  31871322.656 7                   6065118.471
        44.500
 116933975.840 7  91117404.98546  22251784.491    22251784.393    22251786.498
        47.750          38.250
 120448225.690 7  93855885.61047  22920496.357    22920495.535    22920497.616
        42.000          43.250
 120361003.801 7  93787839.31745  22903924.260    22903924.059    22903925.598
        44.750          34.000
 145444697.228 6                  27677206.171
        37.000
 125535144.252 7                  23888534.584
        44.750
 120582827.893 7                  22581255.639
        45.750
                                  24407618.933
        27.750
 128531469.784 7                  24458679.226
        47.500
 131418733.841 6                  25008149.797
        38.250
 112378137.339 8  87567442.85848  21384837.426    21384836.930    21384836.009
        48.500          52.750
 137073359.961 6                  26084167.162
        40.000
 109709538.787 8                  20581178.545
        50.500
 196145139.105 7                  37325172.084
        47.500
 205021029.735 7                  39014003.524
        44.000
 123834564.360 7                  23125233.078
        43.500
 140484284.479 6                  26733264.941
        41.250
 122577676.549 6                  22930688.553
        41.500
 195684627.114 7                  37237562.006
        46.500
 108478447.290 6                  20285999.234
        39.500
 141277951.622 6                  26884274.677
        41.500
 136540588.008 7                  25982773.334
        43.250
 110877082.129 8                  20720037.062
        51.750
 117225630.731 7  91344730.08145  22307267.523    22307267.099    22307270.088
        44.500          35.750
 21 10 12  0  1  0.0000000  0 26G31G16S48G32G25G18E05E09R09R22E31E12
                                G29E26R10S36S23R08E04R01S25R20E24E01
                                R21G26
 110251398.741 8  85910202.51747  20980131.413    20980131.123    20980129.023
        49.750          43.250
 130705039.695 5 101848101.51043  24872342.716    24872341.894    24872341.685
        35.750          18.750
  31871326.727 7                   6065146.508
        44.500
 117014429.560 7  91180096.09946  22267094.342    22267094.231    22267096.462
        47.500          37.500
 120509663.598 6  93903759.24247  22932187.593    22932186.766    22932189.107
        41.750          43.000
 120281131.262 7  93725601.11545  22888724.860    22888724.650    22888726.396
        44.250          34.000
 145412879.283 6                  27671151.402
        36.500
 125569076.042 7                  23894991.664
        44.500
 120636265.288 7                  22591262.453
        45.500
                                  24381958.835
        31.500
 128522154.298 7                  24456906.437
        47.750
 131330435.200 6                  24991347.520
        40.000
 112439581.647 8  87615321.52648  21396529.721    21396529.225    21396528.144
        49.000          52.500
 137105252.509 6                  26090236.294
        40.250
 109703844.270 8                  20580110.433
        50.500
 196145118.110 7                  37325168.721
        47.250
 205020881.414 7                  39013975.947
        43.500
 123929112.230 7                  23142888.747
        42.750
 140564632.551 7                  26748554.604
        43.000
 122616881.761 7                  22938022.473
        42.250
 195681875.224 7                  37237043.848
        46.250
 108514402.590 6                  20292723.496
        39.500
 141237165.866 6                  26876513.256
        40.750
 136573044.410 7                  25988949.640
        43.500
 110778876.249 8                  20701684.886
        51.750
 117179831.387 7  91309042.28545  22298552.338    22298551.918    22298553.930
        45.000          35.000
 21 10 12  0  1 30.0000000  0 26G31G16S48G32G25G18E05E09R09R22E31E12
                                G29E26R10S36S23R08E04R01S25R20E24E01
                                R21G26
 110207968.663 8  85876360.90047  20971866.840    20971866.550    20971864.521
        50.000          44.000
 130635744.449 6 101794105.29243  24859156.339    24859155.526    24859155.000
        37.500          20.000
  31871308.879 7                   6065171.504
        44.250
 117095149.530 7  91242994.57646  22282454.889    22282454.778    22282457.174
        47.250          37.250
 120571116.498 7  93951644.58747  22943881.421    22943880.603    22943883.384
        42.750          43.750
 120201436.217 7  93663501.18245  22873559.056    22873558.851    22873560.893
        44.750          34.250
 145381407.386 6                  27665162.602
        38.000
 125603325.703 7                  23901509.181
        44.750
 120689911.592 7                  22601310.308
        46.250
                                  24356288.189
        31.250
 128512829.670 7                  24455132.004
        47.750
 131242163.599 5                  24974550.726
        34.500
 112501398.894 8  87663490.78948  21408293.275    21408292.779    21408291.945
        48.750          52.500
 137137520.304 6                  26096376.742
        41.000
 109698332.389 8                  20579076.315
        50.500
 196145074.226 7                  37325161.093
        47.250
 205020713.128 7                  39013942.517
        44.000
 124023791.683 7                  23160569.296
        43.750
 140644989.184 6                  26763845.958
        40.000
 122656630.386 6                  22945458.994
        41.250
 195679089.687 7                  37236520.230
        47.000
 108551138.300 6                  20299592.834
        40.000
 141196342.364 6                  26868744.987
        41.750
 136605498.547 7                  25995125.897
        43.250
 110681187.646 8                  20683429.524
        51.000
 117134116.607 7  91273420.38145  22289853.306    22289852.886    22289854.451
        45.500          35.500
 21 10 12  0  2  0.0000000  0 26G31G16S48G32G25G18E05E09R09R22E31E12
                                G29E26R10S36S23R08E04R01S25R20E24E01
                                R21G26
 110164872.544 8  85842779.50547  20963666.001    20963665.711    20963663.700
        49.500          43.750
 130566540.542 6 101740180.20443  24845987.487    24845986.620    24845986.067
        36.000          19.750
  31871292.120 7                   6065194.524
        44.250
 117176155.674 7  91306116.25646  22297869.847    22297869.722    22297872.395
        47.250          39.000
 120632606.647 7  93999558.95847  22955583.154    22955582.345    22955584.717
        42.750          44.750
 120121944.377 7  93601559.64545  22858432.536    22858432.331    22858433.832
        44.500          34.000
 145350304.533 6                  27659243.780
        37.750
 125637914.224 7                  23908091.146
        45.000
 120743790.743 7                  22611397.679
        45.500
                                  24330619.828
        30.500
 128503518.399 8                  24453360.076
        48.000
 131153927.57715                  24957763.568
        33.000
 112563608.689 8  87711965.93848  21420131.538    21420131.042    21420130.083
        48.500          52.500
 137170184.832 6                  26102592.705
        41.000
 109693027.415 8                  20578081.533
        50.000
 196145033.725 7                  37325153.057
        47.250
 205020546.199 7                  39013911.118
        44.000
 124118620.587 7                  23178278.112
        43.500
 140725374.148 6                  26779143.431
        41.750
 122696942.794 7                  22953000.225
        42.250
 195676291.873 7                  37235995.932
        46.500
 108588675.757 6                  20306613.560
        39.750
 141155503.102 6                  26860973.503
        41.000
 136637973.487 7                  26001305.338
        43.750
 110584043.150 8                  20665275.605
        50.750
 117088508.552 7  91237881.62845  22281174.554    22281174.130    22281175.514
        45.250          35.750
 21 10 12  0  2 30.0000000  0 26G31G16S48G32G25G18E05E09R09R22E31E12
                                G29E26R10S36S23R08E04R01S25R20E24E01
                                R21G26
 110122111.592 8  85809459.27747  20955528.795    20955528.509    20955526.456
        50.250          44.000
 130497427.264 6 101686325.80643  24832834.841    24832833.974    24832834.135
        36.750          19.250
  31872875.261 7                   6065221.385
        44.250
 117257443.774 7  91369457.68546  22313338.470    22313338.336    22313340.999
        47.250          39.000
 120694133.474 7  94047501.93347  22967290.941    22967290.128    22967292.502
        43.500          44.500
 120042657.943 7  93539778.16245  22843344.159    22843343.945    22843345.911
        45.000          34.250
 145319570.637 6                  27653395.043
        38.250
 125672839.489 7                  23914737.238
        45.500
 120797902.828 7                  22621531.764
        45.000
                                  24304942.971
        32.000
 128494219.852 8                  24451590.786
        48.000
 131065770.92016                  24940986.977
        39.500
 112626207.443 8  87760744.17048  21432043.479    21432042.983    21432042.079
        49.000          52.750
 137203244.639 6                  26108883.572
        41.000
 109687930.375 8                  20577124.799
        50.000
 196144993.654 7                  37325145.773
        47.500
 205020380.532 7                  39013878.180
        43.750
 124213594.047 7                  23196014.006
        44.500
 140805786.359 6                  26794445.337
        40.750
 122737814.609 6                  22960646.232
        41.750
 195673484.540 7                  37235470.794
        46.250
 108627012.214 6                  20313782.437
        39.250
 141114647.013 6                  26853198.816
        41.500
 136670469.106 7                  26007489.420
        44.250
 110487445.988 8                  20647224.149
        52.250
 117043006.255 7  91202425.29046  22272515.588    22272515.164    22272516.964
        46.000          36.500
 21 10 12  0  3  0.0000000  0 26G31G16S48G32G25G18E05E09R09R22E31E12
                                G29E26R10S36S23R08E04R01S25R20E24E01
                                R21G26
 110079686.787 8  85776400.98347  20947455.662    20947455.376    20947453.250
        49.750          43.750
 130428402.931 6 101632540.70443  24819700.268    24819699.401    24819699.441
        36.250          19.250
  31872858.664 7                   6065246.408
        44.500
 117339009.556 7  91433015.28946  22328860.126    22328859.997    22328862.511
        47.500          37.500
 120755695.923 7  94095472.62547  22979006.271    22979005.453    22979007.541
        43.000          44.500
 119963579.339 7  93478158.65345  22828296.141    22828295.936    22828297.596
        44.750          34.000
 145289205.446 6                  27647617.328
        37.750
 125708099.271 7                  23921446.898
        45.250
 120852247.704 7                  22631709.574
        46.250
 129604349.306 5                  24279263.192
        30.250
 128484933.376 8                  24449823.551
        48.000
 130977664.433 4                  24924220.820
        29.500
 112689192.613 8  87809823.51248  21444029.209    21444028.713    21444028.039
        48.500          53.000
 137236698.086 6                  26115249.516
        40.500
 109683042.521 8                  20576208.199
        50.250
 196144958.820 7                  37325139.030
        47.250
 205020216.377 7                  39013847.142
        43.750
 124308706.770 7                  23213775.608
        44.750
 140886222.797 6                  26809752.405
        40.500
 122779241.955 6                  22968395.267
        41.750
 195670672.279 7                  37234942.798
        46.750
 108666145.215 6                  20321101.324
        39.250
 141073772.907 6                  26845420.512
        41.750
 136702985.120 7                  26013676.843
        44.500
 110391399.345 8                  20629275.480
        51.500
 116997608.572 7  91167050.47646  22263876.612    22263876.179    22263878.241
        45.250          36.250
 21 10 12  0  3 30.0000000  0 26G31G16S48G32G25G18E05E09R09R22E31E12
                                G29E26R10S36S23R08E04R01S25R20E24E01
                                R21G26
 110037598.538 8  85743604.94347  20939446.483    20939446.197    20939444.131
        50.000          43.750
 130359465.950 6 101578823.62843  24806581.665    24806580.767    24806581.011
        36.000          19.500
  31872840.419 7                   6065271.029
        44.500
 117420848.837 7  91496786.12046  22344433.656    22344433.531    22344436.099
        47.750          37.250
 120817292.476 7  94143469.92647  22990727.657    22990726.835    22990729.000
        42.750          43.750
 119884709.967 7  93416702.19645  22813287.816    22813287.606    22813289.082
        45.000          34.000
 145259207.908 6                  27641908.418
        38.000
 125743690.531 7                  23928219.902
        45.000
 120906824.866 7                  22641930.290
        44.750
 129467250.84014                  24253580.780
        28.250
 128475657.442 8                  24448058.405
        48.250
 130889613.341 6                  24907465.333
        40.000
 112752559.701 8  87859200.44448  21456087.884    21456087.388    21456086.485
        48.000          52.250
 137270542.729 6                  26121689.920
        40.500
 109678363.304 8                  20575330.787
        50.500
 196144919.272 7                  37325131.768
        47.500
 205020050.995 7                  39013815.295
        44.000
 124403952.820 7                  23231562.430
        45.000
 140966680.223 6                  26825063.003
        41.000
 122821220.050 6                  22976248.418
        41.750
 195667846.936 7                  37234414.999
        46.500
 108706070.612 6                  20328565.497
        39.750
 141032878.732 6                  26837638.839
        41.500
 136735520.062 7                  26019868.107
        43.000
 110295905.754 8                  20611430.189
        51.500
 116952313.796 7  91131755.86246  22255257.347    22255256.918    22255258.817
        45.250          36.000
 21 10 12  0  4  0.0000000  0 26G31G16S48G32G25G18E05E09R09R22E31E12
                                G29E26R10S36S23R08E04R01S25R20E24E01
                                R21G26
 109995846.568 8  85711070.94547  20931501.324    20931501.038    20931499.167
        49.750          44.000
 130290613.909 6 101525172.76643  24793479.806    24793478.921    24793478.580
        37.750          20.000
  31872816.920 7                   6065296.956
        44.500
 117502956.706 7  91560766.38946  22360057.967    22360057.847    22360060.583
        47.000          38.000
 120878921.198 7  94191492.31047  23002454.817    23002453.990    23002456.868
        42.250          44.000
 119806050.957 7  93355409.62045  22798319.170    22798318.956    22798320.665
        44.500          34.250
 145229576.679 6                  27636270.080
        37.250
 125779609.934 7                  23935055.004
        44.500
 120961632.685 7                  22652194.225
        46.250
                                  24227894.971
        28.250
 128466390.302 7                  24446294.912
        47.750
 130801618.404 6                  24890720.300
        37.000
 112816304.326 8  87908871.57348  21468217.946    21468217.450    21468216.455
        48.250          52.500
 137304775.842 6                  26128203.924
        40.000
 109673892.768 8                  20574491.559
        50.250
 196144878.949 7                  37325123.115
        47.250
 205019883.328 7                  39013784.902
        44.000
 124499325.805 7                  23249373.841
        43.750
 141047154.286 6                  26840376.481
        40.750
 122863744.003 7                  22984203.751
        42.000
 195665006.434 7                  37233881.821
        46.250
 108746784.544 6                  20336179.915
        39.500
 140991962.251 6                  26829852.554
        41.750
 136768073.022 7                  26026062.553
        43.750
 110200966.762 8                  20593688.476
        51.500
 116907119.487 7  91096539.52846  22246657.180    22246656.751    22246658.429
        45.000          36.000
 21 10 12  0  4 30.0000000  0 27G31G16S48G32G25G18E05E09R09G27R22E31
                                E12G29E26R10S36S23R08E04R01S25R20E24
                                E01R21G26
 109954444.975 8  85678809.96647  20923622.930    20923622.644    20923620.414
        49.750          43.250
 130221858.013 6 101471596.81043  24780396.269    24780395.362    24780394.586
        38.250          21.250
  31872801.694 7                   6065321.402
        44.500
 117585341.396 7  91624962.34746  22375735.132    22375735.021    22375737.774
        47.250          37.500
 120940593.923 6  94239549.07847  23014190.880    23014190.049    23014193.031
        41.750          43.250
 119727617.145 7  93294292.53645  22783393.913    22783393.708    22783395.069
        45.000          34.250
 145200324.061 6                  27630703.271
        38.000
 125815867.751 7                  23941954.632
        45.000
 121016684.328 7                  22662503.291
        46.000




 128457143.760 8                  24444535.370
        48.000
 130713693.096 6                  24873988.504
        38.750
 112880435.710 8  87958844.06848  21480421.660    21480421.164    21480420.461
        48.500          52.250
 137339408.281 6                  26134794.304
        39.750
 109669644.918 8                  20573694.951
        50.750
 196144850.732 7                  37325117.968
        47.500
 205019723.815 7                  39013752.692
        44.000
 124594833.390 7                  23267209.379
        43.750
 141127655.081 6                  26855695.229
        40.500
 122906822.280 6                  22992262.828
        41.250
 195662161.500 7                  37233348.861
        46.250
 108788297.252 6                  20343943.960
        39.750
 140951034.819 7                  26822064.750
        42.000
 136800656.117 7                  26032263.046
        42.750
 110106598.470 8                  20576053.558
        51.250
 116862037.218 7  91061410.48945  22238078.534    22238078.114    22238079.384
        45.500          35.500
 21 10 12  0  5  0.0000000  0 27G31G16S48G32G25G18E05E09R09G27R22E31
                                E12G29E26R10S36S23R08E04R01S25R20E24
                                E01R21G26
 109913370.198 8  85646803.65147  20915806.678    20915806.397    20915804.138
        49.750          43.750
 130153173.157 6 101418076.22443  24767326.392    24767325.494    24767324.422
        38.250          21.000
  31872768.940 7                   6065343.371
        44.500
 117667974.513 7  91689351.84846  22391459.577    22391459.466    22391462.289
        47.250          37.750
 121002285.270 7  94287620.38747  23025930.636    23025929.805    23025932.225
        42.500          44.250
 119649386.436 7  93233333.72545  22768506.781    22768506.567    22768507.884
        44.750          34.250
 145171425.275 6                  27625204.097
        37.500
 125852437.246 7                  23948913.661
        44.250
 121071954.871 7                  22672854.589
        46.250
                                  25840864.499
        29.000
 129055912.682 5                  24176515.888
        31.250
 128447892.696 7                  24442774.991
        47.000
 130625814.411 6                  24857265.435
        38.250
 112944925.919 8  88009096.17948  21492693.864    21492693.368    21492692.297
        48.500          52.000
 137374413.926 6                  26141455.802
        39.500
 109665595.754 8                  20572935.642
        50.250
 196144803.494 7                  37325108.055
        47.250
 205019548.310 7                  39013720.081
        44.000
 124690445.563 7                  23285064.415
        44.500
 141208154.650 6                  26871013.809
        41.500
 122950426.372 7                  23000419.550
        42.000
 195659286.874 7                  37232810.433
        46.250
 108830580.518 6                  20351849.968
        39.750
 140910070.784 6                  26814269.236
        41.750
 136833244.720 7                  26038464.391
        42.750
 110012779.006 8                  20558520.963
        52.000
 116817041.469 7  91026348.86746  22229515.932    22229515.508    22229516.764
        45.500          36.000
 21 10 12  0  5 30.0000000  0 27G31G16S48G32G25G18E05E09R09G27R22E31
                                E12G29E26R10S36S23R08E04R01S25R20E24
                                E01R21G26
 109872645.855 8  85615070.39747  20908056.937    20908056.651    20908054.553
        49.750          43.750
 130084580.706 6 101364627.63143  24754272.615    24754271.690    24754270.727
        38.250          19.750
  31872740.514 7                   6065365.993
        44.250
 117750874.629 7  91753949.24346  22407235.084    22407234.977    22407237.471
        47.250          38.500
 121064016.814 7  94335722.96447  23037677.495    23037676.664    23037679.191
        42.500          44.250
 119571383.850 7  93172552.66645  22753663.123    22753662.913    22753664.203
        45.000          34.500
 145142902.789 6                  27619776.794
        38.000
 125889338.909 7                  23955935.914
        45.000
 121127467.410 7                  22683249.837
        46.250
 135685921.95516 105729346.68152  25820175.544    25820175.375    25820185.435
        37.500          16.750
                                  24150823.071
        31.500
 128438659.197 8                  24441017.887
        48.000
 130538006.043 6                  24840555.610
        38.500
 113009794.053 8  88059642.76848  21505037.713    21505037.222    21505036.694
        48.750          52.500
 137409813.838 6                  26148192.092
        40.750
 109661769.171 8                  20572217.601
        50.250
 196144755.397 7                  37325099.881
        47.250
 205019378.628 7                  39013686.910
        44.250
 124786179.493 7                  23302941.503
        44.750
 141288672.389 7                  26886335.867
        44.000
 122994574.976 6                  23008677.363
        40.750
 195656409.150 7                  37232272.153
        46.750
 108873654.076 6                  20359905.758
        39.500
 140869091.729 6                  26806471.442
        41.750
 136865861.279 7                  26044671.154
        44.500
 109919534.703 8                  20541096.140
        52.250
 116772153.917 7  90991371.54946  22220973.922    22220973.502    22220975.195
        45.750          36.000
 21 10 12  0  6  0.0000000  0 27G31G16S48G32G25G18E05E09R09G27R22E31
                                E12G29E26R10S36S23R08E04R01S25R20E24
                                E01R21G26
 109832272.725 8  85583610.81947  20900374.329    20900374.043    20900372.068
        49.500          43.750
 130016079.435 6 101311250.09743  24741238.582    24741237.702    24741236.296
        37.750          19.500
  31872715.531 7                   6065392.170
        44.250
 117834037.712 7  91818751.46946  22423060.835    22423060.733    22423062.995
        46.750          37.500
 121125787.588 7  94383856.06047  23049432.104    23049431.277    23049433.588
        42.750          44.000
 119493611.354 7  93111950.90545  22738863.367    22738863.157    22738864.286
        44.750          34.250
 145114756.037 6                  27614420.586
        38.000
 125926570.197 7                  23963020.753
        45.000
 121183221.542 7                  22693691.138
        46.250
 135577339.93116                  25799506.485
        39.500
                                  24125132.119
        30.250
 128429442.361 8                  24439263.977
        48.000
 130450268.994 6                  24823859.885
        39.250
 113075036.832 8  88110481.29348  21517452.906    21517452.415    21517451.966
        48.250          52.250
 137445606.093 6                  26155003.466
        40.000
 109658165.631 8                  20571541.249
        49.750
 196144717.587 7                  37325093.728
        47.500
 205019212.334 7                  39013655.864
        43.750
 124882029.766 7                  23320840.538
        45.250
 141369204.988 6                  26901661.460
        39.750
 123039263.742 6                  23017039.100
        41.500
 195653524.401 7                  37231732.898
        46.750
 108917514.590 6                  20368107.791
        39.750
 140828096.225 6                  26798669.941
        41.750
 136898505.139 7                  26050882.929
        44.000
 109826868.156 8                  20523778.821
        52.000
 116727373.275 7  90956477.55046  22212452.372    22212451.948    22212454.094
        45.000          36.500
 21 10 12  0  6 30.0000000  0 27G31G16S48G32G25G18E05E09R09G27R22E31
                                E12G29E26R10S36S23R08E04R01S25R20E24
                                E01R21G26
 109792251.127 8  85552425.15847  20892758.648    20892758.362    20892756.193
        49.750          43.750
 129947666.979 6 101257941.73643  24728219.236    24728218.382    24728218.647
        38.000          20.750
  31872692.483 7                   6065417.815
        44.500
 117917458.668 7  91883754.41946  22438935.578    22438935.471    22438937.890
        47.250          37.750
 121187595.909 7  94432018.34847  23061193.740    23061192.913    23061194.957
        42.500          42.250
 119416070.396 7  93051529.55145  22724107.888    22724107.687    22724108.768
        45.500          34.500
 145086983.862 6                  27609135.762
        38.250
 125964127.953 7                  23970167.848
        44.750
 121239216.455 7                  22704176.819
        45.750
 135468795.98915                  25778854.257
        30.500
                                  24099439.200
        28.500
 128420240.657 7                  24437513.075
        47.750
 130362603.633 6                  24807177.283
        39.500
 113140650.180 8  88161608.59048  21529938.893    21529938.402    21529937.532
        48.750          52.000
 137481788.054 6                  26161888.284
        40.250
 109654785.473 8                  20570907.093
        49.500
 196144686.606 7                  37325086.761
        47.250
 205019049.121 7                  39013623.610
        43.750
 124977991.495 7                  23338759.687
        43.250
 141449749.323 6                  26916988.745
        40.250
 123084487.784 7                  23025499.045
        42.000
 195650626.579 7                  37231192.381
        46.500
 108962158.758 6                  20376456.383
        39.750
 140787082.245 6                  26790865.333
        41.250
 136931175.176 7                  26057099.523
        42.750
 109734781.544 8                  20506570.408
        52.000
 116682697.618 7  90921665.36646  22203951.014    22203950.585    22203953.133
        45.000          36.500
 21 10 12  0  7  0.0000000  0 27G31G16S48G32G25G18E05E09R09G27R22E31
                                E12G29E26R10S36S23R08E04R01S25R20E24
                                E01R21G26
 109752573.902 8  85521507.83647  20885208.279    20885207.989    20885205.577
        50.000          43.750
 129879334.494 6 101204695.71243  24715215.939    24715215.076    24715213.635
        37.750          19.250
  31872660.574 7                   6065440.459
        44.250
 118001126.030 7  91948949.49446  22454857.274    22454857.167    22454859.827
        47.250          38.500
 121249432.943 7  94480203.04247  23072961.284    23072960.453    23072962.238
        42.500          42.750
 119338754.946 7  92991283.91145  22709395.407    22709395.197    22709396.142
        45.500          35.000
 145059577.672 6                  27603920.051
        38.000
 126002001.622 7                  23977374.948
        44.750
 121295443.915 7                  22714706.269
        45.750
 135360377.25816                  25758223.914
        40.750
 128507309.529 5                  24073754.068
        30.250
 128411045.217 8                  24435763.152
        48.000
 130275002.922 6                  24790507.310
        39.750
 113206622.133 8  88213015.31648  21542492.949    21542492.458    21542491.662
        48.250          52.250
 137518349.838 6                  26168845.879
        39.250
 109651621.310 8                  20570314.082
        50.250
 196144643.077 7                  37325079.132
        47.000
 205018880.241 7                  39013591.303
        43.750
 125074048.887 6                  23356698.059
        41.500
 141530295.551 6                  26932316.755
        41.000
 123130234.341 6                  23034056.909
        41.250
 195647719.947 7                  37230648.623
        46.500
 109007574.650 6                  20384949.620
        40.000
 140746040.385 6                  26783055.206
        40.750
 136963862.510 7                  26063319.925
        43.750
 109643269.692 8                  20489469.013
        52.500
 116638117.645 7  90886927.73446  22195467.833    22195467.404    22195469.932
        45.500          37.000
 21 10 12  0  7 30.0000000  0 27G31G16S48G32G25G18E05E09R09G27R22E31
                                E12G29E26R10S36S23R08E04R01S25R20E24
                                E01R21G26
 109713252.323 8  85490867.64247  20877725.595    20877725.305    20877722.911
        50.000          43.500
 129811090.184 6 101151518.39543  24702229.487    24702228.616    24702226.818
        36.500          18.250
  31874230.070 7                   6065465.889
        44.250
 118085045.278 7  92014340.69546  22470826.665    22470826.563    22470829.677
        46.750          37.000
 121311307.730 6  94528417.09747  23084735.602    23084734.775    23084736.816
        41.750          42.250
 119261677.329 7  92931223.57545  22694727.390    22694727.185    22694728.495
        45.250          34.250
 145032547.186 6                  27598776.836
        37.750
 126040198.892 7                  23984643.647
        44.500
 121351913.955 7                  22725282.320
        47.000
                                  25737609.538
        33.500
 128370193.997 5                  24048068.082
        34.250
 128401865.384 8                  24434016.336
        48.000
 130187478.117 6                  24773851.776
        39.250
 113272959.222 8  88264706.54048  21555116.645    21555116.154    21555115.267
        48.000          51.750
 137555299.704 6                  26175877.368
        40.000
 109648684.234 8                  20569762.236
        50.250
 196144603.360 7                  37325071.334
        47.250
 205018714.026 7                  39013559.992
        44.000
 125170207.186 6                  23374654.319
        41.500
 141610850.328 7                  26947645.995
        42.500
 123176509.816 7                  23042713.581
        42.000
 195644807.511 7                  37230101.855
        46.500
 109053769.336 6                  20393588.107
        39.500
 140704979.499 6                  26775241.448
        40.500
 136996577.365 7                  26069545.176
        43.750
 109552345.632 8                  20472477.743
        52.250
 116593642.363 7  90852271.68146  22187004.289    22187003.860    22187006.018
        45.750          36.500
 21 10 12  0  8  0.0000000  0 27G31G16S48G32G25G18E05E09R09G27R22E31
                                E12G29E26R10S36S23R08E04R01S25R20E24
                                E01R21G26
 109674286.231 8  85460504.45447  20870310.433    20870310.147    20870308.026
        50.250          44.250
 129742932.087 6 101098408.26443  24689259.099    24689258.241    24689257.047
        37.000          19.000
  31874201.189 7                   6065488.140
        44.500
 118169211.985 7  92079924.87146  22486843.455    22486843.371    22486846.447
        47.250          37.500
 121373218.517 7  94576659.21047  23096516.717    23096515.886    23096518.558
        42.500          43.000
 119184838.677 7  92871349.42545  22680105.730    22680105.520    22680106.509
        45.000          34.500
 145005890.877 6                  27593704.054
        38.750
 126078716.307 7                  23991973.254
        44.750
 121408624.820 7                  22735901.464
        46.000


 128233093.911 5                  24022385.416
        35.250
 128392699.428 7                  24432272.058
        47.750
 130100029.344 6                  24757210.409
        39.000
 113339656.994 8  88316678.81148  21567808.680    21567808.189    21567807.355
        48.500          52.250
 137592634.796 6                  26182981.963
        40.000
 109645974.156 8                  20569254.158
        50.750
 196144567.050 7                  37325064.188
        47.250
 205018548.741 7                  39013528.114
        43.750
 125266462.232 7                  23392630.680
        43.500
 141691410.280 6                  26962976.373
        38.750
 123223308.564 7                  23051469.165
        42.500
 195641887.210 7                  37229555.235
        46.000
 109100738.556 6                  20402372.502
        39.750
 140663897.309 6                  26767423.768
        41.000
 137029318.310 7                  26075775.770
        43.000
 109462011.294 8                  20455596.763
        52.250
 116549269.550 7  90817695.47746  22178560.478    22178560.049    22178561.941
        45.750          36.500
 21 10 12  0  8 30.0000000  0 27G31G16S48G32G25G18E05E09R09G27R22E31
                                E12G29E26R10S36S23R08E04R01S25R20E24
                                E01R21G26
 109635674.434 8  85430417.33947  20862962.902    20862962.616    20862960.511
        50.000          44.500
 129674856.981 6 101045362.77543  24676305.148    24676304.348    24676302.752
        38.500          18.250
  31874168.117 7                   6065513.074
        44.500
 118253619.689 7  92145696.81646  22502905.813    22502905.737    22502908.838
        47.250          38.000
 121435162.316 7  94624927.10847  23108304.168    23108303.346    23108306.175
        42.250          42.500
 119108239.170 7  92811661.62945  22665529.047    22665528.846    22665529.927
        45.000          34.750
 144979606.288 6                  27588702.371
        37.500
 126117549.457 7                  23999362.790
        44.250
 121465574.681 7                  22746567.043
        46.500
 135035692.55615 105222647.70152  25696438.987    25696438.777    25696445.516
        31.250          16.000
 128096010.739 5                  23996706.810
        31.750
 128383544.588 7                  24430529.922
        47.500
 130012655.681 6                  24740583.552
        39.500
 113406710.192 8  88368928.03348  21580568.375    21580567.888    21580566.924
        48.000          52.000
 137630351.263 6                  26190159.100
        40.250
 109643489.682 8                  20568787.912
        49.500
 196144531.291 7                  37325057.078
        47.500
 205018381.260 7                  39013496.746
        43.750
 125362805.444 6                  23410622.430
        41.750
 141771969.937 6                  26978306.242
        40.500
 123270624.422 6                  23060320.082
        41.500
 195638946.563 7                  37229006.894
        46.750
 109148476.848 6                  20411299.022
        39.750
 140622790.550 6                  26759601.346
        40.500
 137062082.923 7                  26082010.627
        42.750
 109372267.290 8                  20438825.676
        52.250
 116504996.105 7  90783196.68846  22170135.529    22170135.096    22170136.916
        45.000          36.250
 21 10 12  0  9  0.0000000  0 27G31G16S48G32G25G18E05E09R09G27R22E31
                                E12G29E26R10S36S23R08E04R01S25R20E24
                                E01R21G26
 109597420.936 8  85400609.41547  20855683.555    20855683.269    20855681.130
        49.750          44.250
 129606866.651 6 100992383.34343  24663367.003    24663366.163    24663364.787
        36.500          18.500
  31874133.851 7                   6065538.410
        44.500
 118338267.707 7  92211656.14246  22519014.043    22519013.985    22519017.008
        46.750          37.500
 121497141.501 6  94673222.68247  23120098.465    23120097.647    23120099.901
        41.500          42.250
 119031884.031 7  92752164.25545  22650999.175    22650998.970    22650999.930
        45.000          34.500
 144953696.004 6                  27583771.519
        38.250
 126156698.873 7                  24006812.845
        44.000
 121522766.501 7                  22757276.711
        46.500
 134927672.515 6 105138476.81842  25675884.418    25675884.128    25675890.710
        36.000          17.750
 127958982.11115                  23971029.769
        32.000
 128374403.215 7                  24428790.519
        47.500
 129925361.359 6                  24723971.827
        39.500
 113474118.106 8  88421453.66348  21593395.731    21593395.249    21593394.297
        48.000          51.750
 137668450.221 6                  26197409.049
        40.500
 109641235.020 8                  20568365.434
        50.750
 196144487.456 7                  37325050.161
        47.750
 205018213.876 7                  39013465.297
        44.250
 125459233.437 7                  23428628.099
        43.250
 141852529.002 6                  26993635.974
        41.750
 123318456.120 7                  23069267.852
        42.500
 195636002.938 7                  37228454.742
        47.250
 109196983.645 6                  20420369.997
        39.750
 140581661.033 6                  26751774.625
        40.500
 137094874.201 7                  26088250.451
        42.750
 109283119.353 8                  20422165.988
        53.000
 116460823.925 7  90748776.81045  22161729.749    22161729.325    22161730.990
        45.000          35.750
 21 10 12  0  9 30.0000000  0 27G31G16S48G32G25G18E05E09R09G27R22E31
                                E12G29E26R10S36S23R08E04R01S25R20E24
                                E01R21G26
 109559528.325 8  85371082.70647  20848472.841    20848472.555    20848470.496
        50.000          44.250
 129538961.768 6 100939470.51343  24650445.008    24650444.154    24650442.285
        38.250          20.500
  31874099.541 7                   6065560.468
        44.250
 118423153.794 7  92277801.12646  22535167.329    22535167.276    22535170.325
        47.000          38.000
 121559156.497 6  94721546.08446  23131899.276    23131898.458    23131900.280
        41.750          41.250
 118955777.174 7  92692860.34145  22636516.524    22636516.310    22636517.190
        45.000          34.500
 144928161.217 6                  27578912.433
        37.500
 126196163.895 7                  24014322.749
        43.750
 121580201.446 7                  22768032.891
        46.500
 134819750.67515 105054382.28555  25655345.823    25655345.323    25655352.847
        35.750          30.000
 127821949.695 4                  23945361.634
        28.500
 128365276.230 7                  24427053.637
        47.500
 129838149.152 6                  24707375.784
        40.000
 113541879.265 8  88474254.55348  21606290.259    21606289.772    21606288.865
        48.500          51.750
 137706931.581 6                  26204731.640
        40.000
 109639212.284 8                  20567986.080
        50.500
 196144455.015 7                  37325043.534
        47.500
 205018047.187 7                  39013432.699
        44.250
 125555742.075 6                  23446650.729
        40.000
 141933086.467 5                  27008965.556
        35.250
 123366801.089 6                  23078311.755
        41.500
 195633055.331 7                  37227902.528
        46.500
 109246257.429 6                  20429583.269
        39.000
 140540509.232 6                  26743943.656
        40.750
 137127693.110 7                  26094495.880
        43.000
 109194572.405 8                  20405618.859
        52.750
 116416753.597 7  90714436.29946  22153343.491    22153343.062    22153344.945
        45.250          36.250
 21 10 12  0 10  0.0000000  0 26G31G16S48G32G25G18E05E09R09G27E31E12
                                G29E26R10S36S23R08E04R01S25R20E24E01
                                R21G26
 109521996.933 8  85341837.46547  20841330.822    20841330.536    20841328.456
        50.250          44.500
 129471140.014 6 100886622.45543  24637538.814    24637537.951    24637537.424
        37.250          19.750
  31874063.147 7                   6065584.763
        44.500
 118508273.273 7  92344128.25946  22551364.706    22551364.648    22551367.758
        46.500          37.500
 121621205.953 7  94769896.37246  23143706.593    23143705.775    23143707.765
        42.000          41.750
 118879919.925 7  92633750.90045  22622081.252    22622081.047    22622081.581
        45.000          34.500
 144903000.721 6                  27574124.265
        37.750
 126235941.293 7                  24021892.069
        44.750
 121637879.316 7                  22778833.839
        44.750
 134711934.06016 104970377.24053  25634829.670    25634829.474    25634836.859
        38.500          23.250
 128356162.258 8                  24425319.239
        48.250
 129751019.520 6                  24690795.476
        40.250
 113609989.131 8  88527327.16648  21619250.993    21619250.511    21619249.836
        48.250          51.500
 137745792.619 6                  26212126.562
        40.500
 109637422.166 8                  20567650.124
        50.750
 196144416.565 7                  37325035.069
        47.250
 205017880.116 7                  39013399.649
        44.000
 125652327.594 6                  23464688.402
        41.000
 142013638.834 6                  27024294.212
        37.500
 123415654.090 7                  23087451.018
        42.000
 195630094.986 7                  37227346.974
        46.500
 109296293.767 6                  20438941.385
        39.250
 140499333.228 6                  26736108.311
        41.250
 137160539.190 7                  26100746.417
        43.750
 109106628.361 8                  20389184.681
        53.000
 116372783.290 7  90680173.73246  22144976.337    22144975.908    22144977.775
        45.750          36.750
 21 10 12  0 10 30.0000000  0 27G31G16S48G32G25G18E05E09R09G27R22E31
                                E12G29E26R10S36S23R08E04R01S25R20E24
                                E01R21G26
 109484827.514 8  85312874.27647  20834257.771    20834257.485    20834255.547
        50.000          44.500
 129403400.038 6 100833838.11743  24624648.480    24624647.573    24624646.966
        37.250          18.500
  31874934.62217                   6065608.051
        44.250
 118593621.591 7  92410633.70846  22567605.628    22567605.566    22567608.669
        46.250          38.250
 121683288.667 6  94818272.49947  23155521.037    23155520.224    23155522.512
        41.750          42.500
 118804314.358 7  92574837.59245  22607693.938    22607693.728    22607694.368
        45.250          35.000
 144878213.841 6                  27569407.637
        37.500
 126276028.465 7                  24029520.406
        44.750
 121695799.344 7                  22789681.321
        46.000
 134604235.912 6 104886458.66143  25614334.277    25614333.741    25614339.746
        39.750          19.500
                                  23894039.961
        30.000
 128347060.460 8                  24423587.208
        48.250
 129663973.414 6                  24674230.879
        40.250
 113678444.510 8  88580669.01048  21632277.737    21632277.255    21632276.272
        48.000          51.500
 137785031.316 6                  26219593.595
        40.750
 109635865.143 8                  20567357.957
        50.000
 196144374.122 7                  37325028.429
        47.250
 205017711.787 7                  39013368.406
        43.750
 125748984.318 7                  23482739.580
        42.000
 142094182.339 6                  27039621.893
        40.000
 123465010.534 6                  23096683.490
        41.250
 195627123.194 7                  37226790.234
        46.500
 109347089.524 6                  20448440.199
        38.750
 140458131.598 6                  26728267.994
        41.750
 137193411.469 7                  26107001.584
        42.750
 109019289.853 8                  20372863.356
        53.000
 116328911.767 7  90645988.14546  22136627.766    22136627.346    22136629.528
        45.750          37.250
 21 10 12  0 11  0.0000000  0 27G31G16S48G32G25G18E05E09R09G27R22E31
                                E12G29E26R10S36S23R08E04R01S25R20E24
                                E01R21G26
 109448024.632 8  85284196.70847  20827254.270    20827253.984    20827252.374
        50.000          44.500
 129335744.333 6 100781119.41043  24611773.607    24611772.727    24611771.971
        37.250          19.250
  31874985.963 7                   6065631.648
        44.750
 118679198.177 7  92477317.01545  22583890.441    22583890.374    22583892.910
        45.500          34.250
 121745407.491 6  94866676.76946  23167341.962    23167341.144    23167343.228
        41.750          41.500
 118728966.237 7  92516124.89345  22593355.016    22593354.797    22593356.302
        45.250          35.000
 144853803.689 6                  27564762.436
        38.000
 126316426.523 7                  24037208.042
        44.250
 121753964.794 7                  22800572.817
        45.500
 134496649.092 6 104802626.20744  25593860.267    25593859.700    25593865.694
        38.250          25.000
 127411080.66915                  23868390.191
        30.750
 128337973.723 8                  24421858.020
        48.250
 129577015.593 6                  24657683.223
        40.500
 113747244.854 8  88634279.66448  21645370.094    21645369.616    21645368.686
        48.250          51.500
 137824649.446 6                  26227132.662
        40.000
 109634545.700 8                  20567110.372
        50.250
 196144332.796 7                  37325020.076
        47.750
 205017543.686 7                  39013338.271
        44.250
 125845708.287 7                  23500802.956
        45.000
 142174718.488 6                  27054947.735
        39.750
 123514869.912 6                  23106010.321
        41.500
 195624136.205 7                  37226231.742
        46.750
 109398644.849 6                  20458081.461
        39.750
 140416906.755 6                  26720423.145
        41.750
 137226313.151 7                  26113262.473
        44.000
 108932563.407 8                  20356656.528
        53.250
 116285141.494 7  90611881.45346  22128298.514    22128298.094    22128300.201
        45.750          36.750
 21 10 12  0 11 30.0000000  0 27G31G16S48G32G25G18E05E09R09G27R22E31
                                E12G29E26R10S36S23R08E04R01S25R20E24
                                E01R21G26
 109411589.110 8  85255805.39147  20820320.854    20820320.568    20820318.654
        50.000          44.250
 129268171.364 6 100728465.21943  24598915.666    24598914.795    24598913.015
        36.500          19.000
  31875036.050 7                   6065654.981
        44.500
 118764998.678 7  92544174.85045  22600217.043    22600216.976    22600219.836
        45.500          35.500
 121807561.454 7  94915108.44147  23179169.143    23179168.330    23179170.674
        42.500          42.250
 118653877.543 7  92457614.34845  22579066.645    22579066.440    22579067.277
        45.250          35.250
 144829769.521 6                  27560188.791
        37.000
 126357132.772 7                  24044954.289
        43.500
 121812375.119 7                  22811511.613
        45.750
 134389171.639 6 104718877.70344  25573408.518    25573407.964    25573412.251
        40.500          25.500
                                  23842746.749
        28.500
 128328901.191 7                  24420131.649
        47.750
 129490146.977 6                  24641152.478
        39.750
 113816386.438 8  88688156.22648  21658527.284    21658526.806    21658526.042
        48.000          51.250
 137864644.887 6                  26234743.548
        40.250
 109633464.614 8                  20566907.879
        50.500
 196144295.860 7                  37325013.400
        47.250
 205017375.306 7                  39013305.544
        43.750
 125942496.584 7                  23518878.690
        43.000
 142255244.850 6                  27070271.937
        40.000
 123565227.545 6                  23115431.097
        41.500
 195621141.945 7                  37225671.416
        47.000
 109450955.318 6                  20467862.396
        39.250
 140375657.256 6                  26712573.575
        41.250
 137259243.741 7                  26119528.969
        43.750
 108846451.272 8                  20340564.287
        52.750
 116241471.165 7  90577852.63546  22119988.374    22119987.950    22119989.552
        45.750          36.250
 21 10 12  0 12  0.0000000  0 27G31G16S48G32G25G18E05E09R09G27R22E31
                                E12G29E26R10S36S23R08E04R01S25R20E24
                                E01R21G26
 109375520.505 8  85227699.98048  20813457.336    20813457.050    20813454.950
        49.500          50.000
 129200678.452 6 100675873.37843  24586071.593    24586070.699    24586068.852
        38.000          19.750
  31875082.621 7                   6065677.849
        44.500
 118851017.767 7  92611202.94746  22616585.985    22616585.927    22616588.761
        47.000          37.750
 121869748.306 7  94963565.75846  23191003.093    23191002.289    23191004.421
        42.000          41.500
 118579049.006 7  92399306.52145  22564826.847    22564826.637    22564827.458
        45.250          35.250
 144806109.422 6                  27555686.496
        36.500
 126398143.357 7                  24052758.131
        44.000
 121871028.510 7                  22822495.384
        46.250
 134281805.319 6 104635215.32642  25552976.599    25552976.063    25552981.354
        39.250          17.000
                                  23817112.730
        33.000
 128319840.809 8                  24418407.483
        48.000
 129403367.307 6                  24624638.706
        40.250
 113885865.052 8  88742295.42048  21671748.718    21671748.240    21671747.221
        48.250          51.750
 137905014.280 6                  26242425.635
        40.250
 109632620.981 8                  20566749.424
        50.250
 196144258.351 7                  37325005.011
        47.250
 205017204.243 7                  39013273.424
        44.000
 126039341.404 7                  23536964.880
        42.500
 142335756.954 6                  27085593.066
        39.500
 123616077.348 6                  23124944.146
        41.750
 195618129.063 7                  37225107.478
        46.250
 109504016.436 6                  20477785.765
        39.500
 140334380.536 7                  26704719.008
        42.000
 137292201.646 7                  26125800.576
        43.250
 108760954.683 8                  20324587.111
        53.000
 116197898.323 7  90543899.77746  22111696.669    22111696.240    22111697.880
        45.250          36.000
 21 10 12  0 12 30.0000000  0 27G31G16S48G32G25G18E05E09R09G27R22E31
                                E12G29E26R10S36S23R08E04R01S25R20E24
                                E01R21G26
 109339826.794 8  85199886.69949  20806665.018    20806664.732    20806662.842
        50.000          54.250
 129133271.726 6 100623348.72043  24573243.992    24573243.085    24573243.420
        37.000          20.000
  31875131.764 7                   6065700.569
        44.250
 118937258.504 7  92678403.63145  22632997.064    22632997.002    22632999.558
        47.250          35.500
 121931974.646 7  95012053.83646  23202844.234    23202843.425    23202845.465
        42.500          40.750
 118504490.156 7  92341208.81445  22550638.732    22550638.522    22550639.196
        45.500          35.000
 144782830.215 6                  27551256.805
        37.250
 126439463.156 7                  24060621.186
        44.000
 121929932.810 7                  22833526.539
        44.750
                                  25532569.385    25532569.296    25532577.800
        43.500          15.500
                                  23791486.076
        34.250
 128310799.312 8                  24416687.058
        48.000
 129316685.183 6                  24608143.565
        40.250
 113955684.125 8  88796699.86848  21685034.483    21685034.010    21685033.646
        48.500          50.750
 137945763.043 6                  26250179.991
        40.000
 109632023.966 8                  20566636.936
        50.250
 196144223.316 7                  37324997.879
        47.000
 205017037.749 7                  39013240.920
        43.750
 126136246.764 6                  23555061.759
        41.000
 142416259.412 6                  27100912.725
        40.500
 123667422.490 6                  23134548.261
        40.750
 195615118.000 7                  37224542.783
        46.250
 109557832.008 6                  20487850.233
        39.000
 140293082.807 7                  26696860.204
        42.250
 137325193.993 7                  26132078.834
        43.000
 108676084.068 8                  20308726.860
        53.000
 116154429.285 7  90510027.80346  22103424.800    22103424.371    22103425.754
        46.000          36.000
 21 10 12  0 13  0.0000000  0 27G31G16S48G32G25G18E05E09R09G27R22E31
                                E12G29E26R10S36S23R08E04R01S25R20E24
                                E01R21G26
 109304500.797 8  85172359.95349  20799942.651    20799942.365    20799940.267
        50.000          54.250
 129065941.921 6 100570883.98143  24560431.758    24560430.869    24560429.883
        39.000          21.250
  31875176.578 7                   6065723.978
        44.250
 119023708.469 7  92745767.16745  22649448.064    22649447.993    22649450.532
        46.500          35.250
 121994231.152 7  95060565.39246  23214691.094    23214690.285    23214692.734
        42.250          41.250
 118430194.935 7  92283316.55145  22536500.604    22536500.390    22536501.334
        45.500          35.500
 144759923.042 6                  27546897.636
        36.500
 126481081.402 7                  24068540.786
        44.000
 121989079.166 7                  22844602.589
        46.250
 134067418.824 5 104468151.45543  25512182.093    25512181.508    25512188.708
        33.750          19.000
                                  23765871.213
        33.000
 128301767.692 8                  24414968.329
        48.000
 129230093.405 6                  24591665.523
        40.250
 114025831.757 8  88851360.35448  21698383.383    21698382.910    21698381.972
        48.000          50.750
 137986881.012 6                  26258004.318
        40.750
 109631665.357 8                  20566569.937
        50.250
 196144176.098 7                  37324990.259
        47.500
 205016865.308 7                  39013208.098
        44.000
 126233199.522 6                  23573166.982
        40.750
 142496740.832 6                  27116228.164
        41.250
 123719250.109 6                  23144244.750
        41.500
 195612092.675 7                  37223977.190
        46.500
 109612389.531 6                  20498052.988
        39.250
 140251754.585 7                  26688995.579
        42.250
 137358212.101 7                  26138361.972
        43.250
 108591833.420 8                  20292982.699
