     2.11           OBSERVATION DATA    M (MIXED)           RINEX VERSION / TYPE
teqc  2019Feb25                         20230504 17:04:53UTCPGM / RUN BY / DATE
Linux2.6.32-573.12.1.el6.x86_64|x86_64|gcc|Win64-MinGW64|=+ COMMENT
BIT 2 OF LLI FLAGS DATA COLLECTED UNDER A/S CONDITION       COMMENT
-Unknown-                                                   MARKER NAME
-Unknown-           -Unknown-                               OBSERVER / AGENCY
-Unknown-           -Unknown-           -Unknown-           REC # / TYPE / VERS
-Unknown-           -Unknown-                               ANT # / TYPE
        0.0000        0.0000        0.0000                  APPROX POSITION XYZ
        0.0000        0.0000        0.0000                  ANTENNA: DELTA H/E/N
     1     1                                                WAVELENGTH FACT L1/2
     7    L1    L2    C1    P1    P2    S1    S2            # / TYPES OF OBSERV
 SNR is mapped to RINEX snr flag value [0-9]                COMMENT
  L1 & L2: min(max(int(snr_dBHz/6), 0), 9)                  COMMENT
  2021    10     5     0     0    0.0000000     GPS         TIME OF FIRST OBS
    18                                                      LEAP SECONDS
                                                            END OF HEADER
 21 10  5  0  0  0.0000000  0 27G16S48R01G26G25E11G32E09G29R08E05E25
                                S25R10S23R22E12E04R20E24R02G18R12S36
                                E31G31R21
 134641254.38216 104915273.99353  25621379.401    25621379.459    25621381.283
        37.750          20.250
  31641177.308 7                   6021002.637
        44.250
 119438485.140 7                  22343439.541
        43.500
 119966612.130 7  93480577.02445  22828849.385    22828849.001    22828851.312
        43.250          33.250
 116868740.955 7  91066663.33847  22239341.503    22239340.712    22239342.036
        44.750          46.750
 139980747.434 6                  26637447.960
        36.000
 112680498.678 8  87803015.83347  21442374.683    21442374.607    21442375.801
        50.000          42.750
 123780134.693 7                  23554565.654
        46.250
 109310478.220 8  85177084.77049  20801064.613    20801064.153    20801062.830
        49.750          55.000
 129005552.884 6                  24090867.238
        41.000
 134750278.593 7                  25642124.286
        44.250
 148125486.016 6                  28187340.961
        36.500
 195591046.982 7                  37219945.320
        47.250
 119427266.490 7                  22404216.369
        45.000
 204856134.059 7                  38982813.066
        43.250
 115179322.749 6                  21576953.591
        38.500
 126094816.096 7                  23995029.927
        42.000
 148769937.101 6                  28309979.494
        38.250
 121864233.455 5                  22789186.388
        33.750
 130856076.218 7                  24901042.834
        47.250
 121115644.836 7                  22697020.731
        47.000
 125070099.427 6  97457235.81544  23800042.933    23800042.710    23800045.935
        40.250          29.250
 121360525.874 7                  22718940.739
        44.000
 195972395.117 7                  37292299.863
        47.500
 131209066.905 7                  24968217.347
        46.750
 113214716.314 8  88219268.38146  21544037.743    21544037.498    21544035.119
        48.750          41.000
 107423117.186 8                  20074562.579
        52.500
 21 10  5  0  0 30.0000000  0 27G16S48R01G26G25E11G32E09G29R08E05E25
                                S25R10S23R22E12E04R20E24R02G18R12S36
                                E31G31R21
 134566314.686 5 104856879.27841  25607118.068    25607118.166    25607118.614
        33.000           6.500
  31641902.684 7                   6021033.227
        44.500
 119525168.586 7                  22359655.180
        44.000
 119913992.254 7  93439574.54145  22818836.132    22818835.739    22818838.039
        43.000          32.500
 116928078.855 7  91112900.64047  22250632.835    22250632.044    22250633.706
        45.000          47.000
 139894799.496 4                  26621093.304
        26.000
 112739461.490 8  87848960.85647  21453594.843    21453594.763    21453596.059
        49.750          42.750
 123845970.167 7                  23567093.888
        46.000
 109344361.236 8  85203487.12649  20807512.470    20807512.010    20807510.441
        49.500          55.000
 129118533.522 6                  24111967.251
        40.750
 134748760.683 7                  25641835.306
        44.250
 148081619.023 5                  28178993.073
        35.250
 195588830.338 7                  37219545.750
        46.500
 119472585.278 7                  22412717.996
        44.500
 204856031.362 7                  38982791.455
        43.500
 115059693.441 5                  21554543.212
        34.500
 126025959.810 6                  23981926.860
        41.500
 148855509.948 5                  28326262.883
        32.250
 121959468.704 5                  22806995.868
        33.250
 130840324.655 7                  24898045.367
        47.000
 121099775.758 8                  22694048.015
        48.000
 124984010.761 6  97390153.72845  23783661.003    23783660.793    23783663.694
        38.750          30.250
 121295618.210 7                  22706789.410
        44.000
 195972397.892 7                  37292299.514
        47.000
 131232937.350 7                  24972759.752
        46.250
 113154944.784 8  88172693.16046  21532663.819    21532663.574    21532660.836
        48.500          41.000
 107398450.113 8                  20069953.257
        53.000
 21 10  5  0  1  0.0000000  0 27G16S48R01G26G25E11G32E09G29R08E05E25
                                S25R10S23R22E12E04R20E24R02G18R12S36
                                E31G31R21
 134491485.373 5 104798570.83843  25592879.935    25592879.725    25592878.942
        35.500          19.250
  31641035.735 7                   6021063.858
        44.250
 119612179.567 7                  22375931.895
        44.000
 119861504.798 7  93398675.24345  22808848.131    22808847.742    22808849.378
        43.000          32.250
 116987473.197 7  91159181.93747  22261935.012    22261934.225    22261936.054
        44.750          46.500
 139808719.43114                  26604716.370
        27.500
 112798882.036 8  87895262.55747  21464902.034    21464901.954    21464903.438
        49.750          42.500
 123912031.895 7                  23579665.007
        45.750
 109378774.476 8  85230302.64449  20814060.893    20814060.433    20814059.280
        49.500          55.000
 129231358.433 6                  24133036.442
        41.000
 134747653.694 7                  25641624.508
        44.000
 148037763.582 6                  28170647.872
        36.250
 195586611.543 7                  37219146.174
        46.500
 119518064.311 7                  22421250.206
        45.500
 204855935.971 7                  38982776.565
        43.500
 114940408.357 6                  21532197.540
        37.000
 125957319.657 6                  23968865.154
        41.000
 148940984.676 5                  28342528.238
        34.500
 122055232.424 5                  22824905.894
        33.000
 130824598.840 7                  24895052.914
        46.750
 121084618.559 7                  22691206.851
        46.750
 124897947.544 6  97323091.23144  23767283.660    23767283.419    23767286.886
        41.750          29.000
 121230650.918 7                  22694628.407
        46.000
 195972408.920 7                  37292305.233
        46.750
 131256815.999 7                  24977303.745
        46.250
 113095394.753 8  88126290.54046  21521331.778    21521331.524    21521329.096
        48.500          41.250
 107374602.445 8                  20065496.575
        52.750
 21 10  5  0  1 30.0000000  0 28G16S48R01G26G25E11G32E09G29R08E05E25
                                S25R10S23E03R22E12E04R20E24R02G18R12
                                S36E31G31R21
 134416751.584 5 104740336.7814   25578658.100    25578657.685    25578657.733
        33.250           4.500
  31641762.617 7                   6021093.527
        44.250
 119699498.333 7                  22392267.882
        43.500
 119809134.704 7  93357867.39345  22798882.874    22798882.485    22798883.652
        43.250          32.250
 117046908.787 7  91205495.36547  22273245.346    22273244.559    22273246.214
        44.500          46.500
 139722519.73015                  26588312.285
        34.000
 112858743.168 8  87941907.57147  21476293.478    21476293.398    21476294.606
        49.750          42.750
 123978303.291 7                  23592276.111
        46.000
 109413701.747 8  85257518.70649  20820707.217    20820706.761    20820705.689
        49.500          55.500
 129344008.013 6                  24154073.722
        41.250
 134746942.771 7                  25641489.573
        44.250
 147993904.423 6                  28162301.871
        36.000
 195584378.443 7                  37218743.375
        46.250
 119563690.065 7                  22429808.929
        44.500
 204855833.108 7                  38982756.125
        43.500


 114821458.098 6                  21509913.893
        38.250
 125888883.147 6                  23955842.127
        41.500
 149026344.762 5                  28358772.293
        35.000
 122151505.723 5                  22842908.972
        32.250
 130808883.747 7                  24892062.333
        47.500
 121070157.544 7                  22688496.685
        46.500
 124811898.549 6  97256039.80344  23750909.350    23750909.100    23750912.301
        39.500          28.250
 121165609.107 7                  22682452.860
        46.500
 195972416.541 7                  37292305.180
        47.000
 131280688.395 7                  24981846.225
        46.500
 113036053.470 8  88080050.58346  21510039.336    21510039.077    21510037.096
        48.750          41.500
 107351560.762 8                  20061190.306
        52.500
 21 10  5  0  2  0.0000000  0 28G16S48R01G26G25E11G32E09G29R08E05E25
                                S25R10S23E03R22E12E04R20E24R02G18R12
                                S36E31G31R21
 134342126.294 6 104682187.09343  25564457.880    25564457.241    25564456.893
        38.250          18.500
  31642495.988 7                   6021125.114
        44.250
 119787134.189 7                  22408661.996
        43.000
 119756894.685 7  93317160.88945  22788941.679    22788941.286    22788942.510
        43.500          32.250
 117106398.383 7  91251850.89647  22284565.558    22284564.776    22284566.493
        44.500          46.000
 139636186.316 6                  26571884.152
        37.750
 112919055.547 8  87988904.20447  21487770.461    21487770.385    21487771.646
        50.250          42.500
 124044795.534 7                  23604929.354
        46.250
 109449154.109 8  85285143.92549  20827453.774    20827453.318    20827452.040
        49.750          55.250
 129456491.890 6                  24175080.530
        40.000
 134746640.771 7                  25641431.881
        44.250
 147950054.105 5                  28153957.195
        35.000
 195582142.071 7                  37218340.053
        46.750
 119609476.564 7                  22438398.373
        44.500
 204855736.441 7                  38982737.769
        43.750


 114702860.297 6                  21487696.238
        37.250
 125820665.438 7                  23942860.625
        42.000
 149111601.942 6                  28374995.859
        36.500
 122248297.688 5                  22861007.865
        32.750
 130793192.218 7                  24889076.273
        47.250
 121056405.884 7                  22685919.355
        46.750
 124725880.018 6  97189012.16445  23734540.747    23734540.515    23734544.105
        40.250          31.250
 121100506.357 7                  22670265.258
        47.250
 195972429.197 7                  37292306.915
        47.000
 131304567.934 7                  24986390.553
        46.500
 112976935.851 8  88033984.90946  21498789.706    21498789.447    21498787.075
        48.750          41.000
 107329339.607 8                  20057038.069
        52.500
 21 10  5  0  2 30.0000000  0 28G16S48R01G26G25E11G32E09G29R08E05E25
                                S25R10S23E03R22E12E04R20E24R02G18R12
                                S36E31G31R21
 134267594.966 6 104624110.99143  25550276.004    25550275.249    25550274.458
        39.000          19.750
  31641621.711 7                   6021155.428
        44.250
 119875067.473 7                  22425111.690
        43.000
 119704769.825 7  93276544.11145  22779022.430    22779022.033    22779023.351
        43.750          32.250
 117165926.951 7  91298236.78447  22295893.655    22295892.873    22295894.687
        44.500          46.000
 139549724.51015                  26555430.326
        34.750
 112979802.050 8  88036239.11347  21499330.164    21499330.093    21499331.202
        49.750          42.250
 124111492.187 7                  23617621.374
        45.750
 109485115.664 8  85313165.92749  20834296.915    20834296.455    20834295.102
        49.500          55.000
 129568793.366 7                  24196051.828
        42.000
 134746732.872 7                  25641449.400
        43.750
 147906197.493 6                  28145612.269
        36.000
 195581485.622 7                  37217930.993
        46.500
 119655410.458 7                  22447016.145
        45.750
 204855630.610 7                  38982716.345
        43.750


 114584604.393 6                  21465541.487
        38.500
 125752654.148 6                  23929918.613
        41.750
 149196739.624 6                  28391196.933
        36.750
 122345590.120 5                  22879203.121
        33.250
 130777509.410 7                  24886092.063
        47.250
 121043349.627 7                  22683473.103
        46.750
 124639881.145 6  97122000.24344  23718175.658    23718175.422    23718178.731
        38.000          29.750
 121035327.963 7                  22658063.484
        46.500
 195972435.150 7                  37292306.785
        47.250
 131328440.175 7                  24990933.279
        46.250
 112918029.424 8  87988083.79446  21487580.200    21487579.941    21487577.468
        48.250          41.000
 107307925.757 8                  20053036.386
        52.750
 21 10  5  0  3  0.0000000  0 28G16S48R01G26G25E11G32E09G29R08E05E25
                                S25R10S23E03R22E12E04R20E24R02G18R12
                                S36E31G31R21
 134193167.508 4 104566115.34142  25536111.510    25536110.755    25536111.430
        29.500          17.250
  31642349.531 7                   6021182.642
        44.250
 119963303.799 7                  22441618.042
        43.250
 119652769.350 7  93236024.27445  22769127.292    22769126.899    22769127.928
        43.000          32.750
 117225503.663 7  91344660.18647  22307231.030    22307230.252    22307231.516
        44.500          46.500
 139463142.20615                  26538953.370
        30.750
 113040989.815 8  88083917.87047  21510973.661    21510973.585    21510974.802
        49.500          42.500
 124178400.961 7                  23630353.688
        45.750
 109521593.887 8  85341590.52149  20841238.473    20841238.013    20841236.769
        49.000          55.500
 129680917.555 7                  24216990.327
        42.500
 134747228.495 7                  25641543.641
        43.750
 147862343.648 6                  28137266.771
        36.250
 195579216.872 7                  37217520.726
        46.750
 119701502.633 7                  22455662.523
        45.000
 204855524.421 7                  38982697.117
        43.750


 114466704.608 6                  21443455.726
        38.750
 125684860.855 6                  23917017.875
        41.750
 149281766.704 5                  28407376.615
        31.000
 122443388.602 5                  22897490.989
        34.000
 130761844.683 7                  24883111.127
        47.250
 121030997.136 7                  22681158.397
        46.750
 124553912.603 6  97055011.51444  23701816.575    23701816.316    23701819.224
        39.750          29.000
 120970083.824 7                  22645849.134
        46.000
 195972437.022 7                  37292308.967
        47.250
 131352315.004 7                  24995476.486
        46.250
 112859345.935 8  87942356.40347  21476412.919    21476412.660    21476410.682
        48.500          42.000
 107287330.081 8                  20049187.333
        52.250
 21 10  5  0  3 30.0000000  0 28G16S48R01G26G25E11G32E09G29R08E05E25
                                S25R10S23E03R22E12E04R20E24R02G18R12
                                S36E31G31R21
 134118844.669 6 104508201.59543  25521969.619    25521968.873    25521968.483
        38.500          19.500
  31643080.226 7                   6021213.863
        44.250
 120051839.847 7                  22458180.751
        43.250
 119600894.230 7  93195602.11445  22759255.538    22759255.145    22759256.888
        43.250          32.250
 117285129.389 7  91391121.78047  22318577.544    22318576.766    22318577.806
        44.750          45.750
 139376429.687 5                  26522452.578
        33.500
 113102617.656 8  88131939.53447  21522701.308    21522701.237    21522702.397
        49.750          42.000
 124245521.275 7                  23643126.250
        45.750
 109558588.188 8  85370417.25649  20848278.155    20848277.695    20848276.556
        49.500          54.750
 129792865.350 6                  24237895.863
        39.500
 134748128.662 7                  25641714.966
        44.000
 147818493.393 5                  28128922.004
        35.250
 195576942.430 7                  37217109.896
        46.500
 119747755.192 7                  22464339.512
        44.500
 204855420.470 7                  38982678.462
        43.500


 114349167.105 6                  21421435.462
        38.500
 125617289.208 6                  23904159.311
        41.750
 149366682.483 6                  28423535.745
        39.000
 122541691.021 5                  22915874.079
        32.750
 130746199.056 7                  24880133.762
        47.250
 121019350.011 7                  22678974.811
        45.500
 124467979.990 6  96988051.01144  23685463.972    23685463.736    23685467.086
        36.500          29.000
 120904775.615 7                  22633624.329
        46.000
 195972440.554 7                  37292309.853
        47.250
 131376194.026 7                  25000020.550
        46.250
 112800888.653 8  87896805.27546  21465289.053    21465288.799    21465286.640
        48.750          41.250
 107267555.312 8                  20045492.078
        52.500
 21 10  5  0  4  0.0000000  0 28G16S48R01G26G25E11G32E09G29R08E05E25
                                S25R10S23E03R22E12E04R20E24R02G18R12
                                S36E31G31R21
 134044624.586 5 104450367.55141  25507843.633    25507842.744    25507844.385
        31.500           9.250
  31642211.933 7                   6021245.298
        44.250
 120140669.921 7                  22474798.838
        43.250
 119549142.650 7  93155276.21745  22749407.561    22749407.155    22749409.222
        43.750          33.250
 117344802.310 7  91437620.15047  22329932.776    22329932.003    22329933.183
        44.750          46.000
 139289598.00516                  26505929.034
        38.750
 113164681.570 8  88180300.99347  21534511.710    21534511.639    21534513.012
        49.500          42.250
 124312849.749 7                  23655938.543
        46.000
 109596095.560 8  85399643.78749  20855415.749    20855415.289    20855413.834
        50.000          55.000
 129904629.136 6                  24258766.115
        40.750
 134749431.711 7                  25641962.942
        44.250
 147774644.706 6                  28120578.475
        37.000
 195574657.933 7                  37216697.393
        46.500
 119794168.427 7                  22473046.437
        44.500
 204855317.579 7                  38982660.289
        43.250


 114231995.257 6                  21399486.105
        38.000
 125549939.525 7                  23891342.910
        42.500
 149451483.656 6                  28439672.398
        38.000
 122640491.674 5                  22934350.304
        33.000
 130730570.894 7                  24877159.817
        47.500
 121008406.539 7                  22676924.314
        46.000
 124382084.212 6  96921118.64745  23669119.531    23669119.326    23669122.116
        40.500          30.250
 120839402.124 7                  22621385.223
        45.250
 195972452.835 7                  37292312.057
        47.250
 131400076.023 7                  25004565.122
        46.500
 112742658.034 8  87851430.76346  21454208.014    21454207.755    21454205.392
        49.250          41.250
 107248600.964 8                  20041950.154
        52.750
 21 10  5  0  4 30.0000000  0 29G16S48R01G26G25E11G32G24E09G29R08E05
                                E25S25R10S23E03R22E12E04R20E24R02G18
                                R12S36E31G31R21
 133970514.849 4 104392619.86243  25493743.453    25493742.497    25493742.108
        29.000          21.000
  31642952.286 7                   6021276.009
        44.250
 120229796.231 7                  22491471.414
        43.250
 119497521.245 7  93115051.75645  22739584.675    22739584.286    22739585.809
        44.250          34.000
 117404529.060 7  91484160.47147  22341298.135    22341297.366    22341299.086
        44.250          46.000
 139202653.311 5                  26489383.901
        32.500
 113227186.010 8  88229005.72047  21546405.818    21546405.742    21546407.291
        49.750          42.500
                                  26032479.315
        21.250
 124380391.493 7                  23668791.073
        45.750
 109634120.908 8  85429273.94149  20862651.834    20862651.378    20862649.737
        49.500          55.000
 130016210.890 6                  24279604.422
        38.750
 134751144.336 7                  25642288.969
        44.000
 147730804.112 6                  28112235.246
        36.250
 195572373.983 7                  37216283.227
        46.500
 119840750.406 7                  22481785.229
        44.250
 204855221.883 7                  38982641.338
        43.500
 151726276.62915                  28872553.025
        32.000
 114115200.590 6                  21377607.207
        38.500
 125482821.086 7                  23878570.784
        42.500
 149536175.930 6                  28455788.508
        37.250
 122739794.134 5                  22952922.813
        32.750
 130714966.910 7                  24874190.618
        47.500
 120998173.083 7                  22675006.299
        46.000
 124296236.225 7  96854223.87945  23652782.968    23652782.781    23652786.116
        42.000          30.000
 120773970.652 7                  22609136.982
        45.250
 195972466.443 7                  37292313.926
        47.000
 131423968.171 7                  25009111.547
        46.250
 112684663.174 8  87806239.96246  21443171.961    21443171.702    21443169.199
        49.250          41.750
 107230475.494 8                  20038562.635
        52.250
 21 10  5  0  5  0.0000000  0 28G16S48R01G26G25E11G32E09G29R08E05E25
                                S25R10S23E03R22E12E04R20E24R02G18R12
                                S36E31G31R21
 133896488.518 6 104334936.96142  25479657.529    25479656.841    25479654.803
        36.500          13.250
  31643676.051 7                   6021304.073
        44.250
 120319188.447 7                  22508194.104
        42.750
 119446003.690 7  93074908.21845  22729781.048    22729780.659    22729782.425
        43.750          33.750
 117464283.287 7  91530722.18947  22352669.103    22352668.334    22352669.989
        44.250          46.250
 139115571.639 5                  26472813.150
        34.000
 113290102.512 8  88278031.52747  21558378.459    21558378.388    21558379.833
        49.750          42.250
 124448118.631 7                  23681679.388
        45.750
 109672636.827 8  85459286.36049  20869981.069    20869980.613    20869979.040
        49.500          55.250
 130127582.971 6                  24300400.713
        40.750
 134753240.297 7                  25642687.648
        44.000
 147686945.058 6                  28103889.807
        37.000
 195570052.559 7                  37215865.676
        46.500
 119887475.529 7                  22490550.412
        44.250
 204855107.362 7                  38982621.256
        43.250
 151668606.305 5                  28861578.223
        30.000
 113998761.598 6                  21355793.792
        39.000
 125415910.123 7                  23865838.114
        42.250
 149620731.708 6                  28471878.709
        36.000
 122839567.943 5                  22971580.171
        32.500
 130699360.924 7                  24871220.876
        47.500
 120988623.038 7                  22673216.720
        46.250
 124210413.583 7  96787349.37145  23636451.174    23636450.987    23636454.749
        42.000          31.000
 120708455.147 7                  22596871.312
        44.750
 195972465.982 7                  37292313.497
        47.500
 131447844.932 7                  25013655.251
        46.000
 112626879.851 8  87761213.99746  21432176.354    21432176.100    21432173.689
        48.750          41.750
 107213153.755 8                  20035325.857
        52.250
 21 10  5  0  5 30.0000000  0 28G16S48R01G26G25E11G32E09G29R08E05E25
                                S25R10S23E03R22E12E04R20E24R02G18R12
                                S36E31G31R21
 133822573.255 5 104277340.62542  25465591.243    25465590.515    25465589.068
        34.500          16.500
  31642808.797 7                   6021332.875
        44.250
 120408868.887 7                  22524971.349
        43.000
 119394616.343 7  93034866.13445  22720002.444    22720002.051    22720003.237
        43.250          34.000
 117524091.346 7  91577325.86847  22364050.210    22364049.446    22364050.908
        43.500          46.000
 139028383.272 6                  26456221.069
        37.000
 113353455.125 8  88327397.16947  21570434.170    21570434.103    21570435.417
        49.250          42.250
 124516055.950 7                  23694607.327
        46.000
 109711667.743 8  85489700.06349  20877408.412    20877407.956    20877406.539
        49.250          55.000
 130238768.373 7                  24321163.190
        44.000
 134755745.949 7                  25643164.565
        44.000
 147643093.720 6                  28095544.849
        37.250
 195567732.757 7                  37215445.272
        46.500
 119934372.317 7                  22499348.109
        44.500
 204855001.559 7                  38982598.312
        43.500
 151611223.265 5                  28850659.094
        31.500
 113882710.141 6                  21334052.741
        36.750
 125349235.449 7                  23853150.250
        42.000
 149705176.086 5                  28487947.446
        35.500
 122939836.660 5                  22990329.600
        33.250
 130683779.384 7                  24868255.792
        47.500
 120979782.814 7                  22671560.316
        46.250
 124124644.792 6  96720516.66144  23620130.397    23620130.214    23620133.139
        40.500          28.000
 120642882.946 7                  22584596.276
        45.000
 195972473.917 7                  37292315.080
        47.000
 131471733.118 7                  25018201.083
        46.000
 112569336.778 8  87716375.24446  21421226.302    21421226.048    21421223.719
        48.500          41.750
 107196663.838 8                  20032244.359
        52.500
 21 10  5  0  6  0.0000000  0 28G16S48R01G26G25E11G32E09G29R08E05E25
                                S25R10S23E03R22E12E04R20E24R02G18R12
                                S36E31G31R21
 133748759.256 6 104219823.11741  25451544.501    25451543.849    25451542.427
        38.250           9.250
  31643542.163 7                   6021364.449
        44.250
 120498824.157 7                  22541800.103
        43.250
 119343349.839 7  92994918.21845  22710246.206    22710245.800    22710247.395
        44.000          34.000
 117583943.865 7  91623964.19047  22375439.862    22375439.102    22375440.403
        44.250          45.750
 138941080.544 6                  26439607.453
        36.250
 113417232.327 8  88377093.65747  21582570.734    21582570.663    21582571.910
        49.750          42.250
 124584192.571 7                  23707573.313
        45.750
 109751203.012 8  85520506.77449  20884931.719    20884931.263    20884929.673
        49.750          55.000
 130349754.188 6                  24341889.220
        41.000
 134758652.025 7                  25643717.572
        44.250
 147599240.610 6                  28087199.671
        36.250
 195565412.999 7                  37215023.338
        46.500
 119981433.245 7                  22508177.299
        44.750
 204854894.937 7                  38982579.849
        43.750
 151554119.894 5                  28839792.371
        32.000
 113767041.951 6                  21312384.164
        38.500
 125282790.002 7                  23840505.971
        42.250
 149789498.590 6                  28503993.376
        36.000
 123040586.384 5                  23009171.079
        34.250
 130668213.118 7                  24865293.601
        47.500
 120971643.151 7                  22670034.892
        46.750
 124038924.209 6  96653721.57545  23603817.676    23603817.471    23603820.767
        41.500          30.000
 120577245.273 7                  22572309.555
        45.500
 195972480.178 7                  37292315.795
        47.250
 131495624.081 7                  25022747.160
        46.500
 112512026.942 8  87671718.23146  21410320.494    21410320.240    21410317.677
        49.000          41.750
 107180997.766 8                  20029316.762
        52.750
 21 10  5  0  6 30.0000000  0 28G16S48R01G26G25E11G32E09G29R08E05E25
                                S25R10S23E03R22E12E04R20E24R02G18R12
                                S36E31G31R21
 133675049.903 5 104162387.31042  25437516.122    25437515.514    25437516.745
        32.500          17.750
  31642679.804 7                   6021394.400
        44.250
 120589052.941 7                  22558678.413
        42.750
 119292207.156 7  92955066.78045  22700514.282    22700513.880    22700515.749
        42.750          33.500
 117643843.738 7  91670639.40747  22386838.264    22386837.504    22386839.262
        44.500          46.000
 138853667.653 5                  26422972.247
        33.250
 113481434.818 8  88427121.53747  21594787.964    21594787.897    21594789.259
        49.500          42.000
 124652529.865 7                  23720577.477
        45.250
 109791243.814 8  85551707.40449  20892551.173    20892550.717    20892549.238
        49.500          55.000
 130460540.511 7                  24362577.108
        42.750
 134761961.486 7                  25644347.356
        44.250
 147555388.531 6                  28078854.661
        36.250
 195563078.975 7                  37214599.751
        46.500
 120028661.798 7                  22517036.391
        43.750
 204854791.176 7                  38982561.135
        43.250
 151497301.087 5                  28828980.985
        34.000
 113651764.335 6                  21290788.462
        38.750
 125216579.178 6                  23827906.648
        41.750
 149873700.829 5                  28520015.968
        35.000
 123141817.172 5                  23028103.724
        32.250
 130652665.139 7                  24862334.880
        47.250
 120964206.899 7                  22668641.475
        46.250
 123953258.092 7  96586968.84045  23587516.037    23587515.854    23587518.788
        42.750          30.500
 120511545.874 7                  22560009.132
        45.750
 195972486.478 7                  37292316.766
        47.000
 131519521.453 7                  25027294.785
        46.250
 112454955.861 8  87627247.25346  21399460.276    21399460.026    21399457.519
        49.000          41.750
 107166159.796 8                  20026544.227
        52.500
 21 10  5  0  7  0.0000000  0 28G16S48R01G26G25E11G32E09G29R08E05E25
                                S25R10S23E03R22E12E04R20E24R02G18R12
                                S36E31G31R21
 133601442.456 5 104105031.00443  25423511.129    25423510.481    25423510.500
        35.750          18.000
  31643418.243 7                   6021423.595
        44.250
 120679548.614 7                  22575608.598
        42.750
 119241185.482 7  92915309.64945  22690805.273    22690804.858    22690806.989
        43.250          34.000
 117703788.185 7  91717349.35547  22398245.179    22398244.410    22398246.291
        43.250          46.000
 138766144.377 6                  26406316.529
        37.250
 113546057.513 8  88477476.85147  21607085.125    21607085.063    21607086.534
        49.250          42.250
 124721063.415 7                  23733619.141
        45.250
 109831785.764 8  85583298.53549  20900266.195    20900265.735    20900264.311
        49.250          55.000
 130571121.056 6                  24383225.691
        41.000
 134765671.524 7                  25645053.187
        43.750
 147511534.391 6                  28070509.690
        36.000
 195560736.030 7                  37214173.967
        46.750
 120076057.708 7                  22525928.574
        44.750
 204854687.880 7                  38982538.943
        43.500
 151440765.559 5                  28818221.115
        32.250
 113536879.857 6                  21269267.259
        38.750
 125150602.825 7                  23815351.748
        42.000
 149957778.920 6                  28536015.532
        37.000
 123243522.639 5                  23047121.642
        33.500
 130637132.804 7                  24859379.271
        46.750
 120957470.497 7                  22667379.414
        47.000
 123867647.416 6  96520259.39244  23571224.531    23571224.330    23571227.432
        41.750          28.500
 120445782.398 7                  22547699.057
        46.000
 195972498.395 7                  37292319.288
        47.250
 131543423.030 7                  25031843.248
        45.750
 112398122.935 8  87582961.85747  21388645.373    21388645.123    21388642.860
        48.500          42.000
 107152148.375 8                  20023925.841
        52.250
 21 10  5  0  7 30.0000000  0 28G16S48R01G26G25E11G32E09G29R08E05E25
                                S25R10S23E03R22E12E04R20E24R02G18R12
                                S36E31G31R21
 133527929.210 5 104047747.81542  25409519.455    25409518.794    25409521.034
        34.000          15.500
  31644150.047 7                   6021452.057
        44.250
 120770298.525 7                  22592586.035
        42.750
 119190276.590 7  92875640.39745  22681117.726    22681117.315    22681119.112
        43.000          33.250
 117763769.031 7  91764087.67247  22409659.341    22409658.572    22409660.255
        44.500          45.750
 138678493.75315                  26389638.337
        34.250
 113611089.910 8  88528151.40747  21619460.464    21619460.402    21619461.857
        49.500          42.000
 124789783.450 7                  23746696.126
        45.500
 109872819.214 8  85615272.65849  20908074.263    20908073.807    20908072.547
        49.500          54.500
 130681484.995 6                  24403836.831
        40.000
 134769773.932 7                  25645834.147
        44.250
 147467669.861 6                  28062162.773
        36.250
 195558368.162 7                  37213744.115
        46.500
 120123613.323 7                  22534849.764
        44.250
 204854577.325 7                  38982519.835
        43.500
 151384506.916 5                  28807516.178
        33.500
 113422385.158 6                  21247818.762
        40.000
 125084855.087 7                  23802840.367
        42.500
 150041723.526 6                  28551989.392
        37.000
 123345691.067 5                  23066226.901
        34.000
 130621608.048 7                  24856425.024
        47.250
 120951425.844 7                  22666246.854
        46.750
 123782087.322 6  96453589.68544  23554942.930    23554942.729    23554945.271
        40.500          29.750
 120379947.371 7                  22535374.671
        46.250
 195972498.048 7                  37292318.903
        47.250
 131567321.259 7                  25036390.969
        46.000
 112341522.359 8  87538857.51546  21377874.345    21377874.086    21377872.192
        48.750          41.750
 107138956.495 8                  20021460.389
        52.500
 21 10  5  0  8  0.0000000  0 28G16S48R01G26G25E11G32E09G29R08E05E25
                                S25R10S23E03R22E12E04R20E24R02G18R12
                                S36E31G31R21
 133454522.077 5 103990547.48242  25395553.714    25395553.039    25395552.280
        30.000          16.250
  31643288.265 7                   6021483.815
        44.250
 120861310.841 7                  22609611.045
        42.500
 119139492.470 7  92836068.36645  22671453.458    22671453.052    22671455.193
        43.000          33.250
 117823798.286 7  91810863.70647  22421082.570    22421081.797    22421083.605
        44.500          45.750
 138590750.066 5                  26372941.006
        31.250
 113676541.760 8  88579152.81347  21631915.634    21631915.567    21631917.043
        49.750          42.000
 124858700.396 7                  23759810.698
        45.500
 109914354.354 8  85647637.70849  20915978.586    20915978.126    20915976.279
        49.000          54.250
 130791641.443 6                  24424405.528
        37.250
 134774280.661 7                  25646691.662
        44.250
 147423806.810 6                  28053815.273
        36.000
 195556005.443 7                  37213313.385
        46.500
 120171342.826 7                  22543803.269
        44.000
 204854471.755 7                  38982500.013
        43.250
 151328538.839 5                  28796865.611
        34.750
 113308297.288 6                  21226445.671
        37.750
 125019350.221 7                  23790375.159
        42.500
 150125545.211 5                  28567939.559
        34.000
 123448330.518 5                  23085422.367
        33.000
 130606103.017 7                  24853474.457
        47.250
 120946084.721 7                  22665245.406
        46.000
 123696592.704 7  96386970.70545  23538673.691    23538673.490    23538676.113
        43.750          30.500
 120314053.560 7                  22523039.372
        46.500
 195972505.382 7                  37292321.050
        47.000
 131591228.725 7                  25040940.376
        45.750
 112285168.293 8  87494945.25946  21367150.819    21367150.556    21367148.271
        48.500          41.500
 107126597.445 8                  20019150.760
        52.750
 21 10  5  0  8 30.0000000  0 28G16S48R01G26G25E11G32E09G29R08E05E25
                                S25R10S23E03R22E12E04R20E24R02G18R12
                                S36E31G31R21
 133381216.85216 103933420.40654  25381603.334    25381603.334    25381602.342
        39.250          24.250
  31644024.341 7                   6021512.308
        44.500
 120952573.076 6                  22626683.848
        41.750
 119088824.722 7  92796587.01545  22661812.018    22661811.616    22661813.440
        43.500          33.500
 117883867.520 7  91857670.89847  22432513.454    22432512.681    22432514.289
        44.250          45.500
 138502897.367 5                  26356222.871
        35.250
 113742402.336 8  88630472.70647  21644448.425    21644448.358    21644449.906
        49.500          42.000
 124927804.230 7                  23772960.806
        45.750
 109956381.046 8  85680385.77849  20923975.701    20923975.241    20923973.950
        49.250          54.750
 130901578.215 6                  24444936.253
        37.750
 134779183.289 7                  25647624.736
        44.250
 147379936.611 5                  28045467.759
        35.500
 195553624.348 7                  37212881.248
        47.000
 120219238.859 7                  22552789.059
        44.500
 204854363.209 7                  38982479.810
        43.750
 151272854.500 5                  28786269.118
        34.250
 113194612.700 6                  21205148.607
        39.250
 124954082.267 7                  23777954.914
        42.500
 150209234.703 5                  28583865.391
        35.000
 123551428.989 5                  23104700.383
        32.500
 130590609.451 7                  24850526.070
        47.500
 120941438.219 7                  22664374.584
        46.000
 123611158.545 6  96320398.73444  23522415.780    23522415.575    23522418.527
        40.750          29.500
 120248093.027 7                  22510691.307
        46.250
 195972508.210 7                  37292322.530
        47.250
 131615137.709 7                  25045490.009
        46.250
 112229055.186 8  87451220.76047  21356472.782    21356472.519    21356470.171
        49.250          42.000
 107115064.001 8                  20016995.195
        52.500
 21 10  5  0  9  0.0000000  0 28G16S48R01G26G25E11G32E09G29R08E05E25
                                S25R10S23E03R22E12E04R20E24R02G18R12
                                S36E31G31R21
 133308014.341 5 103876379.55241  25367671.125    25367670.410    25367671.548
        30.500           9.500
  31644768.176 7                   6021542.402
        44.500
 121044090.017 6                  22643804.318
        41.500
 119038281.969 7  92757203.06645  22652194.009    22652193.598    22652195.155
        43.000          33.000
 117943985.399 7  91904515.97747  22443953.511    22443952.729    22443954.202
        44.250          45.250
 138414946.526 5                  26339485.941
        33.250
 113808677.917 8  88682115.98146  21657060.268    21657060.206    21657061.777
        49.250          41.500
 124997101.986 7                  23786147.745
        45.250
 109998906.435 8  85713522.44149  20932068.036    20932067.576    20932066.268
        49.250          54.250
 131011302.090 6                  24465427.798
        39.250
 134784490.322 7                  25648634.575
        44.250
 147336067.734 5                  28037119.620
        35.750
 195551253.475 7                  37212446.570
        46.750
 120267311.461 7                  22561807.068
        44.750
 204854260.586 7                  38982462.232
        43.500
 151217464.420 5                  28775728.871
        34.750
 113081345.452 6                  21183929.769
        39.000
 124889062.391 7                  23765582.164
        42.000
 150292799.334 6                  28599766.997
        36.750
 123654992.051 5                  23124067.635
        32.000
 130575136.106 7                  24847581.642
        47.250
 120937494.422 7                  22663635.598
        46.250
 123525797.531 6  96253883.90544  23506172.182    23506171.977    23506174.513
        41.000          29.250
 120182075.207 7                  22498332.916
        46.750
 195972524.465 7                  37292324.068
        47.250
 131639057.494 7                  25050041.632
        46.000
 112173193.573 8  87407692.23246  21345842.728    21345842.465    21345840.158
        48.750          41.750
 107104365.856 8                  20014996.243
        52.250
 21 10  5  0  9 30.0000000  0 28G16S48R01G26G25E11G32E09G29R08E05E25
                                S25R10S23E03R22E12E04R20E24R02G18R12
                                S36E31G31R21
 133234908.833 5 103819414.17943  25353761.173    25353760.431    25353759.507
        35.500          20.500
  31643908.739 7                   6021571.897
        44.250
 121135846.870 7                  22660969.424
        42.000
 118987853.918 7  92717908.49045  22642597.811    22642597.400    22642599.066
        42.750          33.000
 118004141.734 7  91951391.04247  22455400.794    22455400.016    22455401.694
        44.250          45.500
 138326888.042 5                  26322728.736
        33.250
 113875355.944 8  88734072.84746  21669749.006    21669748.935    21669750.217
        48.750          41.500
 125066581.811 7                  23799369.302
        45.250
 110041918.738 8  85747038.52749  20940252.991    20940252.531    20940251.005
        48.750          54.250
 131120667.89716                  24485875.803
        39.750
 134790191.453 7                  25649719.481
        44.250
 147292189.675 5                  28028769.535
        35.000
 195548857.036 7                  37212011.213
        46.500
 120315551.793 7                  22570856.243
        43.750
 204854154.722 7                  38982439.865
        43.750
 151162359.939 5                  28765242.306
        34.250
 112968489.427 6                  21162789.501
        38.500
 124824282.678 7                  23753254.802
        42.250
 150376227.628 5                  28615643.035
        34.750
 123759005.296 5                  23143519.286
        32.000
 130559672.888 7                  24844639.085
        47.250
 120934243.197 7                  22663025.863
        45.250
 123440502.456 7  96187420.50545  23489940.777    23489940.590    23489942.975
        42.250          30.500
 120115990.822 7                  22485962.024
        47.250
 195972528.645 7                  37292326.317
        47.250
 131662978.478 7                  25054593.789
        45.750
 112117575.371 8  87364353.37647  21335258.900    21335258.637    21335256.534
        49.000          42.250
 107094493.456 8                  20013151.040
        52.250
 21 10  5  0 10  0.0000000  0 28G16S48R01G26G25E11G32E09G29R08E05E25
                                S25R10S23E03R22E12E04R20E24R02G18R12
                                S36E31G31R21
 133161902.540 5 103762526.26942  25339867.828    25339867.059    25339868.045
        35.000          16.750
  31644648.523 7                   6021601.468
        44.250
 121227841.830 7                  22678179.502
        43.500
 118937542.879 7  92678705.09145  22633023.834    22633023.414    22633025.595
        43.500          33.750
 118064338.813 7  91998297.84647  22466855.914    22466855.136    22466856.815
        44.000          45.500
 138238726.292 6                  26305952.555
        36.750
 113942436.364 8  88786343.27046  21682513.914    21682513.847    21682515.215
        49.250          41.750
 125136244.426 7                  23812625.832
        45.250
 110085418.653 8  85780934.56949  20948530.754    20948530.294    20948528.877
        49.500          54.500
 131229938.687 5                  24506279.687
        35.500
 134796288.897 7                  25650879.967
        44.500
 147248304.639 6                  28020418.996
        36.250
 195548043.207 7                  37211572.270
        46.750
 120363964.077 7                  22579938.324
        44.000
 204854047.352 7                  38982420.181
        43.500
 151107545.026 5                  28754811.544
        34.250
 112856052.936 6                  21141725.029
        39.500
 124759747.767 7                  23740974.279
        42.250
 150459520.933 5                  28631493.394
        35.000
 123863467.377 5                  23163054.559
        32.250
 130544222.277 7                  24841699.013
        47.000
 120931686.164 7                  22662546.658
        44.750
 123355278.962 7  96121012.77245  23473723.154    23473722.967    23473725.147
        43.500          30.750
 120049842.667 7                  22473577.628
        46.000
 195972534.999 7                  37292328.137
        47.500
 131686903.648 7                  25059146.702
        46.250
 112062205.628 8  87321208.12247  21324722.251    21324721.988    21324719.996
        49.500          42.250
 107085450.523 8                  20011461.383
        52.250
 21 10  5  0 10 30.0000000  0 28G16S48R01G26G25E11G32E09G29R08E05E25
                                S25R10S23E03R22E12E04R20E24R02G18R12
                                S36E31G31R21
 133088996.735 6 103705716.37843  25325993.595    25325992.800    25325993.718
        36.250          18.750
  31645389.883 7                   6021630.944
        44.250
 121320071.454 7                  22695431.863
        43.000
 118887349.480 7  92639593.35645  22623472.327    22623471.907    22623474.044
        44.000          33.500
 118124577.285 7  92045236.89947  22478318.757    22478317.984    22478319.712
        44.000          44.750
 138150464.873 6                  26289158.171
        37.250
 114009917.370 8  88838925.83346  21695355.022    21695354.951    21695356.467
        49.500          41.500
 125206088.764 7                  23825916.817
        45.500
 110129404.900 8  85815209.56549  20956901.114    20956900.654    20956899.325
        49.500          54.500
 131338981.383 6                  24526643.896
        39.250
 134802783.125 7                  25652115.729
        45.250
 147204413.011 6                  28012066.186
        36.750
 195545624.772 7                  37211131.301
        46.500
 120412550.092 7                  22589054.165
        44.000
 204853939.300 7                  38982400.242
        43.750
 151053021.928 5                  28744436.067
        34.750
 112744040.915 6                  21120740.791
        38.500
 124695460.658 7                  23728740.693
        42.500
 150542678.599 6                  28647317.120
        37.000
 123968375.377 5                  23182672.513
        32.000
 130528785.029 7                  24838761.337
        47.500
 120929823.319 7                  22662197.713
        45.500
 123270131.315 7  96054664.24445  23457519.988    23457519.801    23457521.918
        43.250          30.000
 119983632.129 7                  22461184.013
        46.000
 195972544.348 7                  37292328.937
        47.000
 131710834.239 7                  25063700.571
        46.750
 112007087.269 8  87278258.75247  21314233.532    21314233.264    21314231.340
        49.250          42.000
 107077238.701 8                  20009926.693
        52.250
 21 10  5  0 11  0.0000000  0 28G16S48R01G26G25E11G32E09G29R08E05E25
                                S25R10S23E03R22E12E04R20E24R02G18R12
                                S36E31G31R21
 133016191.528 6 103648985.22443  25312141.140    25312140.345    25312140.086
        38.500          21.000
  31644533.886 7                   6021661.915
        44.250
 121412532.316 7                  22712728.345
        42.750
 118837274.305 7  92600573.75545  22613943.457    22613943.033    22613944.824
        43.500          33.500
 118184857.865 7  92092208.77147  22489790.240    22489789.471    22489790.859
        43.500          44.500
 138062106.188 5                  26272345.266
        32.250
 114077797.235 8  88891819.19346  21708272.158    21708272.096    21708273.603
        49.000          41.500
 125276113.874 7                  23839242.085
        45.250
 110173876.433 8  85849862.71449  20965363.774    20965363.309    20965361.764
        49.500          54.250
 131447792.817 6                  24546965.431
        39.500
 134809674.657 7                  25653427.063
        44.250
 147160515.281 6                  28003712.863
        37.000
 195543193.140 7                  37210689.352
        46.750
 120461311.765 7                  22598201.095
        44.500
 204853832.056 7                  38982381.564
        43.500
 150998793.015 5                  28734117.276
        34.750
 112632458.921 6                  21099839.140
        41.000
 124631424.317 7                  23716555.066
        42.250
 150625700.095 6                  28663115.793
        37.000
 124073726.374 5                  23202374.315
        31.500
 130513361.894 7                  24835826.421
        47.250
 120928654.394 7                  22661979.138
        46.250
 123185063.058 7  95988377.39845  23441331.630    23441331.429    23441333.916
        42.000          30.250
 119917360.692 7                  22448776.820
        45.500
 195972551.255 7                  37292329.608
        47.250
 131734771.536 7                  25068255.303
        46.500
 111952223.134 8  87235507.47647  21303793.477    21303793.209    21303790.965
        49.250          42.250
 107069859.145 8                  20008547.981
        52.500
 21 10  5  0 11 30.0000000  0 28G16S48R01G26G25E11G32E09G29R08E05E25
                                S25R10S23E03R22E12E04R20E24R02G18R12
                                S36E31G31R21
 132943484.715 6 103592330.47142  25298303.974    25298303.147    25298303.589
        38.000          17.250
  31645277.530 7                   6021690.386
        44.500
 121505217.939 6                  22730067.536
        41.750
 118787314.970 7  92561644.41445  22604436.410    22604435.986    22604437.962
        44.250          34.000
 118245178.161 7  92139211.58847  22501268.906    22501268.128    22501269.644
        43.750          44.750
 137973650.968 5                  26255513.699
        30.250
 114146071.165 8  88945019.61846  21721264.373    21721264.306    21721265.630
        49.000          41.500
 125346315.750 7                  23852601.264
        45.000
 110218829.115 8  85884890.78049  20973917.983    20973917.518    20973916.023
        49.000          54.500
 131556368.759 6                  24567241.274
        38.500
 134816960.954 7                  25654813.887
        44.500
 147116608.794 6                  27995357.697
        36.250
 195540756.770 7                  37210245.414
        46.500
 120510248.411 7                  22607382.094
        44.250
 204853724.313 7                  38982358.665
        43.750
 150944857.434 5                  28723852.678
        34.000
 112521309.569 6                  21079016.481
        38.000
 124567638.734 7                  23704417.015
        42.750
 150708581.919 6                  28678887.908
        37.750
 124179513.949 5                  23222154.383
        31.000
 130497950.718 7                  24832893.791
        47.250
 120928176.975 7                  22661889.222
        46.000
 123100075.903 7  95922153.90145  23425158.943    23425158.742    23425161.188
        44.500          30.750
 119851026.661 7                  22436359.733
        45.750
 195972554.011 7                  37292332.090
        47.250
 131758713.829 7                  25072811.701
        46.250
 111897613.253 8  87192954.32047  21293401.685    21293401.422    21293399.146
        49.250          42.500
 107063310.307 8                  20007323.976
        52.750
 21 10  5  0 12  0.0000000  0 28G16S48R01G26G25E11G32E09G29R08E05E25
                                S25R10S23E03R22E12E04R20E24R02G18R12
                                S36E31G31R21
 132870874.491 5 103535751.16243  25284487.205    25284486.369    25284487.523
        31.750          18.750
  31644418.524 7                   6021718.405
        44.250
 121598121.285 7                  22747447.491
        42.500
 118737468.927 7  92522803.35245  22594950.978    22594950.554    22594952.779
        44.250          34.000
 118305535.802 7  92186243.50047  22512754.339    22512753.561    22512754.989
        44.000          44.500
 137885099.743 5                  26238664.064
        31.750
 114214734.205 8  88998523.24446  21734330.534    21734330.463    21734331.653
        49.500          41.000
 125416690.157 7                  23865993.055
        45.250
 110264258.396 8  85920290.22249  20982562.823    20982562.363    20982560.970
        49.500          54.250
 131664702.290 6                  24587471.112
        38.750
 134824639.323 7                  25656274.933
        44.250
 147072690.852 6                  27987000.751
        36.750
 195538299.981 7                  37209797.393
        46.250
 120559358.756 7                  22616594.145
        43.500
 204853612.911 7                  38982339.374
        43.500
 150891214.331 5                  28713644.832
        34.000
 112410594.578 6                  21058276.270
        39.750
 124504103.762 7                  23692326.825
        42.750
 150791320.342 5                  28694632.242
        35.250
 124285731.975 5                  23242021.256
        32.750
 130482549.132 7                  24829962.916
        47.250
 120928387.561 7                  22661928.881
        46.000
 123015169.992 7  95855993.48445  23409002.026    23409001.825    23409004.376
        44.000          30.000
 119784628.293 7                  22423930.121
        46.750
 195972558.509 7                  37292331.916
        47.000
 131782659.269 7                  25077368.333
        46.000
 111843257.286 8  87150599.02247  21283057.852    21283057.593    21283055.367
        49.000          42.000
 107057590.564 8                  20006254.892
        52.750
 21 10  5  0 12 30.0000000  0 28G16S48R01G26G25E11G32E09G29R08E05E25
                                S25R10S23E03R22E12E04R20E24R02G18R12
                                S36E31G31R21
 132798370.059 6 103479254.16243  25270691.779    25270690.984    25270690.202
        39.250          21.250
  31645167.078 7                   6021750.261
        44.250
 121691247.436 7                  22764868.140
        43.000
 118687745.567 7  92484057.88445  22585489.346    22585488.917    22585490.351
        44.500          34.250
 118365940.152 7  92233311.81147  22524249.085    22524248.307    22524249.375
        44.000          44.750
 137796464.754 6                  26221797.236
        37.000
 114283793.354 8  89052335.52346  21747472.058    21747471.987    21747473.184
        49.000          41.250
 125487244.905 7                  23879419.151
        45.250
 110310172.420 8  85956067.38449  20991299.795    20991299.335    20991298.181
        49.250          54.250
 131772800.772 6                  24607657.212
        36.750
 134832718.988 7                  25657812.368
        44.750
 147028770.706 6                  27978642.690
        36.500
 195535851.160 7                  37209350.365
        46.500
 120608653.530 7                  22625841.481
        43.500
 204853507.943 7                  38982320.401
        43.500
 150837874.847 5                  28703495.132
        35.500
 112300329.068 6                  21037619.840
        38.250
 124440831.175 7                  23680286.534
        43.000
 150873923.639 5                  28710351.094
        34.250
 124392386.430 5                  23261966.053
        32.250
 130467166.625 7                  24827035.717
        47.250
 120929295.387 7                  22662098.860
        46.000
 122930358.566 6  95789906.73744  23392862.877    23392862.685    23392865.454
        40.750          29.000
 119718176.008 7                  22411490.282
        47.250
 195972572.970 7                  37292334.084
        47.250
 131806617.910 7                  25081927.601
        46.250
 111789167.055 8  87108450.78947  21272764.810    21272764.551    21272762.117
        49.250          42.000
 107052710.297 8                  20005342.864
        52.250
 21 10  5  0 13  0.0000000  0 28G16S48R01G26G25E11G32E09G29R08E05E25
                                S25R10S23E03R22E12E04R20E24R02G18R12
                                S36E31G31R21
 132725956.037 5 103422827.76742  25256908.256    25256907.487    25256910.391
        35.000          16.500
  31645908.194 7                   6021777.515
        44.500
 121784576.431 6                  22782328.598
        40.750
 118638129.222 7  92445395.80245  22576047.121    22576046.701    22576048.574
        44.500          34.250
