     2.11           OBSERVATION DATA    M (MIXED)           RINEX VERSION / TYPE
teqc  2019Feb25                         20230504 17:05:52UTCPGM / RUN BY / DATE
Linux2.6.32-573.12.1.el6.x86_64|x86_64|gcc|Win64-MinGW64|=+ COMMENT
BIT 2 OF LLI FLAGS DATA COLLECTED UNDER A/S CONDITION       COMMENT
-Unknown-                                                   MARKER NAME
-Unknown-           -Unknown-                               OBSERVER / AGENCY
-Unknown-           -Unknown-           -Unknown-           REC # / TYPE / VERS
-Unknown-           -Unknown-                               ANT # / TYPE
        0.0000        0.0000        0.0000                  APPROX POSITION XYZ
        0.0000        0.0000        0.0000                  ANTENNA: DELTA H/E/N
     1     1                                                WAVELENGTH FACT L1/2
     7    L1    L2    C1    P1    P2    S1    S2            # / TYPES OF OBSERV
 SNR is mapped to RINEX snr flag value [0-9]                COMMENT
  L1 & L2: min(max(int(snr_dBHz/6), 0), 9)                  COMMENT
  2021    10    19     0     0    0.0000000     GPS         TIME OF FIRST OBS
    18                                                      LEAP SECONDS
                                                            END OF HEADER
 21 10 19  0  0  0.0000000  0 30E26G16E04G27G32E12E09E13G26S25G31S36
                                G25G29S23S48R01R21E19R16E21R07R19G18
                                E01R09R10E31R08R20
 126612037.070 7                  24093441.524
        46.750
 126031625.876 6  98206477.81443  23983019.720    23983018.951    23983019.305
        39.500          22.250
 136984911.652 7                  26067359.622
        42.750
 129637416.819 6 101016189.03644  24669182.412    24669181.648    24669187.701
        37.250          24.000
 120656642.506 7  94018173.44645  22960190.387    22960190.262    22960190.565
        45.250          32.750
 141409996.276 5                  26909426.860
        32.750
 131818133.117 6                  25084151.350
        40.500
                                  27538161.638
        19.500
 113639506.346 7  88550332.04246  21624857.879    21624857.464    21624858.945
        46.750          37.750
 183470781.31517                  34913090.998
        46.250
 107263625.359 8  83582049.30449  20411585.086    20411584.814    20411583.208
        50.500          55.500
 195043717.147 7                  37115584.881
        47.250
 122710528.880 6  95618675.89746  23351016.990    23351016.190    23351018.398
        39.750          37.750
 115391780.470 7  89915719.72548  21958306.214    21958305.772    21958304.774
        47.000          48.750
 203913107.453 7                  38803360.316
        43.250
  30744738.329 7                   5850400.573
        44.000
 128994584.922 5                  24131103.483
        35.250
 123979617.814 7                  23168540.038
        46.250
 146411588.99415                  27861198.530
        35.000
 121930167.897 6                  22825565.476
        40.250
 140500196.283 6                  26736260.575
        40.750
 127491005.051 7                  23816404.807
        42.750
 113252570.407 6                  21171343.886
        40.500
 115142521.270 7  89721450.20846  21910889.130    21910888.938    21910889.940
        46.750          36.250
 127364269.546 7                  24236591.313
        47.750
 107689435.227 8                  20166759.453
        51.500
 111956127.462 8                  21002681.443
        48.500
 134412621.290 7                  25577862.473
        44.000
 124171910.714 7                  23188230.077
        43.250
 103975103.768 6                  19443858.499
        41.750
 21 10 19  0  0 30.0000000  0 30E26G16E04G27G32E12E09E13G26S25G31S36
                                G25G29S23S48R01R21E19R16E21R07R19G18
                                E01R09R10E31R08R20
 126606702.922 7                  24092426.393
        47.250
 125966539.973 6  98155761.42243  23970634.581    23970633.799    23970632.383
        38.250          21.750
 137045490.569 7                  26078887.736
        43.250
 129535009.540 6 100936391.35343  24649694.068    24649693.353    24649699.467
        37.250          22.750
 120748202.380 7  94089518.51045  22977613.732    22977613.607    22977614.211
        45.000          32.500
 141319226.433 5                  26892153.350
        32.250
 131819115.233 6                  25084337.716
        41.500
                                  27550583.108
        20.750
 113599421.938 7  88519097.45346  21617229.849    21617229.434    21617231.086
        46.250          38.000
 183466473.098 7                  34912478.981
        45.750
 107241585.037 8  83564875.01949  20407391.061    20407390.789    20407388.987
        50.250          55.500
 195043725.848 7                  37115585.462
        46.500
 122773878.507 6  95668039.22846  23363072.046    23363071.246    23363073.875
        38.750          38.250
 115471689.674 7  89977986.64648  21973512.322    21973511.871    21973510.567
        46.750          48.750
 203913020.070 7                  38803342.626
        43.500
  30745455.001 7                   5850433.091
        44.000
 128988407.358 6                  24129947.711
        37.500
 123846813.188 7                  23143722.443
        46.250


 121994910.716 6                  22837685.258
        40.250
 140538495.518 6                  26743548.774
        41.250
 127587185.971 7                  23834371.591
        44.000
 113341174.976 6                  21187906.615
        40.750
 115078632.132 7  89671666.50846  21898731.502    21898731.315    21898732.354
        47.500          37.250
 127367308.306 8                  24237169.512
        48.250
 107690551.645 8                  20166968.800
        51.500
 111890730.022 8                  20990413.241
        48.500
 134373743.293 7                  25570464.134
        44.500
 124228553.663 7                  23198807.858
        42.250
 103924590.214 7                  19434413.005
        43.000
 21 10 19  0  1  0.0000000  0 30E26G16E04G27G32E12E09E13G26S25G31S36
                                G25G29S23S48R01R21E19R16E21R07R19G18
                                E01R09R10E31R08R20
 126601805.548 7                  24091494.624
        47.750
 125901529.928 6  98105104.28643  23958263.683    23958262.888    23958262.578
        39.250          22.500
 137106255.954 7                  26090451.053
        43.250
 129432782.536 6 100856734.19143  24630240.792    24630240.126    24630246.411
        37.000          23.250
 120839879.902 7  94160955.11945  22995060.001    22995059.881    22995060.067
        44.500          32.000
 141228368.827 5                  26874863.707
        33.000
 131820485.279 6                  25084598.994
        41.500
                                  27563060.862
        20.500
 113559441.037 7  88487943.51646  21609621.846    21609621.431    21609623.049
        46.500          38.000
 183463760.534 7                  34911867.464
        46.000
 107219979.705 8  83548039.68449  20403279.713    20403279.436    20403277.599
        50.000          54.500
 195043730.165 8                  37115587.716
        48.250
 122837275.396 6  95717439.36846  23375136.212    23375135.408    23375137.449
        39.750          36.750
 115551849.141 7  90040448.57148  21988766.212    21988765.756    21988764.608
        46.750          49.000
 203912938.734 7                  38803328.214
        43.000
  30744578.150 7                   5850467.553
        44.000
 128982867.275 6                  24128914.020
        37.250
 123714156.578 7                  23118932.192
        43.750
 146566157.35915                  27890611.766
        32.500
 122059922.114 6                  22849856.092
        38.750
 140576851.895 6                  26750847.863
        41.250
 127683318.408 7                  23852330.977
        46.250
 113430351.115 6                  21204576.865
        40.000
 115015116.359 7  89622173.68246  21886645.056    21886644.864    21886645.773
        46.500          36.000
 127370391.356 8                  24237756.186
        48.000
 107691981.945 8                  20167236.480
        51.500
 111825406.711 8                  20978158.600
        48.250
 134334844.939 7                  25563062.002
        44.250
 124285639.871 7                  23209468.472
        42.250
 103874860.655 7                  19425113.359
        42.750
 21 10 19  0  1 30.0000000  0 30E26G16E04G27G32E12E09E13G26S25G31S36
                                G25G29S23S48R01R21E19R16E21R07R19G18
                                E01R09R10E31R08R20
 126597337.038 7                  24090644.119
        46.750
 125836587.254 6  98054499.70543  23945905.186    23945904.395    23945903.908
        38.750          22.000
 137167197.725 7                  26102047.627
        42.500
 129330728.596 6 100777211.38244  24610820.953    24610820.336    24610826.252
        39.250          25.000
 120931664.113 7  94232474.79245  23012526.095    23012525.988    23012527.097
        44.500          31.500
 141137417.195 5                  26857556.003
        30.000
 131822234.576 6                  25084931.964
        41.000


 113519555.638 7  88456864.00346  21602031.855    21602031.440    21602033.342
        46.000          38.250
 183461042.522 7                  34911251.601
        46.250
 107198802.929 8  83531538.27949  20399249.915    20399249.638    20399247.656
        50.000          55.000
 195043737.548 8                  37115589.084
        48.250
 122900711.714 6  95766870.26246  23387207.885    23387207.076    23387208.545
        39.750          37.000
 115632247.915 7  90103096.96748  22004065.375    22004064.915    22004064.113
        46.750          48.500
 203912853.705 7                  38803312.639
        44.250
  30745298.085 7                   5850499.995
        44.250
 128977955.740 6                  24127993.209
        36.500
 123581642.665 7                  23094169.374
        44.000
                                  27905273.070
        28.750
 122125194.648 6                  22862074.814
        38.250
 140615258.089 6                  26758156.068
        40.000
 127779392.243 6                  23870277.846
        40.500
 113520086.705 6                  21221352.546
        40.250
 114951968.922 8  89572967.92646  21874628.244    21874628.052    21874629.271
        48.000          38.250
 127373511.254 7                  24238349.818
        47.500
 107693719.717 8                  20167561.997
        51.500
 111760151.540 8                  20965916.947
        48.250
 134295918.206 7                  25555654.402
        43.500
 124343157.935 7                  23220208.848
        42.500
 103825908.969 7                  19415959.412
        42.500
 21 10 19  0  2  0.0000000  0 29E26G16E04G27G32E12E09E13G26G31S36G25
                                G29S23S48R01R21E19R16E21R07R19G18E01
                                R09R10E31R08R20
 126593297.432 7                  24089875.222
        47.000
 125771711.187 6  98003946.91843  23933559.455    23933558.673    23933558.285
        38.500          22.500
 137228313.501 7                  26113677.778
        42.500
 129228850.847 6 100697826.33344  24591434.823    24591434.206    24591439.989
        39.250          25.500
 121023551.797 7  94304075.12345  23030012.140    23030012.024    23030013.225
        44.250          31.000
 141046372.797 5                  26840230.906
        32.750
 131824362.590 6                  25085336.350
        40.750


 113479765.531 7  88425858.73246  21594460.037    21594459.622    21594461.856
        46.500          38.250
 107178055.945 8  83515371.79349  20395301.723    20395301.446    20395299.848
        50.250          55.000
 195043747.246 7                  37115590.305
        47.750
 122964187.396 6  95816331.81346  23399286.574    23399285.765    23399287.985
        39.500          37.250
 115712883.726 7  90165930.06848  22019410.030    22019409.565    22019408.285
        46.750          48.250
 203912766.316 7                  38803294.976
        44.000
  30746014.811 7                   5850531.976
        44.500
 128973671.687 6                  24127193.107
        37.250
 123449274.891 7                  23069433.189
        43.000
                                  27919900.534
        29.500
 122190728.187 6                  22874343.317
        40.000
 140653714.405 6                  26765474.452
        40.500
 127875400.759 6                  23888214.269
        41.000
 113610377.499 6                  21238231.685
        39.750
 114889192.226 8  89524051.02146  21862682.203    21862682.011    21862683.202
        48.000          37.750
 127376668.224 7                  24238950.619
        47.250
 107695766.229 8                  20167945.339
        52.000
 111694966.479 8                  20953688.434
        48.500
 134256962.778 7                  25548241.779
        43.500
 124401102.691 7                  23231030.225
        42.000
 103777737.150 7                  19406950.952
        42.500
 21 10 19  0  2 30.0000000  0 30E26G16E04G27G32E12E09E13G26G31S36G25
                                S25G29S23S48R01R21E19R16E21R07R19G18
                                E01R09R10E31R08R20
 126589687.799 7                  24089188.269
        47.250
 125706902.535 6  97953446.65643  23921226.704    23921225.913    23921225.787
        39.250          22.250
 137289602.244 7                  26125340.603
        42.250
 129127151.086 6 100618580.10544  24572081.321    24572080.700    24572086.860
        39.750          26.000
 121115540.686 7  94375754.30945  23047517.090    23047516.974    23047518.456
        44.000          30.500
 140955238.069 4                  26822888.769
        29.000
 131826869.625 6                  25085813.601
        41.250


 113440071.667 7  88394928.46346  21586906.496    21586906.076    21586908.222
        46.750          38.250
 107157740.790 8  83499541.79649  20391436.044    20391435.767    20391434.265
        50.500          55.250
 195043754.948 7                  37115590.783
        46.750
 123027703.576 6  95865824.90546  23411373.864    23411373.051    23411374.915
        40.250          38.500
 183453838.35317                  34910016.100
        46.500
 115793754.860 7  90228946.54248  22034799.105    22034798.640    22034797.696
        46.500          48.250
 203912677.327 7                  38803277.756
        44.250
  30745127.859 7                   5850565.214
        44.500
 128970015.575 6                  24126507.866
        38.000
 123317058.448 7                  23044725.452
        44.000
                                  27934497.596
        33.500
 122256523.384 6                  22886661.162
        38.750
 140692222.481 6                  26772802.347
        41.000
 127971345.046 7                  23906138.462
        44.500
 113701221.012 6                  21255213.842
        40.000
 114826789.960 7  89475425.88546  21850807.318    21850807.131    21850808.357
        46.000          37.250
 127379863.782 7                  24239558.805
        47.500
 107698124.726 8                  20168386.783
        51.250
 111629853.894 8                  20941473.362
        48.500
 134217979.611 7                  25540823.198
        44.000
 124459472.246 7                  23241931.899
        42.000
 103730347.970 7                  19398088.673
        42.500
 21 10 19  0  3  0.0000000  0 29E26G16E04G27G32E12E09G26G31S36G25S25
                                G29S23S48R01R21E19R16E21R07R19G18E01
                                R09R10E31R08R20
 126586513.445 7                  24088584.265
        47.750
 125642166.177 6  97903002.73443  23908907.924    23908907.129    23908907.679
        38.000          22.500
 137351066.977 7                  26137037.351
        43.000
 129025635.977 6 100539477.90044  24552763.166    24552762.567    24552769.357
        38.750          27.000
 121207632.486 7  94447513.49745  23065042.183    23065042.063    23065043.438
        43.500          30.750
 140864020.185 5                  26805530.194
        32.000
 131829760.413 6                  25086363.929
        41.500
 113400479.231 7  88364077.22146  21579372.313    21579371.893    21579373.703
        46.500          38.250
 107137864.432 8  83484053.71749  20387653.721    20387653.444    20387651.809
        50.250          55.250
 195043756.868 7                  37115592.407
        46.000
 123091265.687 6  95915353.81146  23423468.656    23423467.843    23423470.109
        38.750          37.500
 183451087.352 7                  34909396.812
        46.250
 115874863.587 7  90292148.14948  22050233.721    22050233.256    22050232.158
        46.250          48.250
 203912590.406 7                  38803262.365
        44.000
  30745843.170 7                   5850596.730
        44.250
 128966991.528 6                  24125942.746
        36.750
 123185001.792 7                  23020048.753
        45.500


 122322586.076 6                  22899026.191
        38.250
 140730788.064 6                  26780141.061
        40.500
 128067224.884 7                  23924050.706
        46.250
 113792618.013 6                  21272299.722
        40.250
 114764770.157 7  89427098.79946  21839005.561    21839005.378    21839006.282
        45.750          37.500
 127383103.654 8                  24240175.237
        48.000
 107700802.249 8                  20168888.644
        51.750
 111564821.274 8                  20929273.434
        48.500
 134178973.813 7                  25533400.578
        44.250
 124518267.808 7                  23252908.479
        42.000
 103683748.800 7                  19389374.461
        42.500
 21 10 19  0  3 30.0000000  0 30E26G16E04G27G32E12E09E13G26G31S36G25
                                S25G29S23S48R01R21E19R16E21R07R19G18
                                E01R09R10E31R08R20
 126583769.693 7                  24088062.281
        47.000
 125577497.098 6  97852611.34943  23896601.614    23896600.814    23896601.461
        39.250          23.000
 137412701.010 7                  26148766.156
        42.250
 128924301.258 6 100460515.85144  24533479.816    24533479.240    24533485.672
        39.500          26.500
 121299819.606 7  94519347.00145  23082585.264    23082585.157    23082586.869
        43.000          30.250
 140772716.456 5                  26788156.489
        31.250
 131833029.553 6                  25086986.319
        40.750


 113360983.357 7  88333301.22246  21571856.634    21571856.214    21571858.001
        46.500          38.250
 107118423.316 8  83468904.78349  20383954.078    20383953.801    20383952.243
        50.750          55.250
 195043756.347 7                  37115593.122
        46.000
 123154869.023 6  95964914.82546  23435572.995    23435572.182    23435574.219
        40.000          39.000
 183448327.125 7                  34908775.820
        46.500
 115956202.454 7  90355529.08848  22065711.793    22065711.328    22065710.049
        46.750          48.000
 203912502.338 7                  38803245.453
        44.000
  30746554.035 7                   5850629.788
        44.250
 128964593.854 6                  24125493.365
        36.250
 123053104.157 7                  22995399.743
        47.000


 122388911.600 6                  22911444.015
        40.000
 140769406.826 6                  26787489.870
        40.000
 128163031.042 7                  23941949.069
        45.000
 113884559.331 6                  21289486.936
        40.000
 114703130.567 7  89379067.97046  21827276.177    21827275.994    21827276.501
        46.500          36.750
 127386383.473 7                  24240799.320
        47.750
 107703795.694 8                  20169448.988
        51.250
 111499865.509 8                  20917087.846
        48.250
 134139940.464 7                  25525972.880
        43.750
 124577480.074 7                  23263968.152
        42.250
 103637936.226 7                  19380807.504
        43.250
 21 10 19  0  4  0.0000000  0 29E26G16E04G27G32E12E09G26G31S36G25S25
                                G29S23S48R01R21E19R16E21R07R19G18E01
                                R09R10E31R08R20
 126581457.744 7                  24087622.365
        46.750
 125512895.383 6  97802272.37243  23884308.549    23884307.718    23884307.083
        38.250          22.000
 137474503.640 7                  26160526.815
        42.000
 128823150.176 6 100381696.77144  24514231.305    24514230.720    24514237.274
        38.500          26.250
 121392100.189 7  94591253.43445  23100145.837    23100145.726    23100148.058
        43.250          31.250
 140681328.481 5                  26770765.499
        31.250
 131836677.336 6                  25087680.314
        41.000
 113321585.236 7  88302601.39646  21564359.460    21564359.036    21564360.865
        46.500          38.500
 107099419.859 8  83454096.88449  20380337.803    20380337.526    20380335.854
        50.500          55.250
 195043756.900 7                  37115593.153
        47.750
 123218514.928 6  96014509.01846  23447683.558    23447682.758    23447685.420
        39.750          39.000
 183443956.364 7                  34908152.373
        46.250
 116037769.975 7  90419088.20748  22081233.799    22081233.339    22081231.838
        46.250          48.000
 203912414.141 7                  38803227.316
        43.500
  30745665.684 7                   5850663.755
        44.250
 128962823.152 6                  24125164.750
        38.000
 122921369.820 7                  22970782.036
        46.500
 147025892.62316                  27978097.486
        38.000
 122455501.613 6                  22923910.147
        39.000
 140808080.534 6                  26794849.171
        40.500
 128258761.764 7                  23959832.117
        43.250
 113977042.159 6                  21306775.178
        40.250
 114641875.119 7  89331336.49646  21815619.453    21815619.270    21815620.059
        46.750          37.250
 127389704.877 8                  24241431.401
        48.000
 107707108.090 8                  20170069.084
        51.750
 111434990.073 8                  20904917.620
        48.750
 134100880.670 7                  25518540.026
        44.000
 124637106.190 7                  23275101.646
        42.000
 103592913.468 7                  19372387.512
        42.750
 21 10 19  0  4 30.0000000  0 30E26G16E04G27G32E12E09E13G26G31S36G25
                                S25G29S23S48R01R21E19R16E21R07R19G18
                                E01R09R10E31R08R20
 126579579.039 7                  24087264.804
        46.500
 125448362.697 6  97751987.19743  23872028.489    23872027.680    23872027.283
        38.750          22.000
 137536473.864 7                  26172319.325
        42.250
 128722185.874 6 100303023.27744  24495019.323    24495018.724    24495024.339
        38.000          26.000
 121484471.097 7  94663229.67745  23117724.756    23117724.649    23117727.071
        43.750          32.000
 140589859.446 5                  26753359.669
        35.500
 131840704.746 6                  25088446.747
        40.250


 113282286.258 7  88271978.82346  21556880.978    21556880.558    21556882.327
        46.750          38.500
 107080856.749 8  83439632.11149  20376805.364    20376805.087    20376803.335
        50.750          55.500
 195043766.734 7                  37115594.736
        47.500
 123282204.940 6  96064137.56746  23459803.378    23459802.583    23459804.850
        39.000          37.250
 183441183.622 7                  34907528.175
        46.250
 116119565.117 7  90482824.68347  22096799.007    22096798.542    22096797.118
        46.250          47.750
 203912325.374 7                  38803211.102
        43.750
  30746377.429 7                   5850694.193
        44.250
 128961679.465 6                  24124949.670
        38.500
 122789804.779 7                  22946196.078
        46.750
 147101921.506 5                  27992566.439
        33.000
 122522357.852 6                  22936425.347
        39.000
 140846811.162 6                  26802219.297
        40.250
 128354413.543 7                  23977699.061
        42.500
 114070063.484 6                  21324164.281
        40.000
 114581007.870 7  89283907.54346  21804036.714    21804036.527    21804037.228
        46.750          37.000
 127393069.776 7                  24242071.704
        47.750
 107710742.478 8                  20170750.045
        51.000
 111370198.004 8                  20892762.091
        48.250
 134061795.792 7                  25511102.598
        43.500
 124697143.639 6                  23286312.976
        41.250
 103548683.549 7                  19364116.647
        42.750
 21 10 19  0  5  0.0000000  0 30E26G16E04G27G32E12E09E13G26G31S36G25
                                S25G29S23S48R01R21E19R16E21R07R19G18
                                E01R09R10E31R08R20
 126578135.309 7                  24086990.000
        47.000
 125383899.648 6  97701756.19643  23859761.858    23859761.031    23859760.442
        38.250          21.750
 137598611.211 7                  26184143.909
        42.250
 128621412.218 6 100224498.69944  24475840.811    24475840.203    24475847.942
        37.000          25.500
 121576932.381 7  94735276.51945  23135319.886    23135319.779    23135322.552
        43.750          31.750
 140498312.562 5                  26735939.499
        30.750
 131845112.645 6                  25089285.153
        41.250


 113243088.082 7  88241434.79546  21549421.555    21549421.135    21549423.178
        47.000          38.500
 107062737.109 8  83425512.90649  20373357.520    20373357.243    20373355.424
        51.000          56.000
 195043779.867 7                  37115595.756
        47.250
 123345940.920 6  96113801.94046  23471932.154    23471931.359    23471933.719
        39.500          38.750
 183438399.155 7                  34906902.107
        46.250
 116201586.469 7  90546737.43247  22112407.264    22112406.799    22112404.964
        47.000          47.750
 203912240.571 7                  38803195.492
        43.250
  30747090.923 7                   5850728.101
        44.250
 128961163.482 6                  24124850.779
        37.250
 122658413.957 7                  22921643.564
        46.750
 147177781.188 5                  28007002.717
        31.750
 122589481.708 6                  22948990.455
        39.250
 140885600.911 6                  26809601.075
        41.000
 128449983.062 7                  23995549.692
        46.000
 114163621.092 6                  21341654.481
        40.500
 114520533.109 7  89236784.44346  21792528.629    21792528.437    21792528.967
        47.500          36.500
 127396480.324 7                  24242720.729
        47.500
 107714702.479 8                  20171491.221
        51.000
 111305492.781 8                  20880624.179
        48.500
 134022687.445 7                  25503660.481
        44.250
 124757589.903 6                  23297601.156
        39.000
 103505249.820 7                  19355993.908
        42.250
 21 10 19  0  5 30.0000000  0 29E26G16E04G27G32E12E09G26G31S36G25S25
                                G29S23S48R01R21E19R16E21R07R19G18E01
                                R09R10E31R08R20
 126577113.790 7                  24086795.616
        46.750
 125319493.661 6  97651569.64143  23847505.447    23847504.634    23847504.266
        38.750          21.500
 137660900.893 7                  26195997.499
        42.000
 128520816.742 6 100146112.81744  24456698.194    24456697.591    24456704.595
        37.000          24.750
 121669468.039 7  94807381.47245  23152929.428    23152929.330    23152932.566
        43.750          32.000
 140406677.399 5                  26718502.186
        32.750
 131849887.542 6                  25090194.022
        40.000
 113203977.926 7  88210959.35546  21541979.403    21541978.988    21541980.998
        46.500          38.250
 107045049.489 8  83411730.33949  20369991.670    20369991.393    20369989.674
        50.750          55.750
 195043775.693 7                  37115595.550
        47.500
 123409710.235 6  96163492.30146  23484066.646    23484065.846    23484069.077
        38.000          37.500
 183434003.194 7                  34906272.878
        46.500
 116283819.079 7  90610814.79747  22128055.397    22128054.937    22128053.429
        46.500          47.750
 203912143.612 7                  38803178.620
        44.000
  30746193.496 7                   5850757.829
        44.250
 128961261.054 6                  24124871.030
        38.500
 122527188.975 7                  22897120.137
        46.500
 147253455.901 5                  28021403.607
        30.750
 122656860.338 6                  22961604.603
        38.750
 140924437.545 6                  26816991.040
        40.000
 128545454.401 6                  24013385.272
        38.250
 114257697.852 6                  21359240.412
        39.000
 114460440.623 7  89189959.18146  21781093.268    21781093.081    21781093.673
        47.000          37.000
 127399924.210 7                  24243376.080
        47.500
 107718976.920 8                  20172291.659
        51.250
 111240863.594 8                  20868499.799
        48.750
 133983542.797 7                  25496211.507
        44.500
 124818428.438 6                  23308961.949
        40.500
 103462601.059 7                  19348018.594
        42.250
 21 10 19  0  6  0.0000000  0 29E26G16E04G27G32E12E09G26G31S36G25S25
                                G29S23S48R01R21E19R16E21R07R19G18E01
                                R09R10E31R08R20
 126576528.884 7                  24086684.234
        46.750
 125255158.061 6  97601437.89643  23835263.010    23835262.165    23835262.412
        38.750          22.000
 137723355.120 6                  26207882.136
        41.000
 128420415.702 6 100067878.41544  24437592.319    24437591.761    24437598.962
        38.500          24.750
 121762089.265 7  94879553.28245  23170555.287    23170555.211    23170558.433
        44.000          32.500
 140314969.352 5                  26701050.566
        32.250
 131855043.089 6                  25091175.045
        40.250
 113164970.187 7  88180563.71646  21534556.469    21534556.045    21534557.845
        46.750          38.250
 107027809.504 8  83398296.57949  20366710.696    20366710.419    20366708.880
        50.750          55.500
 195043772.703 7                  37115596.292
        46.750
 123473527.452 6  96213219.98146  23496210.502    23496209.707    23496213.172
        39.500          38.750
 183431197.278 7                  34905642.098
        46.500
 116366274.658 7  90675065.90347  22143745.818    22143745.353    22143744.058
        46.500          47.250
 203912049.928 7                  38803160.635
        44.250
  30746899.327 7                   5850790.387
        44.250
 128961986.124 6                  24125005.672
        38.750
 122396148.918 7                  22872631.370
        45.000
 147328958.575 5                  28035771.176
        31.000
 122724508.364 6                  22974268.544
        37.500
 140963335.989 6                  26824393.348
        39.500
 128640836.532 7                  24031203.336
        43.750
 114352304.295 6                  21376926.803
        39.750
 114400747.459 8  89143445.09846  21769734.244    21769734.057    21769734.683
        48.000          37.750
 127403416.405 7                  24244040.791
        47.500
 107723581.989 8                  20173154.044
        51.500
 111176327.517 8                  20856393.386
        48.750
 133944376.111 7                  25488758.359
        44.500
 124879669.590 6                  23320398.484
        41.750
 103420753.713 7                  19340192.938
        42.500
 21 10 19  0  6 30.0000000  0 29E26G16E04G27G32E12E09G26G31S36G25S25
                                G29S23S48R01R21E19R16E21R07R19G18E01
                                R09R10E31R08R20
 126576383.589 7                  24086656.224
        47.500
 125190895.540 6  97551362.98043  23823034.029    23823033.184    23823033.759
        38.000          22.250
 137785974.726 7                  26219798.394
        42.500
 128320213.865 6  99989799.44744  24418525.024    24418524.501    24418530.617
        37.500          24.250
 121854795.616 7  94951791.42045  23188196.939    23188196.868    23188200.289
        44.750          32.750
 140223193.355 5                  26683586.701
        32.000
 131860581.796 6                  25092229.168
        40.250
 113126067.870 7  88150250.23046  21527153.654    21527153.230    21527154.828
        46.750          38.500
 107011021.424 8  83385214.95049  20363516.224    20363515.952    20363514.197
        50.750          56.000
 195043782.616 7                  37115596.865
        46.750
 123537395.719 6  96262987.45546  23508364.751    23508363.960    23508366.313
        40.000          39.250
 183428397.225 7                  34905010.539
        46.250
 116448953.717 7  90739491.14747  22159479.344    22159478.879    22159477.149
        46.750          47.000
 203911964.687 7                  38803143.979
        43.500
  30747610.269 7                   5850821.469
        44.250
 128963340.411 6                  24125259.371
        38.250
 122265298.094 7                  22848179.147
        45.000
 147404290.197 4                  28050106.911
        29.500
 122792429.730 6                  22986983.799
        38.750
 141002299.827 6                  26831807.928
        40.500
 128736130.624 7                  24049005.091
        42.000
 114447438.900 6                  21394710.582
        40.250
 114341459.192 7  89097246.51346  21758452.051    21758451.864    21758452.663
        46.750          38.000
 127406960.368 8                  24244715.100
        48.000
 107728522.730 8                  20174079.438
        51.500
 111111888.933 8                  20844304.144
        49.000
 133905190.415 7                  25481301.401
        45.000
 124941312.892 6                  23331910.775
        41.500
 103379712.172 7                  19332518.481
        42.250
 21 10 19  0  7  0.0000000  0 29E26G16E04G27G32E12E09G26G31S36G25S25
                                G29S23S48R01R21E19R16E21R07R19G18E01
                                R09R10E31R08R20
 126576667.065 7                  24086710.373
        47.000
 125126695.460 6  97501336.81143  23810817.933    23810817.097    23810816.968
        39.500          23.250
 137848746.718 7                  26231743.563
        42.000
 128220201.265 6  99911867.76643  24399492.915    24399492.406    24399499.003
        37.000          23.750
 121947573.220 7  95024085.05745  23205852.211    23205852.127    23205856.017
        44.000          32.750
 140131340.123 5                  26666108.138
        31.250
 131866492.034 6                  25093353.795
        40.250
 113087260.287 7  88120010.55646  21519768.606    21519768.182    21519770.203
        46.750          38.750
 106994675.994 8  83372478.24949  20360405.858    20360405.581    20360403.888
        50.750          56.250
 195043784.144 7                  37115598.238
        47.000
 123601304.532 6  96312786.51446  23520526.742    23520525.951    23520527.924
        39.000          39.250
 183423984.523 7                  34904378.811
        46.500
 116531842.576 7  90804079.88648  22175252.742    22175252.282    22175250.614
        46.250          48.000
 203911874.127 7                  38803126.155
        43.500
  30746716.736 7                   5850853.606
        44.000
 128965311.835 6                  24125626.984
        37.000
 122134630.039 7                  22823760.546
        44.750
 147479438.276 4                  28064406.789
        26.000
 122860613.182 6                  22999746.964
        38.250
 141041318.850 6                  26839233.197
        40.500
 128831320.720 6                  24066785.594
        40.250
 114543086.636 6                  21412590.668
        40.000
 114282567.762 7  89051357.17646  21747245.065    21747244.878    21747245.896
        46.500          37.500
 127410545.914 7                  24245397.416
        47.500
 107733789.990 8                  20175065.752
        51.250
 111047539.029 8                  20832232.324
        48.750
 133865974.938 7                  25473838.976
        44.250
 125003343.549 6                  23343494.409
        40.500
 103339466.960 7                  19324992.019
        42.750
 21 10 19  0  7 30.0000000  0 29E26G16E04G27G32E12E09G26G31S36G25S25
                                G29S23S48R01R21E19R16E21R07R19G18E01
                                R09R10E31R08R20
 126577385.909 7                  24086846.986
        46.750
 125062564.116 6  97451364.35443  23798613.769    23798612.942    23798613.401
        40.250          23.750
 137911675.829 7                  26243718.996
        42.500
 128120386.187 6  99834089.95244  24380498.703    24380498.194    24380504.574
        36.250          24.000
 122040425.738 7  95096437.17545  23223522.055    23223521.979    23223526.000
        44.250          32.000
 140039417.871 5                  26648615.920
        35.000
 131872779.974 6                  25094550.555
        40.000
 113048554.052 7  88089849.85546  21512403.153    21512402.729    21512404.399
        46.500          38.500
 106978780.642 8  83360092.25149  20357381.080    20357380.803    20357379.153
        51.250          56.500
 195043794.439 7                  37115600.724
        47.500
 123665260.591 6  96362622.36946  23532696.753    23532695.971    23532698.478
        39.750          38.750
 183421166.754 7                  34903744.520
        46.500
 116614945.198 7  90868835.18247  22191066.630    22191066.165    22191064.860
        45.750          47.750
 203911786.382 7                  38803109.355
        43.250
  30747427.022 7                   5850885.851
        44.000
 128967905.864 6                  24126113.360
        37.500
 122004154.582 7                  22799378.538
        46.500
 147554408.804 5                  28078673.326
        31.250
 122929065.677 6                  23012563.434
        40.000
 141080400.238 6                  26846670.402
        40.250
 128926408.838 7                  24084551.651
        42.000
 114639250.331 6                  21430568.132
        39.500
 114224082.334 7  89005784.20546  21736115.613    21736115.426    21736116.376
        47.000          37.750
 127414180.127 8                  24246088.971
        48.000
 107739392.223 8                  20176114.868
        51.500
 110983286.717 8                  20820178.833
        48.500
 133826736.235 7                  25466372.067
        44.500
 125065763.833 6                  23355151.773
        41.500
 103300026.279 7                  19317616.562
        43.000
 21 10 19  0  8  0.0000000  0 29E26G16E04G27G32E12E09G26G31S36G25S25
                                G29S23S48R01R21E19R16E21R07R19G18E01
                                R09R10E31R08R20
 126578534.579 7                  24087065.480
        46.500
 124998495.807 6  97401441.14943  23786421.935    23786421.104    23786420.896
        39.500          23.000
 137974754.144 7                  26255722.772
        42.000
 128020764.553 6  99756462.83544  24361541.091    24361540.591    24361546.500
        37.750          24.250
 122133344.360 7  95168840.84545  23241204.417    23241204.341    23241208.433
        43.250          31.500
 139947422.669 5                  26631110.136
        34.000
 131879439.130 6                  25095817.602
        40.500
 113009943.689 7  88059763.86546  21505055.960    21505055.531    21505057.111
        46.500          38.750
 106963331.502 8  83348053.95549  20354441.188    20354440.911    20354439.325
        50.750          56.000
 195043794.501 7                  37115601.596
        46.500
 123729258.631 6  96412490.94546  23544874.654    23544873.872    23544876.665
        40.250          39.000
 183418338.204 7                  34903107.403
        46.500
 116698253.568 7  90933750.79047  22206919.623    22206919.154    22206918.014
        46.250          47.500
 203911694.860 7                  38803093.257
        43.750
  30748131.920 7                   5850917.774
        44.250
 128971115.718 6                  24126714.953
        38.500
 121873870.365 7                  22775031.562
        45.250
 147629194.461 5                  28092904.192
        31.500
 122997781.617 6                  23025425.886
        38.750
 141119539.014 6                  26854117.749
        38.750
 129021387.494 7                  24102292.387
        45.500
 114735919.799 6                  21448639.933
        39.500
 114165999.880 7  88960525.23146  21725062.852    21725062.665    21725063.661
        46.750          37.500
 127417857.982 7                  24246788.860
        47.250
 107745325.591 8                  20177225.879
        51.500
 110919128.378 8                  20808143.107
        49.250
 133787468.751 7                  25458899.838
        44.250
 125128564.033 6                  23366881.054
        41.750
 103261386.291 7                  19310390.014
        42.750
 21 10 19  0  8 30.0000000  0 30E26G16E04G27G32E12E09G26G04G31S36G25
                                S25G29S23S48R01R21E19R16E21R07R19G18
                                E01R09R10E31R08R20
 126580116.973 7                  24087366.682
        46.750
 124934493.939 6  97351569.87843  23774242.987    23774242.160    23774241.452
        39.750          22.500
 138037983.667 7                  26267755.147
        42.000
 127921342.050 6  99678990.98144  24342622.123    24342621.636    24342627.704
        39.000          24.500
 122226329.744 7  95241296.45745  23258899.417    23258899.337    23258903.001
        44.750          30.500
 139855360.178 5                  26613591.533
        30.250
 131886472.716 6                  25097156.116
        39.750
 112971433.263 7  88029755.74846  21497727.504    21497727.075    21497729.419
        47.000          39.000
                                  25474020.555
        31.750
 106948333.552 8  83336367.23649  20351587.225    20351586.948    20351585.325
        51.250          56.000
 195043798.452 7                  37115601.913
        46.750
 123793302.823 6  96462395.50546  23557062.236    23557061.458    23557063.804
        39.250          38.000
 183413901.464 7                  34902470.331
        46.500
 116781768.576 7  90998827.42847  22222812.049    22222811.580    22222810.013
        47.250          47.250
 203911603.793 7                  38803075.290
        43.500
  30747236.441 7                   5850949.465
        44.250
 128974943.961 6                  24127429.290
        39.000
 121743784.865 7                  22750723.444
        45.500
 147703797.412 5                  28107100.456
        32.000
 123066765.225 6                  23038340.653
        38.750
 141158739.748 6                  26861577.690
        40.000
 129116255.713 6                  24120015.236
        36.250
 114833095.109 6                  21466805.499
        39.750
 114108327.051 7  88915585.44346  21714087.965    21714087.778    21714088.824
        47.250          37.500
 127421584.101 7                  24247497.892
        47.750
 107751595.857 8                  20178400.289
        51.500
 110855070.249 8                  20796126.121
        49.250
 133748176.498 7                  25451422.676
        44.500
 125191744.379 7                  23378680.754
        42.250
 103223552.444 7                  19303315.390
        42.500
 21 10 19  0  9  0.0000000  0 30E26G16E04G27G32E12E09G26G04G31S36G25
                                S25G29S23S48R01R21E19R16E21R07R19G18
                                E01R09R10E31R08R20
 126582133.140 7                  24087750.576
        46.750
 124870558.340 6  97301750.36143  23762075.386    23762074.573    23762074.758
        39.750          23.500
 138101362.542 7                  26279815.847
        42.000
 127822120.135 6  99601675.43444  24323740.383    24323739.847    24323745.750
        37.250          24.500
 122319379.209 7  95313802.07544  23276606.586    23276606.502    23276610.367
        42.500          29.250
 139763240.09214                  26596060.557
        27.750
 131893880.150 6                  25098566.082
        40.500
 112933022.963 7  87999825.64746  21490418.453    21490418.024    21490420.181
        47.000          39.000


 106933788.166 8  83325033.16849  20348819.341    20348819.064    20348817.150
        50.750          56.000
 195043805.783 7                  37115601.842
        47.500
 123857393.454 6  96512336.22746  23569258.145    23569257.363    23569259.796
        39.000          38.250
 183411055.908 7                  34901832.530
        46.500
 116865488.738 7  91064063.94347  22238743.522    22238743.062    22238741.255
        46.000          47.000
 203911513.584 7                  38803056.178
        43.500
  30747941.375 7                   5850980.860
        44.250
 128979389.820 6                  24128260.204
        37.250
 121613903.331 7                  22726452.306
        46.500
 147778215.760 5                  28121261.608
        30.750
 123136016.611 6                  23051303.295
        38.500
 141198003.068 6                  26869049.304
        39.500
 129211009.981 6                  24137715.178
        40.500
 114930771.782 6                  21485064.787
        39.250
 114051066.437 7  88870966.84546  21703191.715    21703191.528    21703192.191
        46.750          37.000
 127425359.103 7                  24248216.199
        47.750
 107758204.872 8                  20179638.013
        51.750
 110791114.512 8                  20784128.437
        49.250
 133708859.601 7                  25443940.759
        45.000
 125255301.114 6                  23390547.925
        41.750
 103186525.839 7                  19296391.371
        42.250
 21 10 19  0  9 30.0000000  0 30E26G16E04G27G32E12E09G26G04G31S36G25
                                S25G29S23S48R01R21E19R16E21R07R19G18
                                E01R09R10E31R08R20
 126584580.559 7                  24088216.188
        46.250
 124806685.719 6  97251979.97643  23749921.108    23749920.321    23749919.135
        39.500          23.250
 138164886.406 6                  26291904.414
        41.500
 127723097.816 6  99524515.52044  24304896.955    24304896.410    24304902.579
        38.250          26.250
 122412487.314 7  95386353.55844  23294324.412    23294324.319    23294328.201
        42.250          27.750
 139671046.339 4                  26578517.006
        29.750
 131901658.183 6                  25100046.165
        40.750
 112894710.306 7  87969971.63746  21483127.536    21483127.112    21483128.900
        47.000          39.000
                                  25448430.725
        31.750
 106919693.977 8  83314050.67349  20346137.347    20346137.070    20346134.954
        50.750          55.500
 195043810.441 7                  37115602.660
        47.250
 123921528.243 6  96562311.35246  23581462.848    23581462.057    23581464.254
        39.250          38.250
 183408203.555 7                  34901190.459
        46.250
 116949408.570 7  91129456.02547  22254712.816    22254712.356    22254711.114
        46.000          47.000
 203911420.372 7                  38803038.797
        43.500
  30748642.714 7                   5851012.738
        44.250
 128984449.503 6                  24129209.483
        39.250
 121484227.061 7                  22702219.943
        44.250
 147852445.449 5                  28135387.182
        30.500
 123205533.231 6                  23064316.934
        39.250
 141237327.095 6                  26876532.315
        39.250
 129305644.745 6                  24155392.011
        40.000
 115028943.081 6                  21503416.932
        39.250
 113994218.229 7  88826669.64346  21692373.679    21692373.496    21692374.017
        46.750          37.000
 127429181.003 7                  24248943.450
        47.500
 107765151.887 8                  20180938.865
        51.500
 110727260.547 8                  20772149.078
        49.250
 133669515.507 7                  25436454.044
        44.500
 125319228.050 7                  23402486.106
        42.500
 103150305.376 7                  19289618.399
        43.000
 21 10 19  0 10  0.0000000  0 30E26G16E04G27G32E12E09G26G04G31S36G25
                                S25G29S23S48R01R21E19R16E21R07R19G18
                                E01R09R10E31R08R20
 126587463.625 7                  24088764.528
        46.750
 124742880.522 6  97202262.09343  23737778.882    23737778.087    23737777.401
        39.000          22.250
 138228557.705 6                  26304020.546
        41.500
 127624280.574 6  99447515.32944  24286092.171    24286091.613    24286098.127
        39.750          27.250
 122505655.269 7  95458951.77244  23312053.885    23312053.783    23312057.500
        43.250          27.750
 139578792.152 5                  26560961.823
        30.500
 131909810.460 6                  25101597.119
        40.750
 112856499.856 7  87940197.26446  21475856.518    21475856.089    21475857.577
        46.500          38.750


 106906056.836 8  83303424.32049  20343542.228    20343541.951    20343540.000
        51.000          56.500
 195043822.591 7                  37115603.800
        47.250
 123985711.844 6  96612324.54746  23593676.331    23593675.536    23593678.008
        38.500          37.750
 183403752.365 7                  34900547.408
        46.250
 117033529.986 7  91195005.17547  22270720.606    22270720.133    22270719.107
        46.000          47.250
 203911330.886 7                  38803023.441
        44.000
  30747746.695 7                   5851044.580
        44.250
 128990125.852 6                  24130270.490
        38.000
 121354764.820 7                  22678026.462
        44.750
 147926489.883 4                  28149477.222
        28.000
 123275319.373 6                  23077382.015
        39.000
 141276716.850 6                  26884028.069
        39.750
 129400159.638 7                  24173047.814
        42.250
 115127609.634 6                  21521861.512
        39.750
 113937789.295 7  88782699.11346  21681635.566    21681635.388    21681635.787
        46.750          37.250
 127433054.878 7                  24249680.701
        47.500
 107772443.278 8                  20182303.899
        51.250
 110663514.987 8                  20760190.610
        48.500
 133630148.751 7                  25428962.702
        44.250
 125383525.387 7                  23414492.136
        42.500
 103114897.056 7                  19282996.097
        42.750
 21 10 19  0 10 30.0000000  0 30E26G16E04G27G32E12E09G26G04G31S36G25
                                S25G29S23S48R01R21E19R16E21R07R19G18
                                E01R09R10E31R08R20
 126590781.073 7                  24089395.550
        46.750
 124679141.148 6  97152595.59543  23725648.809    23725648.014    23725646.939
        39.000          23.000
 138292372.913 7                  26316164.106
        42.000
 127525669.286 6  99370675.69544  24267327.152    24267326.598    24267332.614
        39.000          27.250
 122598879.042 6  95531593.59544  23329793.519    23329793.439    23329797.066
        41.500          29.750
 139486478.04015                  26543394.414
        35.750
 131918335.318 6                  25103219.858
        40.500
 112818390.726 7  87910501.84346  21468604.575    21468604.142    21468606.108
        47.000          39.250
 133599489.57015 104103499.28852  25423137.110    25423137.253    25423137.716
        33.250          15.500
 106892877.130 8  83293154.40749  20341034.156    20341033.879    20341032.319
        51.000          56.750
 195043830.131 7                  37115604.856
        47.250
 124049943.467 6  96662375.15546  23605899.328    23605898.537    23605900.696
        39.500          38.500
 183400892.533 7                  34899905.118
        46.250
 117117849.291 7  91260708.53047  22286766.209    22286765.731    22286764.161
        46.000          47.250
 203911241.718 7                  38803006.498
        43.500
  30748451.487 7                   5851076.991
        44.000
 128996416.706 6                  24131446.616
        37.750
 121225518.950 7                  22653873.666
        46.250
 148000346.408 5                  28163531.143
        32.500
 123345375.150 6                  23090495.364
        39.750
 141316171.884 6                  26891535.933
        39.500
 129494549.233 7                  24190683.034
        42.500
 115226765.996 6                  21540399.038
        39.250
 113881781.246 7  88739056.55646  21670977.582    21670977.390    21670978.054
        47.500          37.500
 127436980.274 7                  24250427.610
        47.500
 107780079.756 8                  20183734.488
        51.000
 110599879.154 8                  20748252.827
        48.750
 133590758.353 7                  25421466.831
        44.500
 125448187.435 6                  23426566.277
        41.500
 103080301.102 7                  19276526.024
        42.000
 21 10 19  0 11  0.0000000  0 30E26G16E04G27G32E12E09G26G04G31S36G25
                                S25G29S23S48R01R21E19R16E21R07R19G18
                                E01R09R10E31R08R20
 126594527.183 7                  24090108.519
        46.750
 124615461.366 6  97102975.28743  23713530.645    23713529.841    23713529.419
        38.500          22.250
 138356324.315 7                  26328333.795
        42.250
 127427259.553 6  99293993.13744  24248599.947    24248599.357    24248605.633
        38.750          28.000
 122692149.877 7  95604272.21544  23347542.080    23347541.987    23347546.148
        42.250          28.500


 131927226.315 6                  25104911.695
        40.500
 112780377.394 7  87880881.07046  21461370.683    21461370.250    21461372.565
        47.000          39.250
 133533609.197 5 104052163.93242  25410599.443    25410599.390    25410599.081
        32.750          13.250
 106880149.854 8  83283237.03449  20338612.251    20338611.974    20338610.412
        50.500          55.750
 195043826.611 7                  37115605.263
        47.000
 124114217.741 6  96712458.97246  23618130.670    23618129.879    23618132.033
        39.250          38.250
 183398018.277 7                  34899258.114
        46.250
 117202358.119 7  91326559.57647  22302847.645    22302847.167    22302845.386
        45.500          46.750
 203911149.492 7                  38802986.027
        44.500
  30749150.217 7                   5851107.957
        44.250
 129003315.085 6                  24132736.547
        36.750
 121096486.016 8                  22629760.573
        48.750
 148074007.542 4                  28177547.906
        28.500
 123415693.974 6                  23103660.372
        41.250
 141355687.122 6                  26899055.485
        40.000
 129588805.147 7                  24208287.910
        42.500
 115326402.174 6                  21559023.958
        39.000
 113826190.877 7  88695739.48446  21660398.884    21660398.697    21660399.519
        46.500          37.250
 127440952.149 7                  24251183.357
        47.500
 107788057.148 8                  20185228.427
        51.250
 110536349.523 8                  20736334.908
        49.000
 133551338.736 7                  25413965.508
        44.000
 125513204.761 6                  23438706.935
        41.500
 103046512.663 7                  19270208.007
        42.750
 21 10 19  0 11 30.0000000  0 30E26G16E04G27G32E12E09G26G04G31S36G25
                                S25G29S23S48R01R21E19R16E21R07R19G18
                                E01R09R10E31R08R20
 126598708.104 7                  24090904.115
        46.500
 124551847.464 6  97053406.40643  23701425.633    23701424.820    23701422.819
        38.500          21.000
 138420416.098 6                  26340530.180
        41.000
 127329059.105 6  99217473.69644  24229912.693    24229912.081    24229918.119
        38.750          28.250
 122785470.835 7  95676989.91144  23365300.612    23365300.528    23365304.848
        42.500          28.250
 139301672.82815                  26508226.261
        32.250
 131936488.856 6                  25106674.346
        40.500
 112742466.236 7  87851339.91446  21454156.611    21454156.178    21454157.906
        47.000          39.000
 133468123.210 5 104001135.89242  25398137.755    25398137.563    25398137.742
        35.250          17.750
 106867882.804 8  83273678.29049  20336277.917    20336277.640    20336275.791
        51.000          56.250
 195043828.025 7                  37115607.159
        47.250
 124178541.179 6  96762581.10946  23630370.933    23630370.133    23630372.572
        40.000          39.250
 183393537.273 7                  34898610.516
        46.250
 117287060.120 7  91392561.14547  22318965.549    22318965.076    22318963.850
        45.250          46.500
 203911059.119 7                  38802970.569
        43.500
  30748250.544 7                   5851139.473
        44.250
 129010825.742 6                  24134139.950
        36.250
 120967675.463 7                  22605689.893
        44.000
 148147478.388 5                  28191528.928
        33.250
 123486282.753 6                  23116875.047
        39.750
 141395269.513 6                  26906587.773
        39.750
 129682928.829 6                  24225872.238
        41.750
 115426519.943 6                  21577739.842
        38.750
 113771027.130 7  88652754.85646  21649901.734    21649901.551    21649902.001
        47.250          37.500
 127444977.388 7                  24251949.420
        47.500
 107796383.908 8                  20186787.744
        51.500
 110472934.293 8                  20724438.429
        49.000
 133511896.264 7                  25406459.920
        44.000
 125578578.879 6                  23450915.262
        41.750
 103013539.481 7                  19264042.026
        42.250
 21 10 19  0 12  0.0000000  0 30E26G16E04G27G32E12E09G26G04G31S36G25
                                S25G29S23S48R01R21E19R16E21R07R19G18
                                E01R09R10E31R08R20
 126603321.570 7                  24091782.237
        46.250
 124488296.663 6  97003886.46443  23689331.422    23689330.586    23689328.984
        38.500          21.750
 138484644.307 6                  26352752.238
        41.500
 127231067.161 6  99141116.74544  24211264.645    24211264.028    24211270.138
        39.000          27.250
 122878836.141 7  95749741.99345  23383067.614    23383067.530    23383071.320
        42.750          32.250
 139209176.90215                  26490626.875
        35.250
 131946120.080 6                  25108506.707
        40.000
 112704655.284 7  87821876.84646  21446961.516    21446961.087    21446962.529
        47.250          38.750
 133403031.201 5 103950414.85542  25385751.419    25385751.196    25385751.008
        35.000          16.500
 106856074.818 8  83264477.24749  20334031.006    20334030.729    20334028.824
        51.000          56.250
 195043833.225 7                  37115608.227
        47.500
 124242911.797 6  96812740.01646  23642620.252    23642619.439    23642622.417
        40.000          39.000
 183390651.820 7                  34897961.263
        46.500
 117371951.305 7  91458710.12147  22335120.210    22335119.737    22335118.235
        46.250          46.750
